from_pro_com,from_comune,from_id_school,from_name,from_address,latitude_school,longitude_school,to,latitude_to,longitude_to,to_kind,to_comune,to_pro_com,distance,travel_time
83084,Sant'Agata di Militello,MEAA885077,CAPITA,C/DA CAPITA,38.069731930709,14.647017879368,10725,38.0459174,14.6760173,village,Militello Rosmarino,83050,6375.526,484703
83084,Sant'Agata di Militello,MEAA885011,CANNAMELATA,VIA DUCA D'AOSTA,38.068882307751,14.629586179179,10725,38.0459174,14.6760173,village,Militello Rosmarino,83050,7857.624,600132
83084,Sant'Agata di Militello,MEAA885066,TELEGRAFO GAGLIO,C/DA TELEGRAFO,38.062594208189,14.632563561046,10725,38.0459174,14.6760173,village,Militello Rosmarino,83050,7755.794,593781
83084,Sant'Agata di Militello,MEAA87901N,MONACI,VIA MONACI,38.067928045573,14.638807707593,10725,38.0459174,14.6760173,village,Militello Rosmarino,83050,6899.855,532142
83084,Sant'Agata di Militello,ME1A13900N,NEW BRITISH COLLEGE S.C.S.,CONTRADA MONACI 1,38.065759985738,14.642159992197,10725,38.0459174,14.6760173,village,Militello Rosmarino,83050,6364.073,480089
83079,San Marco d'Alunzio,MEAA877045,SAN MARCO D'ALUNZIO,Non Disponibile,38.067123800803,14.707363034578,10725,38.0459174,14.6760173,village,Militello Rosmarino,83050,16393.93,1258575
83001,Alcara li Fusi,MEAA885099,ALCARA LI FUSI,VIA A. GRAMSCI,38.018795504683,14.704515712873,10725,38.0459174,14.6760173,village,Militello Rosmarino,83050,7951.219,574681
83017,Cesarò,MEAA83702L,ALI' CENTRO,SALITA SANTA CATERINA,37.842657438322,14.712990406773,10725,38.0459174,14.6760173,village,Militello Rosmarino,83050,51761.97,3487710
83017,Cesarò,MEAA813035,CESARO',LARGO POZZETTO,37.844550014867,14.717479983679,10725,38.0459174,14.6760173,village,Militello Rosmarino,83050,51840.45,3479979
83108,Torrenova,MEAA877034,SERROCONIGLIO,Non Disponibile,38.0876,14.67948,10725,38.0459174,14.6760173,village,Militello Rosmarino,83050,9280.331,708339
83108,Torrenova,MEAA877012,B. CAPUTO,VIA MELI,38.091096478641,14.680236951672,10725,38.0459174,14.6760173,village,Militello Rosmarino,83050,10317.275,778280
83078,San Fratello,MEAA826026,PORTA NUOVA,C/DA S.ANTONIO,38.017515828642,14.592047890871,10725,38.0459174,14.6760173,village,Militello Rosmarino,83050,18459.498,1444803
83078,San Fratello,MEAA826037,SCHIENA,C/DA SCHIENA,38.011990014004,14.597535033057,10725,38.0459174,14.6760173,village,Militello Rosmarino,83050,18266.366,1403336
83050,Militello Rosmarino,MEAA88510B,MILITELLO ROSMARINO,C/DA SAN PIERO,38.038497326838,14.662774561924,10725,38.0459174,14.6760173,village,Militello Rosmarino,83050,1997.921,155476
83050,Militello Rosmarino,ME1A01700X,BAMBINO GESU',VIA V. EMANUELE I^,38.045709787459,14.675416694913,10725,38.0459174,14.6760173,village,Militello Rosmarino,83050,56.627,6795
83084,Sant'Agata di Militello,MEAA885077,CAPITA,C/DA CAPITA,38.069731930709,14.647017879368,10726,38.0390424,14.6631442,village,Militello Rosmarino,83050,5216.731,503539
83084,Sant'Agata di Militello,MEAA885011,CANNAMELATA,VIA DUCA D'AOSTA,38.068882307751,14.629586179179,10726,38.0390424,14.6631442,village,Militello Rosmarino,83050,6698.829,618968
83084,Sant'Agata di Militello,MEAA885066,TELEGRAFO GAGLIO,C/DA TELEGRAFO,38.062594208189,14.632563561046,10726,38.0390424,14.6631442,village,Militello Rosmarino,83050,6596.999,612617
83084,Sant'Agata di Militello,MEAA87901N,MONACI,VIA MONACI,38.067928045573,14.638807707593,10726,38.0390424,14.6631442,village,Militello Rosmarino,83050,5741.06,550978
83084,Sant'Agata di Militello,ME1A13900N,NEW BRITISH COLLEGE S.C.S.,CONTRADA MONACI 1,38.065759985738,14.642159992197,10726,38.0390424,14.6631442,village,Militello Rosmarino,83050,5205.278,498925
83079,San Marco d'Alunzio,MEAA877045,SAN MARCO D'ALUNZIO,Non Disponibile,38.067123800803,14.707363034578,10726,38.0390424,14.6631442,village,Militello Rosmarino,83050,16396.437,1299489
83001,Alcara li Fusi,MEAA885099,ALCARA LI FUSI,VIA A. GRAMSCI,38.018795504683,14.704515712873,10726,38.0390424,14.6631442,village,Militello Rosmarino,83050,9029.575,653819
83017,Cesarò,MEAA83702L,ALI' CENTRO,SALITA SANTA CATERINA,37.842657438322,14.712990406773,10726,38.0390424,14.6631442,village,Militello Rosmarino,83050,45612.361,3829924
83017,Cesarò,MEAA813035,CESARO',LARGO POZZETTO,37.844550014867,14.717479983679,10726,38.0390424,14.6631442,village,Militello Rosmarino,83050,45690.84,3822193
83108,Torrenova,MEAA877034,SERROCONIGLIO,Non Disponibile,38.0876,14.67948,10726,38.0390424,14.6631442,village,Militello Rosmarino,83050,9282.838,749253
83108,Torrenova,MEAA877012,B. CAPUTO,VIA MELI,38.091096478641,14.680236951672,10726,38.0390424,14.6631442,village,Militello Rosmarino,83050,10319.782,819194
83078,San Fratello,MEAA826026,PORTA NUOVA,C/DA S.ANTONIO,38.017515828642,14.592047890871,10726,38.0390424,14.6631442,village,Militello Rosmarino,83050,17300.704,1463639
83078,San Fratello,MEAA826037,SCHIENA,C/DA SCHIENA,38.011990014004,14.597535033057,10726,38.0390424,14.6631442,village,Militello Rosmarino,83050,17107.571,1422172
83050,Militello Rosmarino,MEAA88510B,MILITELLO ROSMARINO,C/DA SAN PIERO,38.038497326838,14.662774561924,10726,38.0390424,14.6631442,village,Militello Rosmarino,83050,133.02,15963
83050,Militello Rosmarino,ME1A01700X,BAMBINO GESU',VIA V. EMANUELE I^,38.045709787459,14.675416694913,10726,38.0390424,14.6631442,village,Militello Rosmarino,83050,1930.117,143183
83017,Cesarò,MEAA83702L,ALI' CENTRO,SALITA SANTA CATERINA,37.842657438322,14.712990406773,10875,37.8459539,14.7020201,village,San Teodoro,83090,1492.829,119609
83017,Cesarò,MEAA813035,CESARO',LARGO POZZETTO,37.844550014867,14.717479983679,10875,37.8459539,14.7020201,village,San Teodoro,83090,1571.308,111878
83090,San Teodoro,MEAA813024,S.TEODORO,VIA PETRARCA,37.848860777378,14.699302644595,10875,37.8459539,14.7020201,village,San Teodoro,83090,513.686,51981
83027,Furci Siculo,MEAA83201C,FURCI SICULO,VIA CASTELLO,37.959373949448,15.378939030581,10873,37.946962,15.367689,village,Santa Teresa di Riva,83089,2139.82,159447
83027,Furci Siculo,MEAA83202D,GROTTE,FRAZ. GROTTE,37.965458197829,15.362228578523,10873,37.946962,15.367689,village,Santa Teresa di Riva,83089,3748.958,276845
83085,Sant'Alessio Siculo,MEAA889029,S. ALESSIO SICULO,VIA M.LLO ALESSIO ALTADONNA,37.929331393812,15.351657667182,10873,37.946962,15.367689,village,Santa Teresa di Riva,83089,3115.966,220193
83093,Savoca,MEAA889018,"""U.FLERES"" - CONTURA",VIA PROVINCIALE,37.959115864773,15.330434522099,10873,37.946962,15.367689,village,Santa Teresa di Riva,83089,5434.594,459030
83089,Santa Teresa di Riva,MEAA06005T,SPARAGONA',Non Disponibile,37.949893936,15.36355,10873,37.946962,15.367689,village,Santa Teresa di Riva,83089,756.705,90805
83089,Santa Teresa di Riva,MEAA06001N,CANTIDATE,Non Disponibile,37.9352,15.35583,10873,37.946962,15.367689,village,Santa Teresa di Riva,83089,2330.645,162282
83089,Santa Teresa di Riva,MEAA06007X,S. TERESA RIVA - CENTRO,Non Disponibile,37.9352,15.35583,10873,37.946962,15.367689,village,Santa Teresa di Riva,83089,2330.645,162282
83089,Santa Teresa di Riva,MEAA06006V,BUCALO,Non Disponibile,37.949893936,15.36355,10873,37.946962,15.367689,village,Santa Teresa di Riva,83089,756.705,90805
83089,Santa Teresa di Riva,MEAA06002P,VIA DELLE COLLINE,VIA DELLE COLLINE,37.945422422809,15.366461762226,10873,37.946962,15.367689,village,Santa Teresa di Riva,83089,200.942,24113
83089,Santa Teresa di Riva,ME1A123004,SANTA TERESA DEL BAMBINO GESU',VIA DELLE COLLINE 59,37.94512998217,15.365250015336,10873,37.946962,15.367689,village,Santa Teresa di Riva,83089,347.026,41644
83027,Furci Siculo,MEAA83201C,FURCI SICULO,VIA CASTELLO,37.959373949448,15.378939030581,10874,37.9794959,15.3149085,village,Santa Teresa di Riva,83089,7511.729,565195
83027,Furci Siculo,MEAA83202D,GROTTE,FRAZ. GROTTE,37.965458197829,15.362228578523,10874,37.9794959,15.3149085,village,Santa Teresa di Riva,83089,6227.576,473559
83085,Sant'Alessio Siculo,MEAA889029,S. ALESSIO SICULO,VIA M.LLO ALESSIO ALTADONNA,37.929331393812,15.351657667182,10874,37.9794959,15.3149085,village,Santa Teresa di Riva,83089,9730.925,749723
83093,Savoca,MEAA889018,"""U.FLERES"" - CONTURA",VIA PROVINCIALE,37.959115864773,15.330434522099,10874,37.9794959,15.3149085,village,Santa Teresa di Riva,83089,4797.087,345389
83089,Santa Teresa di Riva,MEAA06005T,SPARAGONA',Non Disponibile,37.949893936,15.36355,10874,37.9794959,15.3149085,village,Santa Teresa di Riva,83089,7680.636,626724
83089,Santa Teresa di Riva,MEAA06001N,CANTIDATE,Non Disponibile,37.9352,15.35583,10874,37.9794959,15.3149085,village,Santa Teresa di Riva,83089,8945.604,691812
83089,Santa Teresa di Riva,MEAA06007X,S. TERESA RIVA - CENTRO,Non Disponibile,37.9352,15.35583,10874,37.9794959,15.3149085,village,Santa Teresa di Riva,83089,8945.604,691812
83089,Santa Teresa di Riva,MEAA06006V,BUCALO,Non Disponibile,37.949893936,15.36355,10874,37.9794959,15.3149085,village,Santa Teresa di Riva,83089,7680.636,626724
83089,Santa Teresa di Riva,MEAA06002P,VIA DELLE COLLINE,VIA DELLE COLLINE,37.945422422809,15.366461762226,10874,37.9794959,15.3149085,village,Santa Teresa di Riva,83089,8270.771,697540
83089,Santa Teresa di Riva,ME1A123004,SANTA TERESA DEL BAMBINO GESU',VIA DELLE COLLINE 59,37.94512998217,15.365250015336,10874,37.9794959,15.3149085,village,Santa Teresa di Riva,83089,8314.445,702781
83064,Pace del Mela,MEAA842035,GABBIA,VIA GABBIA,38.205664517254,15.310541296119,10818,38.1731765,15.3269434,village,Condrò,83018,5078.576,385468
83064,Pace del Mela,MEAA842024,GIAMMORO,VIA BACHELET,38.199412167756,15.31794975971,10818,38.1731765,15.3269434,village,Condrò,83018,4496.924,352023
83064,Pace del Mela,MEAA842013,PACE DEL MELA,VIA DON SILVIO CUCINOTTA,38.17523501127,15.307748887096,10818,38.1731765,15.3269434,village,Condrò,83018,5109.72,369131
83035,Gualtieri Sicaminò,MEAA842057,GUALTIERI SICAMINO',PIAZZA CARMINE,38.161830007174,15.319084965307,10818,38.1731765,15.3269434,village,Condrò,83018,2351.171,200294
83080,San Pier Niceto,MEAA842068,CONDRO',PIAZZA DUOMO,38.158435935425,15.351374460426,10818,38.1731765,15.3269434,village,Condrò,83018,3920.974,294471
83080,San Pier Niceto,MEAA842046,SAN PIER NICETO,VIA LONGO,38.159340794027,15.351046089686,10818,38.1731765,15.3269434,village,Condrò,83018,3907.218,302795
83079,San Marco d'Alunzio,MEAA877045,SAN MARCO D'ALUNZIO,Non Disponibile,38.067123800803,14.707363034578,10717,38.0272713,14.752656,village,Longi,83042,13834.745,1001635
83001,Alcara li Fusi,MEAA885099,ALCARA LI FUSI,VIA A. GRAMSCI,38.018795504683,14.704515712873,10717,38.0272713,14.752656,village,Longi,83042,13065.589,1037856
83099,Tortorici,MEAA891029,CAPRERIA,FRAZ CAPRERIA,38.013021128627,14.824968442028,10717,38.0272713,14.752656,village,Longi,83042,16687.523,1417888
83099,Tortorici,MEAA89103A,TORTORICI PAGLIARA,Non Disponibile,38.019147476,14.83196,10717,38.0272713,14.752656,village,Longi,83042,16151.595,1353577
83099,Tortorici,MEAA89110P,VIA FILANGERI,VIA FILANGERI,38.030453206794,14.82242323198,10717,38.0272713,14.752656,village,Longi,83042,14675.812,1184932
83099,Tortorici,MEAA89108G,SCETI,FRAZ SCETI,38.030995523602,14.807382217824,10717,38.0272713,14.752656,village,Longi,83042,11416.0,866213
83099,Tortorici,MEAA89107E,MERCURIO,FRAZ MERCURIO,38.044189410866,14.814764039787,10717,38.0272713,14.752656,village,Longi,83042,14217.294,1120441
83099,Tortorici,MEAA89109L,RANDI,FRAZ RANDI,38.051599863695,14.832097595689,10717,38.0272713,14.752656,village,Longi,83042,19192.888,1588319
83099,Tortorici,MEAA89105C,CENTRO,VIA ZAPPULLA,38.045789189662,14.817242624611,10717,38.0272713,14.752656,village,Longi,83042,15577.836,1283706
83099,Tortorici,MEAA891018,MOIRA,FRAZ MOIRA,38.029489981956,14.84130231682,10717,38.0272713,14.752656,village,Longi,83042,20869.645,1635442
83099,Tortorici,MEAA89106D,ROMANO',FRAZ ROMANO',38.028686082261,14.827199510242,10717,38.0272713,14.752656,village,Longi,83042,14427.17,1150319
83099,Tortorici,MEAA89104B,SCIORTINO,FRAZ SCIORTINO,38.014917598011,14.819843235952,10717,38.0272713,14.752656,village,Longi,83042,16850.106,1455089
83017,Cesarò,MEAA83702L,ALI' CENTRO,SALITA SANTA CATERINA,37.842657438322,14.712990406773,10717,38.0272713,14.752656,village,Longi,83042,71837.084,4696390
83017,Cesarò,MEAA813035,CESARO',LARGO POZZETTO,37.844550014867,14.717479983679,10717,38.0272713,14.752656,village,Longi,83042,71915.563,4688659
83026,Frazzanò,MEAA847038,FRAZZANO',VIA S. IPPOLITO,38.073439988342,14.746042964917,10717,38.0272713,14.752656,village,Longi,83042,7396.388,545468
83030,Galati Mamertino,MEAA84706B,S.BASILIO,Non Disponibile,38.016842214313,14.779420533046,10717,38.0272713,14.752656,village,Longi,83042,5102.15,393651
83030,Galati Mamertino,MEAA84705A,GALATI MAMERTINO,VIA PILIERI,38.032048978298,14.770894411651,10717,38.0272713,14.752656,village,Longi,83042,7023.338,525306
83042,Longi,MEAA847016,LONGI,VIA PLEBISCITO N.1,38.025867955815,14.755100332198,10717,38.0272713,14.752656,village,Longi,83042,339.425,40731
83011,Caronia,MEAA856033,MATERNA STATALE - CARONIA,C/DA TRAPESI SNC,38.020892038077,14.446769619772,10699,37.848909,14.478473,village,Capizzi,83008,33123.905,1865131
83011,Caronia,MEAA856044,CARONIA MARINA,VIA BRIN,38.033684990473,14.446985004948,10699,37.848909,14.478473,village,Capizzi,83008,38411.561,2192859
83052,Mistretta,MEAA84602B,""" GIACOMO MATTEOTTI""",VIA G.MATTEOTTI,37.929092445005,14.357013833058,10699,37.848909,14.478473,village,Capizzi,83008,29510.567,2529782
83052,Mistretta,MEAA84601A,"""GIOVANNI VERGA""",VIA VERGA,37.932232684732,14.350705795408,10699,37.848909,14.478473,village,Capizzi,83008,30106.375,2585716
83017,Cesarò,MEAA83702L,ALI' CENTRO,SALITA SANTA CATERINA,37.842657438322,14.712990406773,10699,37.848909,14.478473,village,Capizzi,83008,37461.222,3129334
83017,Cesarò,MEAA813035,CESARO',LARGO POZZETTO,37.844550014867,14.717479983679,10699,37.848909,14.478473,village,Capizzi,83008,38195.561,3178400
83008,Capizzi,MEAA813013,CAPIZZI I,VIA E.BERLINGUER,37.851456979011,14.483269285554,10699,37.848909,14.478473,village,Capizzi,83008,760.118,87920
83088,Sant'Angelo di Brolo,MEAA83904A,SANT'ANGELO DI BROLO,VIA S.FRANCESCO,38.111814962567,14.88377249528,10779,38.155362,14.829575,village,Brolo,83007,9722.17,699618
83088,Sant'Angelo di Brolo,MEAA83905B,CONTURA,Non Disponibile,38.106865108174,14.889350428449,10779,38.155362,14.829575,village,Brolo,83007,10652.401,821430
83068,Piraino,MEAA84406X,ZAPPARDINO,VIA DELLA REGIONE SICILIANA,38.166432496572,14.897308085398,10779,38.155362,14.829575,village,Brolo,83007,7192.404,417340
83068,Piraino,MEAA844071,FIUMARA,Non Disponibile,38.162050520411,14.845646130016,10779,38.155362,14.829575,village,Brolo,83007,2214.149,157053
83068,Piraino,ME1A12400X,IST.FEMMINILE S.G.BOSCO DELLE SALESIANE GEMBILLO BARBERA,VIA MESSINA 13,38.163099739776,14.847314280852,10779,38.155362,14.829575,village,Brolo,83007,2187.763,154803
83060,Naso,MEAA834036,NASO CENTRO,VIA CONVENTO N. 3,38.124290019332,14.788989981072,10779,38.155362,14.829575,village,Brolo,83007,9934.794,938447
83020,Ficarra,MEAA839039,FICARRA,P.ZZA MONASTERO,38.110756874173,14.827576926708,10779,38.155362,14.829575,village,Brolo,83007,7982.132,577931
83007,Brolo,MEAA839028,VIA TRENTO,VIA TRENTO,38.151958080722,14.838135450875,10779,38.155362,14.829575,village,Brolo,83007,1552.684,113737
83007,Brolo,MEAA839017,PIAZZA ANNUNZIATELLA,VIA PIAZZA ANNUNZIATELLA,38.15677999433,14.829276995199,10779,38.155362,14.829575,village,Brolo,83007,246.896,26122
83007,Brolo,ME1A01200R,PROGETTO INFANZIA SOC. COOP.,VIA PRINCIPE LANCIA 27,38.152820006084,14.825370039244,10779,38.155362,14.829575,village,Brolo,83007,726.041,80933
83024,Forza d'Agrò,MEAA886051,FORZA D'AGRO',Non Disponibile,37.91401,15.33665,18061,37.9353374,15.3461664,village,Savoca,83093,8054.682,548633
83027,Furci Siculo,MEAA83201C,FURCI SICULO,VIA CASTELLO,37.959373949448,15.378939030581,18061,37.9353374,15.3461664,village,Savoca,83093,4755.858,296419
83027,Furci Siculo,MEAA83202D,GROTTE,FRAZ. GROTTE,37.965458197829,15.362228578523,18061,37.9353374,15.3461664,village,Savoca,83093,6364.997,413817
83089,Santa Teresa di Riva,MEAA06005T,SPARAGONA',Non Disponibile,37.949893936,15.36355,18061,37.9353374,15.3461664,village,Savoca,83093,2934.962,265039
83089,Santa Teresa di Riva,MEAA06001N,CANTIDATE,Non Disponibile,37.9352,15.35583,18061,37.9353374,15.3461664,village,Savoca,83093,944.675,67574
83089,Santa Teresa di Riva,MEAA06007X,S. TERESA RIVA - CENTRO,Non Disponibile,37.9352,15.35583,18061,37.9353374,15.3461664,village,Savoca,83093,944.675,67574
83089,Santa Teresa di Riva,MEAA06006V,BUCALO,Non Disponibile,37.949893936,15.36355,18061,37.9353374,15.3461664,village,Savoca,83093,2934.962,265039
83089,Santa Teresa di Riva,MEAA06002P,VIA DELLE COLLINE,VIA DELLE COLLINE,37.945422422809,15.366461762226,18061,37.9353374,15.3461664,village,Savoca,83093,2592.47,179114
83089,Santa Teresa di Riva,ME1A123004,SANTA TERESA DEL BAMBINO GESU',VIA DELLE COLLINE 59,37.94512998217,15.365250015336,18061,37.9353374,15.3461664,village,Savoca,83093,2762.788,199553
83085,Sant'Alessio Siculo,MEAA889029,S. ALESSIO SICULO,VIA M.LLO ALESSIO ALTADONNA,37.929331393812,15.351657667182,18061,37.9353374,15.3461664,village,Savoca,83093,1676.716,122533
83093,Savoca,MEAA889018,"""U.FLERES"" - CONTURA",VIA PROVINCIALE,37.959115864773,15.330434522099,18061,37.9353374,15.3461664,village,Savoca,83093,5839.112,420416
83024,Forza d'Agrò,MEAA886051,FORZA D'AGRO',Non Disponibile,37.91401,15.33665,18062,37.9439168,15.3345326,village,Savoca,83093,9854.199,685160
83027,Furci Siculo,MEAA83201C,FURCI SICULO,VIA CASTELLO,37.959373949448,15.378939030581,18062,37.9439168,15.3345326,village,Savoca,83093,6555.375,432946
83027,Furci Siculo,MEAA83202D,GROTTE,FRAZ. GROTTE,37.965458197829,15.362228578523,18062,37.9439168,15.3345326,village,Savoca,83093,8164.513,550344
83089,Santa Teresa di Riva,MEAA06005T,SPARAGONA',Non Disponibile,37.949893936,15.36355,18062,37.9439168,15.3345326,village,Savoca,83093,4982.12,386457
83089,Santa Teresa di Riva,MEAA06001N,CANTIDATE,Non Disponibile,37.9352,15.35583,18062,37.9439168,15.3345326,village,Savoca,83093,2744.192,204101
83089,Santa Teresa di Riva,MEAA06007X,S. TERESA RIVA - CENTRO,Non Disponibile,37.9352,15.35583,18062,37.9439168,15.3345326,village,Savoca,83093,2744.192,204101
83089,Santa Teresa di Riva,MEAA06006V,BUCALO,Non Disponibile,37.949893936,15.36355,18062,37.9439168,15.3345326,village,Savoca,83093,4982.12,386457
83089,Santa Teresa di Riva,MEAA06002P,VIA DELLE COLLINE,VIA DELLE COLLINE,37.945422422809,15.366461762226,18062,37.9439168,15.3345326,village,Savoca,83093,4391.986,315641
83089,Santa Teresa di Riva,ME1A123004,SANTA TERESA DEL BAMBINO GESU',VIA DELLE COLLINE 59,37.94512998217,15.365250015336,18062,37.9439168,15.3345326,village,Savoca,83093,4562.304,336080
83085,Sant'Alessio Siculo,MEAA889029,S. ALESSIO SICULO,VIA M.LLO ALESSIO ALTADONNA,37.929331393812,15.351657667182,18062,37.9439168,15.3345326,village,Savoca,83093,3476.233,259060
83093,Savoca,MEAA889018,"""U.FLERES"" - CONTURA",VIA PROVINCIALE,37.959115864773,15.330434522099,18062,37.9439168,15.3345326,village,Savoca,83093,3517.145,372415
83024,Forza d'Agrò,MEAA886051,FORZA D'AGRO',Non Disponibile,37.91401,15.33665,18063,37.9558591,15.3393223,village,Savoca,83093,11907.938,857441
83027,Furci Siculo,MEAA83201C,FURCI SICULO,VIA CASTELLO,37.959373949448,15.378939030581,18063,37.9558591,15.3393223,village,Savoca,83093,6985.466,470889
83027,Furci Siculo,MEAA83202D,GROTTE,FRAZ. GROTTE,37.965458197829,15.362228578523,18063,37.9558591,15.3393223,village,Savoca,83093,8594.604,588287
83089,Santa Teresa di Riva,MEAA06005T,SPARAGONA',Non Disponibile,37.949893936,15.36355,18063,37.9558591,15.3393223,village,Savoca,83093,4296.883,365466
83089,Santa Teresa di Riva,MEAA06001N,CANTIDATE,Non Disponibile,37.9352,15.35583,18063,37.9558591,15.3393223,village,Savoca,83093,4569.774,379122
83089,Santa Teresa di Riva,MEAA06007X,S. TERESA RIVA - CENTRO,Non Disponibile,37.9352,15.35583,18063,37.9558591,15.3393223,village,Savoca,83093,4569.774,379122
83089,Santa Teresa di Riva,MEAA06006V,BUCALO,Non Disponibile,37.949893936,15.36355,18063,37.9558591,15.3393223,village,Savoca,83093,4296.883,365466
83089,Santa Teresa di Riva,MEAA06002P,VIA DELLE COLLINE,VIA DELLE COLLINE,37.945422422809,15.366461762226,18063,37.9558591,15.3393223,village,Savoca,83093,4422.294,380516
83089,Santa Teresa di Riva,ME1A123004,SANTA TERESA DEL BAMBINO GESU',VIA DELLE COLLINE 59,37.94512998217,15.365250015336,18063,37.9558591,15.3393223,village,Savoca,83093,4465.968,385757
83085,Sant'Alessio Siculo,MEAA889029,S. ALESSIO SICULO,VIA M.LLO ALESSIO ALTADONNA,37.929331393812,15.351657667182,18063,37.9558591,15.3393223,village,Savoca,83093,5355.095,437033
83093,Savoca,MEAA889018,"""U.FLERES"" - CONTURA",VIA PROVINCIALE,37.959115864773,15.330434522099,18063,37.9558591,15.3393223,village,Savoca,83093,1083.532,80382
83048,Messina,MEAA869013,MONTEPISELLI,VIA GELONE,38.188591981193,15.541618388566,10803,38.1938202,15.4344585,village,Saponara,83092,23621.333,1479598
83048,Messina,MEAA86704E,S. CLEMENTE,VIA GHIBELLINA N.209,38.181620015847,15.549089962407,10803,38.1938202,15.4344585,village,Saponara,83092,23521.591,1384831
83048,Messina,MEAA88202E,C. BATTISTI,VIA A. MANZONI,38.207585776225,15.553169906042,10803,38.1938202,15.4344585,village,Saponara,83092,21674.572,1243108
83048,Messina,MEAA872042,GANZIRRI,VIA CONSOLARE POMPEA N. 1707,38.25751999312,15.606129986982,10803,38.1938202,15.4344585,village,Saponara,83092,29508.81,1689613
83048,Messina,MEAA871013,VILLA LINA - GIOSTRA,VIA M. SCUDERI,38.211421180176,15.549429286619,10803,38.1938202,15.4344585,village,Saponara,83092,20916.172,1193766
83048,Messina,MEAA86501Q,S. LICANDRO,VIA OLIMPIA,38.215669101332,15.558419602048,10803,38.1938202,15.4344585,village,Saponara,83092,22681.034,1301126
83048,Messina,MEAA869057,SAVASTA,VIA F. BISAZZA,38.191253808213,15.549390710487,10803,38.1938202,15.4344585,village,Saponara,83092,22484.091,1326029
83048,Messina,MEAA82201T,S.S.ANNUNZIATA,VIA CAPRERA,38.222244061436,15.555236574639,10803,38.1938202,15.4344585,village,Saponara,83092,21650.754,1331064
83048,Messina,MEAA86205C,GAZZI FUCILE,FONDO FUCILE,38.170560001,15.527801667,10803,38.1938202,15.4344585,village,Saponara,83092,24737.297,1364172
83048,Messina,MEAA8AD109,ALFIO RAGAZZI,VIA NAZIONALE,38.069978264643,15.487473561461,10803,38.1938202,15.4344585,village,Saponara,83092,36467.998,2104476
83048,Messina,MEAA86204B,CENTRO SOCIALE,VIA D'ANFUSO,38.170496462295,15.528435361582,10803,38.1938202,15.4344585,village,Saponara,83092,24754.041,1366182
83048,Messina,MEAA8AD031,S.STEFANO BRIGA,VIA NUOVA,38.265225015704,15.643204988746,10803,38.1938202,15.4344585,village,Saponara,83092,30260.913,1954207
83048,Messina,MEAA897039,S.LUCIA,VIA CARIDDI N. 1,38.156859999596,15.520380016193,10803,38.1938202,15.4344585,village,Saponara,83092,25991.235,1444059
83048,Messina,MEAA8AD097,"""PASQUALE SIMONE NERI""",VIA M.RIZZO,38.208779622255,15.550716042503,10803,38.1938202,15.4344585,village,Saponara,83092,21287.812,1259414
83048,Messina,MEAA8AD053,GALATI S. ANNA,VIA COMUNALE,38.122327754497,15.497774170025,10803,38.1938202,15.4344585,village,Saponara,83092,32221.813,1818535
83048,Messina,MEAA86103E,"""SAN NICOLA""",C.DA BADESSA,38.16509555232,15.497708305782,10803,38.1938202,15.4344585,village,Saponara,83092,28442.838,1643001
83048,Messina,MEAA89301X,BOER,VIA PALERMO IS.271,38.20841000332,15.549179984047,10803,38.1938202,15.4344585,village,Saponara,83092,21106.304,1237632
83048,Messina,MEAA864032,SAN GIACOMO APOSTOLO,VIA COMUNALE,38.186282358556,15.552004849959,10803,38.1938202,15.4344585,village,Saponara,83092,22905.924,1340959
83048,Messina,MEAA86107P,BORDONARO,VIA SCAMINACI17/18,38.175754573363,15.513151431345,10803,38.1938202,15.4344585,village,Saponara,83092,25322.11,1419686
83048,Messina,MEAA86105L,GESCAL,CASE GESCAL,38.17839,15.55309,10803,38.1938202,15.4344585,village,Saponara,83092,24688.941,1347250
83048,Messina,MEAA86401X,BISCONTE,VIA POLVERIERA,38.189589221974,15.530729990234,10803,38.1938202,15.4344585,village,Saponara,83092,22743.125,1277488
83048,Messina,MEAA864021,LA PIRA,CONTROVIALE TANGENZIALE CAMARO,38.188037313204,15.528515819619,10803,38.1938202,15.4344585,village,Saponara,83092,21239.354,1114457
83048,Messina,MEAA87201V,FARO SUPERIORE,VIA REGINA ELENA,38.268074936258,15.58166002649,10803,38.1938202,15.4344585,village,Saponara,83092,25496.06,1576365
83048,Messina,MEAA851041,GRANATA,Non Disponibile,38.17839,15.55309,10803,38.1938202,15.4344585,village,Saponara,83092,24688.941,1347250
83048,Messina,MEAA8AC046,MOLETI,VIA NAZIONALE,38.127196457132,15.519534058723,10803,38.1938202,15.4344585,village,Saponara,83092,29298.249,1599476
83048,Messina,MEAA872031,"""EVEMERO DA MESSINA""",VIA CARATOZZOLO - C/DA SALINA,38.266490001,15.638894651,10803,38.1938202,15.4344585,village,Saponara,83092,29767.229,1901216
83048,Messina,MEAA85103X,CONTESSE UNRRA,VIA CALISPERA,38.151053452353,15.532322015683,10803,38.1938202,15.4344585,village,Saponara,83092,27804.145,1556769
83048,Messina,MEAA8AD064,ALTOLIA,VIA PROVINCIALE,38.074165001,15.436346127,10803,38.1938202,15.4344585,village,Saponara,83092,48320.869,3796960
83048,Messina,MEAA872064,AIOSSA,VIA PIANO ROMITI,38.26473,15.613193147,10803,38.1938202,15.4344585,village,Saponara,83092,30811.45,1796820
83048,Messina,MEAA872075,GRANATARI,Non Disponibile,38.17839,15.55309,10803,38.1938202,15.4344585,village,Saponara,83092,24688.941,1347250
83048,Messina,MEAA87108A,"""CESAREO-S.MICHELE""",VIA COMUNALE PER S.MICHELE,38.215572419099,15.533436058757,10803,38.1938202,15.4344585,village,Saponara,83092,19474.328,1123174
83048,Messina,MEAA8AC013,TREMESTIERI,VIA CONSOLARE VALERIA,38.166857770792,15.53986435789,10803,38.1938202,15.4344585,village,Saponara,83092,25885.036,1423232
83048,Messina,MEAA871046,"""G.MAURO""",VIA TORRENTE S. ANDREA,38.215728400035,15.545257865615,10803,38.1938202,15.4344585,village,Saponara,83092,20803.864,1200993
83048,Messina,MEAA872053,TORRE FARO,VIA SCUOLE,38.267376734778,15.645048302952,10803,38.1938202,15.4344585,village,Saponara,83092,30656.907,2001726
83048,Messina,MEAA871079,MASSA S. LUCIA,VIA DEL POZZO,38.200884690543,15.548363248548,10803,38.1938202,15.4344585,village,Saponara,83092,21173.288,1191764
83048,Messina,MEAA8AC024,TREMESTIERI - PISTUNINA,VIA C.VALERIA,38.139142216305,15.525532423198,10803,38.1938202,15.4344585,village,Saponara,83092,28069.657,1602275
83048,Messina,MEAA871068,CASTANEA,VIA MASSA,38.267511445361,15.526065442296,10803,38.1938202,15.4344585,village,Saponara,83092,17836.643,1410493
83048,Messina,MEAA897017,INFANZIA CONTESSE CEP,VIA DEI GELSOMINI (17/G),38.153030032408,15.52766857356,10803,38.1938202,15.4344585,village,Saponara,83092,26886.231,1567039
83048,Messina,MEAA897028,CEP EX PALAZZO SAJA,VIA 17/G,38.154352479222,15.529278214766,10803,38.1938202,15.4344585,village,Saponara,83092,26993.203,1556961
83048,Messina,MEAA86705G,ISTITUTO ANTONIANO,VIA CESARE BATTISTI N. 279,38.183449994858,15.549939971208,10803,38.1938202,15.4344585,village,Saponara,83092,23268.773,1362730
83048,Messina,MEAA85102V,ZAFFERIA,VIA GABBELLA,38.152761252618,15.506516422391,10803,38.1938202,15.4344585,village,Saponara,83092,28430.878,1681482
83048,Messina,MEAA87304T,F.CRISPI,VIA MONS. D'ARRIGO ISOLATO 401,38.201536753888,15.556049780429,10803,38.1938202,15.4344585,village,Saponara,83092,21931.494,1262186
83048,Messina,MEAA86702C,VIA PIEMONTE,VIA PIEMONTE,38.180382395234,15.546183720194,10803,38.1938202,15.4344585,village,Saponara,83092,24171.431,1336239
83048,Messina,MEAA89602C,VIA TRENTO,VIA TRENTO EX MISCELA D'ORO,38.178921408451,15.552800040089,10803,38.1938202,15.4344585,village,Saponara,83092,24778.534,1355676
83048,Messina,MEAA87302Q,ISTITUTO ASSISTENZA INFANZIA,PIAZZA CASA PIA 39/B,38.203717436736,15.556199157404,10803,38.1938202,15.4344585,village,Saponara,83092,22233.545,1267313
83048,Messina,MEAA86602L,CANNIZZARO - INFANZIA,VIA M. GIURBA N. 2,38.187639982527,15.551760017663,10803,38.1938202,15.4344585,village,Saponara,83092,22827.163,1357824
83048,Messina,MEAA851052,POLIMENI-ZUMBO,VIA MARCO POLO 228,38.157480008973,15.534799990959,10803,38.1938202,15.4344585,village,Saponara,83092,26773.097,1492382
83048,Messina,MEAA86601G,GALATTI - INFANZIA,VIA N. FABRIZI 157,38.188059999695,15.551539992705,10803,38.1938202,15.4344585,village,Saponara,83092,22754.563,1349111
83048,Messina,MEAA8AE03R,PIETRO DONATO,VIA CONSOLARE POMPEA N? 45 PARADISO,38.220769999652,15.565159998632,10803,38.1938202,15.4344585,village,Saponara,83092,23762.96,1343241
83048,Messina,MEAA8AE01P,BEATA EUSTOCHIA,VIA DEL FANTE N? 18,38.219259999795,15.560999976267,10803,38.1938202,15.4344585,village,Saponara,83092,22294.404,1383331
83048,Messina,MEAA8AE02Q,"SCUOLA DELL'INFANZIA ""PETRARCA""",VIA C. POMPEA,38.266815737558,15.617599521315,10803,38.1938202,15.4344585,village,Saponara,83092,31249.375,2023663
83048,Messina,MEAA8AE04T,LETTERIO DONATO,C.DA SENA - PACE,38.242397773927,15.579480386546,10803,38.1938202,15.4344585,village,Saponara,83092,26558.392,1509547
83048,Messina,MEAA862029,POLICLINICO,VIA CONDOTTIERI,38.161466882859,15.53610918086,10803,38.1938202,15.4344585,village,Saponara,83092,26624.358,1472386
83048,Messina,MEAA862018,VALLE DEGLI ANGELI,VIA CHERUBINI,38.171514168612,15.538800995649,10803,38.1938202,15.4344585,village,Saponara,83092,25678.043,1478808
83048,Messina,MEAA88701L,INFANZIA DRAGO,VIA CATANIA 103 IS. 26/C,38.172979991964,15.543750019532,10803,38.1938202,15.4344585,village,Saponara,83092,25934.101,1502980
83048,Messina,MEAA86703D,VIA DEI MILLE,VIA DEI MILLE,38.186724993022,15.55569997316,10803,38.1938202,15.4344585,village,Saponara,83092,22964.559,1354245
83048,Messina,MEAA89601B,L. RIZZO,VIALE SAN MARTINO 246,38.181239980357,15.551749959379,10803,38.1938202,15.4344585,village,Saponara,83092,23710.873,1407545
83048,Messina,MEAA86102D,VILL.SANTO EX SALA SMERALDA,PIAZZA CHIESA,38.250860005268,15.493709973755,10803,38.1938202,15.4344585,village,Saponara,83092,14591.369,971784
83048,Messina,MEAA8AD086,GIAMPILIERI MARINA,VIA COMUNALE,38.101806434596,15.490070145087,10803,38.1938202,15.4344585,village,Saponara,83092,35002.625,2019873
83048,Messina,MEAA89401Q,BUON PASTORE - CRISTO RE,V.LE P.UMBERTO 93,38.195970001722,15.55114998275,10803,38.1938202,15.4344585,village,Saponara,83092,21488.527,1200633
83048,Messina,MEAA871024,"""E.CASTRONOVO",PIAZZA CASTELLO,38.233675431323,15.471649738821,10803,38.1938202,15.4344585,village,Saponara,83092,12546.023,964224
83048,Messina,MEAA8AD01V,S.MARGHERITA SCUOLE ELEMENTARI,VIA COMUNALE,38.101806434596,15.490070145087,10803,38.1938202,15.4344585,village,Saponara,83092,35002.625,2019873
83048,Messina,MEAA871057,FRANCESCO SACCA',VIA COMUNALE-S.MICHELE,38.215572419099,15.533436058757,10803,38.1938202,15.4344585,village,Saponara,83092,19474.328,1123174
83048,Messina,MEAA8AC035,TIPOLDO,PIAZZA CHIESA,38.250860005268,15.493709973755,10803,38.1938202,15.4344585,village,Saponara,83092,14591.369,971784
83048,Messina,MEAA871035,"""G.CENA""",VIA P. UMBERTO,38.250711918243,15.493949472509,10803,38.1938202,15.4344585,village,Saponara,83092,14617.638,973675
83048,Messina,MEAA86203A,EX LEOPARDI,VIA TAORMINA (LOCALI IACP),38.163385508864,15.539499160259,10803,38.1938202,15.4344585,village,Saponara,83092,25995.666,1423739
83048,Messina,MEAA86109R,SCUOLA MATERNA,VIA PRIMO MOLINO,38.169370510009,15.529767454561,10803,38.1938202,15.4344585,village,Saponara,83092,24970.331,1392137
83048,Messina,MEAA86106N,A.LUCIANI,GAZZI FUCILE,38.17839,15.55309,10803,38.1938202,15.4344585,village,Saponara,83092,24688.941,1347250
83048,Messina,MEAA89603D,VIA NATOLI,VIA NATOLI 79,38.182879983533,15.556529991122,10803,38.1938202,15.4344585,village,Saponara,83092,24105.577,1412295
83048,Messina,MEAA86108Q,CUMIA SUPERIORE,VIA COMUNALE,38.186282358556,15.552004849959,10803,38.1938202,15.4344585,village,Saponara,83092,22905.924,1340959
83048,Messina,MEAA864043,"""GENTILUOMO""",VIA COMUNALE,38.186282358556,15.552004849959,10803,38.1938202,15.4344585,village,Saponara,83092,22905.924,1340959
83048,Messina,MEAA869024,GRAVITELLISUPERIORE,PIAZZA VERSACI,38.196228017163,15.537102044292,10803,38.1938202,15.4344585,village,Saponara,83092,23087.466,1382388
83048,Messina,MEAA869046,CRISTO RE,VIALE PRINCIPE UMBERTO,38.195267085469,15.546481725724,10803,38.1938202,15.4344585,village,Saponara,83092,21890.094,1247618
83048,Messina,MEAA8AD042,S.STEFANO MEDIO,VIA COMUNALE,38.101806434596,15.490070145087,10803,38.1938202,15.4344585,village,Saponara,83092,35002.625,2019873
83048,Messina,ME1A044008,SCUOLA MATERNA REGIONALE,SS. 114 PAL. PRESTI,38.128861226149,15.520616628536,10803,38.1938202,15.4344585,village,Saponara,83092,29088.763,1582717
83048,Messina,ME1A5F500S,PATAPUFFETE,VIALE PRINCIPE UMBERTO 61/B,38.195410006771,15.546159984333,10803,38.1938202,15.4344585,village,Saponara,83092,21888.232,1247192
83048,Messina,ME1A505001,IL REGNO DEGLI ELFI,VIA SANTA CECILIA N. 119,38.183360015128,15.550849994435,10803,38.1938202,15.4344585,village,Saponara,83092,23457.446,1392173
83048,Messina,ME1A16900D,JUNIOR SOC. COOP. SOCIALE,VIA MARCO POLO VILLA MILORO s.n.c.,38.154871841121,15.533945048798,10803,38.1938202,15.4344585,village,Saponara,83092,27068.56,1527837
83048,Messina,ME1A565003,MAGICA BULA,VIA CATANIA IS. 41,38.179579986343,15.54736002141,10803,38.1938202,15.4344585,village,Saponara,83092,24407.286,1345701
83048,Messina,ME1A137002,PARK PALACE SAS IMP. SOC.,VIA DUCEZIO 36,38.190520004458,15.543469980146,10803,38.1938202,15.4344585,village,Saponara,83092,22752.858,1367538
83048,Messina,ME1A16800N,SAN DOMENICO SAVIO,VIA LENZI24,38.191400020472,15.550389995589,10803,38.1938202,15.4344585,village,Saponara,83092,22379.435,1306805
83048,Messina,ME1A007009,IL PICCOLO PRINCIPE SOC. COOP. SOCIALE,VIA MARIO PASSAMONTE PAL.B RIONE OGLIASTRI,38.209632247888,15.557555905839,10803,38.1938202,15.4344585,village,Saponara,83092,21643.319,1227232
83048,Messina,ME1AUL500G,IL BOSCO DEI 100 ACRI,VILLAGGIO CONTESSE S.S. 114 KM 4.100 I LOTTO,38.152812084765,15.530618021107,10803,38.1938202,15.4344585,village,Saponara,83092,26810.682,1516105
83048,Messina,ME1A101007,SCUOLA MATERNA REGIONALE,VIA COMUNALE33/D BORDONARO CONTRADA CONVITO,38.176680974762,15.520824003995,10803,38.1938202,15.4344585,village,Saponara,83092,24822.32,1392558
83048,Messina,ME1AZA500L,I PESCIOLINI 2,Via Lenzi 5/B,38.191490000203,15.550299973949,10803,38.1938202,15.4344585,village,Saponara,83092,22373.103,1306045
83048,Messina,ME1A173005,PLACIDO DI BELLA SOC.COOP.SOC.,VIALE ANNUNZIATA 86,38.220730017973,15.555589960681,10803,38.1938202,15.4344585,village,Saponara,83092,22020.911,1346776
83048,Messina,ME1A02600P,IST.FIGLIE DELDIVINO ZELO C. A. MARIA DI FRANCIA,VIA SANTA MARTA 194,38.185990004887,15.549200016795,10803,38.1938202,15.4344585,village,Saponara,83092,24099.629,1374792
83048,Messina,ME1A845003,I PESCIOLINI,VIALE BOCCETTA N. 64,38.197419987152,15.555709989535,10803,38.1938202,15.4344585,village,Saponara,83092,21929.027,1247342
83048,Messina,ME1A14100N,S. IGNAZIO,VIA IGNATIANUM 23,38.206349982976,15.551179989963,10803,38.1938202,15.4344585,village,Saponara,83092,22150.221,1245758
83048,Messina,ME1A10500E,S.ANNA P.G.B.TORNATORE,VIA XXIV MAGGIO 159,38.195549984554,15.553119981453,10803,38.1938202,15.4344585,village,Saponara,83092,21725.823,1228371
83048,Messina,ME1A11700R,IST.FEMMINILE S.G.BOSCO DELLE SALESIANE SAN GIOVANNI BOSCO,VIA BRESCIA 5,38.179210009137,15.548450004099,10803,38.1938202,15.4344585,village,Saponara,83092,24353.101,1341234
83048,Messina,ME1A10400P,ANCELLE RIPARATRICI DEL SS. CUORE DI GESU' SACRO CUORE,VIA MONS. A. CELONA 1 IS.485,38.206639996826,15.556940033826,10803,38.1938202,15.4344585,village,Saponara,83092,21770.664,1254640
83048,Messina,ME1A032002,SCUOLA MATERNA REGIONALE,VIA BRASILE,38.212749691491,15.560170671344,10803,38.1938202,15.4344585,village,Saponara,83092,22793.79,1296037
83048,Messina,ME1A17700C,SORRISO DEI BIMBI 2 SOC.COOP.SOCIALE,VIA A. M. IACI37,38.210705,15.550621869,10803,38.1938202,15.4344585,village,Saponara,83092,21189.677,1208873
83048,Messina,ME1A149008,L'ALBERO AZZURRO SOC.COOP.SOC.,VILL. S. AGATA SALITA SPERONE N. 17/A,38.266490001,15.638894651,10803,38.1938202,15.4344585,village,Saponara,83092,29767.229,1901216
83048,Messina,ME1A029006,CONGREGAZIONE DELLE RELIGIOSE DOMENICANE SACRO CUORE,VIA SACRO CUORE 3,38.191030001357,15.548169964714,10803,38.1938202,15.4344585,village,Saponara,83092,22482.486,1325836
83048,Messina,ME1A108002,IST. ANCELLE RIPARATRICI DEL SS.CUORE GESU' ANTONINO CELONA,VIA NINO BIXIO 30 IS.127,38.182280006903,15.554529985206,10803,38.1938202,15.4344585,village,Saponara,83092,24010.214,1400850
83048,Messina,ME1A107006,"IST.APOSTOLE DELLA SACRA FAMIGLIA ""LEONE XIII"" M.PAINO",VIA ELENUCCIA 15,38.200929992926,15.55550002286,10803,38.1938202,15.4344585,village,Saponara,83092,21791.287,1245361
83048,Messina,ME1A040001,SCUOLA INFANZIA PARIT. REGIONALE,VIA TRENTO,38.178921408451,15.552800040089,10803,38.1938202,15.4344585,village,Saponara,83092,24778.534,1355676
83048,Messina,ME1A151008,BABY'S WORLD SOC. COOP. SOC.,VIALE S. MARTINO IS. 102 N. 227,38.184059987862,15.554280036853,10803,38.1938202,15.4344585,village,Saponara,83092,23338.643,1386252
83048,Messina,ME1A130007,IL MONDO DI TRILLY S.C.S.,Via Vittorio Bottego snc Vill. Contesse,38.158222086953,15.534905400212,10803,38.1938202,15.4344585,village,Saponara,83092,26769.658,1473387
83048,Messina,ME1A179004,LA NUVOLETTA SOC.COOP.SOC.,VIA LA FARINA IS. 149 N.64,38.181039988148,15.555760029497,10803,38.1938202,15.4344585,village,Saponara,83092,24221.54,1352088
83048,Messina,ME1AMR500R,LA CASA DI WINNIE,VIA CENTONZE N. 200,38.18311999933,15.550829961687,10803,38.1938202,15.4344585,village,Saponara,83092,23459.576,1383217
83048,Messina,ME1A31500V,SORRISO DEI BIMBI 1 SOC.COOP.SOC.,VIA GARIBALDI 318 IS. 495,38.207130002886,15.558520022574,10803,38.1938202,15.4344585,village,Saponara,83092,21975.46,1246597
83048,Messina,ME1A04600X,SCUOLA MATERNA REGIONALE,PIAZZ CHIESA MILI S. PIETRO,38.126935586195,15.488188525193,10803,38.1938202,15.4344585,village,Saponara,83092,33388.841,1903851
83048,Messina,ME1A181004,L'ALLEGRO MONDO DEI BIMBI SOC.COOP.SOC.,VIA MARINA 72 SANTA MARGHERITA,38.099430006975,15.495690030742,10803,38.1938202,15.4344585,village,Saponara,83092,34412.32,1977370
83076,Rometta,MEAA87407R,ROMETTA,VIA MARIO GIURBA,38.172143668609,15.413616216817,10803,38.1938202,15.4344585,village,Saponara,83092,9151.693,677546
83076,Rometta,MEAA87406Q,MAREA,CORSO DELLA LIBERTA'86,38.231839146136,15.408355381169,10803,38.1938202,15.4344585,village,Saponara,83092,6413.439,487045
83076,Rometta,ME1ADL5008,EMOZIONIDO,CORSO FRANCESCO SAIJA N. 80,38.230270006801,15.402600027343,10803,38.1938202,15.4344585,village,Saponara,83092,6940.396,529006
83105,Villafranca Tirrena,MEAA819056,GRIOLI,VIA EUROPA,38.231719760868,15.44004621626,10803,38.1938202,15.4344585,village,Saponara,83092,6760.812,495784
83105,Villafranca Tirrena,MEAA819034,DIVIETO,VIA MARINA,38.243843005058,15.440998036997,10803,38.1938202,15.4344585,village,Saponara,83092,7270.768,540345
83105,Villafranca Tirrena,ME1A15600B,IL LANTERNINO SOC.COOP.SOC.,VIA LIOTTA 4,38.235310003271,15.433630000536,10803,38.1938202,15.4344585,village,Saponara,83092,6178.608,449762
83105,Villafranca Tirrena,ME1A15300X,QUIBIMBI SOC. COOP. SOC.,VIA NAZIONALE 162/164,38.240916943715,15.443074639833,10803,38.1938202,15.4344585,village,Saponara,83092,6934.199,484798
83092,Saponara,MEAA87403L,"SCUOLA MATERNA ""S.QUASIMODO""",VIA COMO,38.203449943985,15.431719628489,10803,38.1938202,15.4344585,village,Saponara,83092,1509.268,114194
83092,Saponara,MEAA87404N,"SCUOLA MATERNA ""GIOVANNI XXIII""",VIA DEL MARE,38.237368145049,15.426919346945,10803,38.1938202,15.4344585,village,Saponara,83092,5670.406,436171
83092,Saponara,MEAA87401E,"SCUOLA MATERNA ""ARIELLA""",VIA ARIELLA,38.194971232933,15.434431881933,10803,38.1938202,15.4344585,village,Saponara,83092,419.405,53727
83048,Messina,MEAA869013,MONTEPISELLI,VIA GELONE,38.188591981193,15.541618388566,10804,38.2193988,15.430337,village,Saponara,83092,20656.982,1267551
83048,Messina,MEAA86704E,S. CLEMENTE,VIA GHIBELLINA N.209,38.181620015847,15.549089962407,10804,38.2193988,15.430337,village,Saponara,83092,20557.241,1172784
83048,Messina,MEAA88202E,C. BATTISTI,VIA A. MANZONI,38.207585776225,15.553169906042,10804,38.2193988,15.430337,village,Saponara,83092,18710.222,1031061
83048,Messina,MEAA872042,GANZIRRI,VIA CONSOLARE POMPEA N. 1707,38.25751999312,15.606129986982,10804,38.2193988,15.430337,village,Saponara,83092,26544.459,1477566
83048,Messina,MEAA871013,VILLA LINA - GIOSTRA,VIA M. SCUDERI,38.211421180176,15.549429286619,10804,38.2193988,15.430337,village,Saponara,83092,17951.821,981719
83048,Messina,MEAA86501Q,S. LICANDRO,VIA OLIMPIA,38.215669101332,15.558419602048,10804,38.2193988,15.430337,village,Saponara,83092,19716.683,1089079
83048,Messina,MEAA869057,SAVASTA,VIA F. BISAZZA,38.191253808213,15.549390710487,10804,38.2193988,15.430337,village,Saponara,83092,19519.741,1113982
83048,Messina,MEAA82201T,S.S.ANNUNZIATA,VIA CAPRERA,38.222244061436,15.555236574639,10804,38.2193988,15.430337,village,Saponara,83092,18686.404,1119017
83048,Messina,MEAA86205C,GAZZI FUCILE,FONDO FUCILE,38.170560001,15.527801667,10804,38.2193988,15.430337,village,Saponara,83092,21772.947,1152125
83048,Messina,MEAA8AD109,ALFIO RAGAZZI,VIA NAZIONALE,38.069978264643,15.487473561461,10804,38.2193988,15.430337,village,Saponara,83092,33503.648,1892429
83048,Messina,MEAA86204B,CENTRO SOCIALE,VIA D'ANFUSO,38.170496462295,15.528435361582,10804,38.2193988,15.430337,village,Saponara,83092,21789.691,1154135
83048,Messina,MEAA8AD031,S.STEFANO BRIGA,VIA NUOVA,38.265225015704,15.643204988746,10804,38.2193988,15.430337,village,Saponara,83092,27296.563,1742160
83048,Messina,MEAA897039,S.LUCIA,VIA CARIDDI N. 1,38.156859999596,15.520380016193,10804,38.2193988,15.430337,village,Saponara,83092,23026.884,1232012
83048,Messina,MEAA8AD097,"""PASQUALE SIMONE NERI""",VIA M.RIZZO,38.208779622255,15.550716042503,10804,38.2193988,15.430337,village,Saponara,83092,18323.462,1047367
83048,Messina,MEAA8AD053,GALATI S. ANNA,VIA COMUNALE,38.122327754497,15.497774170025,10804,38.2193988,15.430337,village,Saponara,83092,29257.463,1606488
83048,Messina,MEAA86103E,"""SAN NICOLA""",C.DA BADESSA,38.16509555232,15.497708305782,10804,38.2193988,15.430337,village,Saponara,83092,25478.487,1430954
83048,Messina,MEAA89301X,BOER,VIA PALERMO IS.271,38.20841000332,15.549179984047,10804,38.2193988,15.430337,village,Saponara,83092,18141.954,1025585
83048,Messina,MEAA864032,SAN GIACOMO APOSTOLO,VIA COMUNALE,38.186282358556,15.552004849959,10804,38.2193988,15.430337,village,Saponara,83092,19941.574,1128912
83048,Messina,MEAA86107P,BORDONARO,VIA SCAMINACI17/18,38.175754573363,15.513151431345,10804,38.2193988,15.430337,village,Saponara,83092,22357.76,1207639
83048,Messina,MEAA86105L,GESCAL,CASE GESCAL,38.17839,15.55309,10804,38.2193988,15.430337,village,Saponara,83092,21724.59,1135203
83048,Messina,MEAA86401X,BISCONTE,VIA POLVERIERA,38.189589221974,15.530729990234,10804,38.2193988,15.430337,village,Saponara,83092,19778.775,1065441
83048,Messina,MEAA864021,LA PIRA,CONTROVIALE TANGENZIALE CAMARO,38.188037313204,15.528515819619,10804,38.2193988,15.430337,village,Saponara,83092,18275.004,902410
83048,Messina,MEAA87201V,FARO SUPERIORE,VIA REGINA ELENA,38.268074936258,15.58166002649,10804,38.2193988,15.430337,village,Saponara,83092,22531.709,1364318
83048,Messina,MEAA851041,GRANATA,Non Disponibile,38.17839,15.55309,10804,38.2193988,15.430337,village,Saponara,83092,21724.59,1135203
83048,Messina,MEAA8AC046,MOLETI,VIA NAZIONALE,38.127196457132,15.519534058723,10804,38.2193988,15.430337,village,Saponara,83092,26333.898,1387429
83048,Messina,MEAA872031,"""EVEMERO DA MESSINA""",VIA CARATOZZOLO - C/DA SALINA,38.266490001,15.638894651,10804,38.2193988,15.430337,village,Saponara,83092,26802.879,1689169
83048,Messina,MEAA85103X,CONTESSE UNRRA,VIA CALISPERA,38.151053452353,15.532322015683,10804,38.2193988,15.430337,village,Saponara,83092,24839.795,1344722
83048,Messina,MEAA8AD064,ALTOLIA,VIA PROVINCIALE,38.074165001,15.436346127,10804,38.2193988,15.430337,village,Saponara,83092,45356.519,3584913
83048,Messina,MEAA872064,AIOSSA,VIA PIANO ROMITI,38.26473,15.613193147,10804,38.2193988,15.430337,village,Saponara,83092,27847.1,1584773
83048,Messina,MEAA872075,GRANATARI,Non Disponibile,38.17839,15.55309,10804,38.2193988,15.430337,village,Saponara,83092,21724.59,1135203
83048,Messina,MEAA87108A,"""CESAREO-S.MICHELE""",VIA COMUNALE PER S.MICHELE,38.215572419099,15.533436058757,10804,38.2193988,15.430337,village,Saponara,83092,16509.977,911127
83048,Messina,MEAA8AC013,TREMESTIERI,VIA CONSOLARE VALERIA,38.166857770792,15.53986435789,10804,38.2193988,15.430337,village,Saponara,83092,22920.685,1211185
83048,Messina,MEAA871046,"""G.MAURO""",VIA TORRENTE S. ANDREA,38.215728400035,15.545257865615,10804,38.2193988,15.430337,village,Saponara,83092,17839.514,988946
83048,Messina,MEAA872053,TORRE FARO,VIA SCUOLE,38.267376734778,15.645048302952,10804,38.2193988,15.430337,village,Saponara,83092,27692.557,1789679
83048,Messina,MEAA871079,MASSA S. LUCIA,VIA DEL POZZO,38.200884690543,15.548363248548,10804,38.2193988,15.430337,village,Saponara,83092,18208.937,979717
83048,Messina,MEAA8AC024,TREMESTIERI - PISTUNINA,VIA C.VALERIA,38.139142216305,15.525532423198,10804,38.2193988,15.430337,village,Saponara,83092,25105.307,1390228
83048,Messina,MEAA871068,CASTANEA,VIA MASSA,38.267511445361,15.526065442296,10804,38.2193988,15.430337,village,Saponara,83092,14872.292,1198446
83048,Messina,MEAA897017,INFANZIA CONTESSE CEP,VIA DEI GELSOMINI (17/G),38.153030032408,15.52766857356,10804,38.2193988,15.430337,village,Saponara,83092,23921.881,1354992
83048,Messina,MEAA897028,CEP EX PALAZZO SAJA,VIA 17/G,38.154352479222,15.529278214766,10804,38.2193988,15.430337,village,Saponara,83092,24028.852,1344914
83048,Messina,MEAA86705G,ISTITUTO ANTONIANO,VIA CESARE BATTISTI N. 279,38.183449994858,15.549939971208,10804,38.2193988,15.430337,village,Saponara,83092,20304.422,1150683
83048,Messina,MEAA85102V,ZAFFERIA,VIA GABBELLA,38.152761252618,15.506516422391,10804,38.2193988,15.430337,village,Saponara,83092,25466.527,1469435
83048,Messina,MEAA87304T,F.CRISPI,VIA MONS. D'ARRIGO ISOLATO 401,38.201536753888,15.556049780429,10804,38.2193988,15.430337,village,Saponara,83092,18967.143,1050139
83048,Messina,MEAA86702C,VIA PIEMONTE,VIA PIEMONTE,38.180382395234,15.546183720194,10804,38.2193988,15.430337,village,Saponara,83092,21207.081,1124192
83048,Messina,MEAA89602C,VIA TRENTO,VIA TRENTO EX MISCELA D'ORO,38.178921408451,15.552800040089,10804,38.2193988,15.430337,village,Saponara,83092,21814.184,1143629
83048,Messina,MEAA87302Q,ISTITUTO ASSISTENZA INFANZIA,PIAZZA CASA PIA 39/B,38.203717436736,15.556199157404,10804,38.2193988,15.430337,village,Saponara,83092,19269.195,1055266
83048,Messina,MEAA86602L,CANNIZZARO - INFANZIA,VIA M. GIURBA N. 2,38.187639982527,15.551760017663,10804,38.2193988,15.430337,village,Saponara,83092,19862.813,1145777
83048,Messina,MEAA851052,POLIMENI-ZUMBO,VIA MARCO POLO 228,38.157480008973,15.534799990959,10804,38.2193988,15.430337,village,Saponara,83092,23808.747,1280335
83048,Messina,MEAA86601G,GALATTI - INFANZIA,VIA N. FABRIZI 157,38.188059999695,15.551539992705,10804,38.2193988,15.430337,village,Saponara,83092,19790.212,1137064
83048,Messina,MEAA8AE03R,PIETRO DONATO,VIA CONSOLARE POMPEA N? 45 PARADISO,38.220769999652,15.565159998632,10804,38.2193988,15.430337,village,Saponara,83092,20798.61,1131194
83048,Messina,MEAA8AE01P,BEATA EUSTOCHIA,VIA DEL FANTE N? 18,38.219259999795,15.560999976267,10804,38.2193988,15.430337,village,Saponara,83092,19330.054,1171284
83048,Messina,MEAA8AE02Q,"SCUOLA DELL'INFANZIA ""PETRARCA""",VIA C. POMPEA,38.266815737558,15.617599521315,10804,38.2193988,15.430337,village,Saponara,83092,28285.025,1811616
83048,Messina,MEAA8AE04T,LETTERIO DONATO,C.DA SENA - PACE,38.242397773927,15.579480386546,10804,38.2193988,15.430337,village,Saponara,83092,23594.041,1297500
83048,Messina,MEAA862029,POLICLINICO,VIA CONDOTTIERI,38.161466882859,15.53610918086,10804,38.2193988,15.430337,village,Saponara,83092,23660.007,1260339
83048,Messina,MEAA862018,VALLE DEGLI ANGELI,VIA CHERUBINI,38.171514168612,15.538800995649,10804,38.2193988,15.430337,village,Saponara,83092,22713.693,1266761
83048,Messina,MEAA88701L,INFANZIA DRAGO,VIA CATANIA 103 IS. 26/C,38.172979991964,15.543750019532,10804,38.2193988,15.430337,village,Saponara,83092,22969.75,1290933
83048,Messina,MEAA86703D,VIA DEI MILLE,VIA DEI MILLE,38.186724993022,15.55569997316,10804,38.2193988,15.430337,village,Saponara,83092,20000.209,1142198
83048,Messina,MEAA89601B,L. RIZZO,VIALE SAN MARTINO 246,38.181239980357,15.551749959379,10804,38.2193988,15.430337,village,Saponara,83092,20746.523,1195498
83048,Messina,MEAA86102D,VILL.SANTO EX SALA SMERALDA,PIAZZA CHIESA,38.250860005268,15.493709973755,10804,38.2193988,15.430337,village,Saponara,83092,11627.019,759737
83048,Messina,MEAA8AD086,GIAMPILIERI MARINA,VIA COMUNALE,38.101806434596,15.490070145087,10804,38.2193988,15.430337,village,Saponara,83092,32038.274,1807826
83048,Messina,MEAA89401Q,BUON PASTORE - CRISTO RE,V.LE P.UMBERTO 93,38.195970001722,15.55114998275,10804,38.2193988,15.430337,village,Saponara,83092,18524.176,988586
83048,Messina,MEAA871024,"""E.CASTRONOVO",PIAZZA CASTELLO,38.233675431323,15.471649738821,10804,38.2193988,15.430337,village,Saponara,83092,9581.672,752177
83048,Messina,MEAA8AD01V,S.MARGHERITA SCUOLE ELEMENTARI,VIA COMUNALE,38.101806434596,15.490070145087,10804,38.2193988,15.430337,village,Saponara,83092,32038.274,1807826
83048,Messina,MEAA871057,FRANCESCO SACCA',VIA COMUNALE-S.MICHELE,38.215572419099,15.533436058757,10804,38.2193988,15.430337,village,Saponara,83092,16509.977,911127
83048,Messina,MEAA8AC035,TIPOLDO,PIAZZA CHIESA,38.250860005268,15.493709973755,10804,38.2193988,15.430337,village,Saponara,83092,11627.019,759737
83048,Messina,MEAA871035,"""G.CENA""",VIA P. UMBERTO,38.250711918243,15.493949472509,10804,38.2193988,15.430337,village,Saponara,83092,11653.287,761628
83048,Messina,MEAA86203A,EX LEOPARDI,VIA TAORMINA (LOCALI IACP),38.163385508864,15.539499160259,10804,38.2193988,15.430337,village,Saponara,83092,23031.316,1211692
83048,Messina,MEAA86109R,SCUOLA MATERNA,VIA PRIMO MOLINO,38.169370510009,15.529767454561,10804,38.2193988,15.430337,village,Saponara,83092,22005.981,1180090
83048,Messina,MEAA86106N,A.LUCIANI,GAZZI FUCILE,38.17839,15.55309,10804,38.2193988,15.430337,village,Saponara,83092,21724.59,1135203
83048,Messina,MEAA89603D,VIA NATOLI,VIA NATOLI 79,38.182879983533,15.556529991122,10804,38.2193988,15.430337,village,Saponara,83092,21141.227,1200248
83048,Messina,MEAA86108Q,CUMIA SUPERIORE,VIA COMUNALE,38.186282358556,15.552004849959,10804,38.2193988,15.430337,village,Saponara,83092,19941.574,1128912
83048,Messina,MEAA864043,"""GENTILUOMO""",VIA COMUNALE,38.186282358556,15.552004849959,10804,38.2193988,15.430337,village,Saponara,83092,19941.574,1128912
83048,Messina,MEAA869024,GRAVITELLISUPERIORE,PIAZZA VERSACI,38.196228017163,15.537102044292,10804,38.2193988,15.430337,village,Saponara,83092,20123.115,1170341
83048,Messina,MEAA869046,CRISTO RE,VIALE PRINCIPE UMBERTO,38.195267085469,15.546481725724,10804,38.2193988,15.430337,village,Saponara,83092,18925.743,1035571
83048,Messina,MEAA8AD042,S.STEFANO MEDIO,VIA COMUNALE,38.101806434596,15.490070145087,10804,38.2193988,15.430337,village,Saponara,83092,32038.274,1807826
83048,Messina,ME1A044008,SCUOLA MATERNA REGIONALE,SS. 114 PAL. PRESTI,38.128861226149,15.520616628536,10804,38.2193988,15.430337,village,Saponara,83092,26124.412,1370670
83048,Messina,ME1A5F500S,PATAPUFFETE,VIALE PRINCIPE UMBERTO 61/B,38.195410006771,15.546159984333,10804,38.2193988,15.430337,village,Saponara,83092,18923.881,1035145
83048,Messina,ME1A505001,IL REGNO DEGLI ELFI,VIA SANTA CECILIA N. 119,38.183360015128,15.550849994435,10804,38.2193988,15.430337,village,Saponara,83092,20493.096,1180126
83048,Messina,ME1A16900D,JUNIOR SOC. COOP. SOCIALE,VIA MARCO POLO VILLA MILORO s.n.c.,38.154871841121,15.533945048798,10804,38.2193988,15.430337,village,Saponara,83092,24104.209,1315790
83048,Messina,ME1A565003,MAGICA BULA,VIA CATANIA IS. 41,38.179579986343,15.54736002141,10804,38.2193988,15.430337,village,Saponara,83092,21442.935,1133654
83048,Messina,ME1A137002,PARK PALACE SAS IMP. SOC.,VIA DUCEZIO 36,38.190520004458,15.543469980146,10804,38.2193988,15.430337,village,Saponara,83092,19788.507,1155491
83048,Messina,ME1A16800N,SAN DOMENICO SAVIO,VIA LENZI24,38.191400020472,15.550389995589,10804,38.2193988,15.430337,village,Saponara,83092,19415.084,1094758
83048,Messina,ME1A007009,IL PICCOLO PRINCIPE SOC. COOP. SOCIALE,VIA MARIO PASSAMONTE PAL.B RIONE OGLIASTRI,38.209632247888,15.557555905839,10804,38.2193988,15.430337,village,Saponara,83092,18678.968,1015185
83048,Messina,ME1AUL500G,IL BOSCO DEI 100 ACRI,VILLAGGIO CONTESSE S.S. 114 KM 4.100 I LOTTO,38.152812084765,15.530618021107,10804,38.2193988,15.430337,village,Saponara,83092,23846.332,1304058
83048,Messina,ME1A101007,SCUOLA MATERNA REGIONALE,VIA COMUNALE33/D BORDONARO CONTRADA CONVITO,38.176680974762,15.520824003995,10804,38.2193988,15.430337,village,Saponara,83092,21857.969,1180511
83048,Messina,ME1AZA500L,I PESCIOLINI 2,Via Lenzi 5/B,38.191490000203,15.550299973949,10804,38.2193988,15.430337,village,Saponara,83092,19408.752,1093998
83048,Messina,ME1A173005,PLACIDO DI BELLA SOC.COOP.SOC.,VIALE ANNUNZIATA 86,38.220730017973,15.555589960681,10804,38.2193988,15.430337,village,Saponara,83092,19056.56,1134729
83048,Messina,ME1A02600P,IST.FIGLIE DELDIVINO ZELO C. A. MARIA DI FRANCIA,VIA SANTA MARTA 194,38.185990004887,15.549200016795,10804,38.2193988,15.430337,village,Saponara,83092,21135.278,1162745
83048,Messina,ME1A845003,I PESCIOLINI,VIALE BOCCETTA N. 64,38.197419987152,15.555709989535,10804,38.2193988,15.430337,village,Saponara,83092,18964.676,1035295
83048,Messina,ME1A14100N,S. IGNAZIO,VIA IGNATIANUM 23,38.206349982976,15.551179989963,10804,38.2193988,15.430337,village,Saponara,83092,19185.871,1033711
83048,Messina,ME1A10500E,S.ANNA P.G.B.TORNATORE,VIA XXIV MAGGIO 159,38.195549984554,15.553119981453,10804,38.2193988,15.430337,village,Saponara,83092,18761.472,1016324
83048,Messina,ME1A11700R,IST.FEMMINILE S.G.BOSCO DELLE SALESIANE SAN GIOVANNI BOSCO,VIA BRESCIA 5,38.179210009137,15.548450004099,10804,38.2193988,15.430337,village,Saponara,83092,21388.75,1129187
83048,Messina,ME1A10400P,ANCELLE RIPARATRICI DEL SS. CUORE DI GESU' SACRO CUORE,VIA MONS. A. CELONA 1 IS.485,38.206639996826,15.556940033826,10804,38.2193988,15.430337,village,Saponara,83092,18806.314,1042593
83048,Messina,ME1A032002,SCUOLA MATERNA REGIONALE,VIA BRASILE,38.212749691491,15.560170671344,10804,38.2193988,15.430337,village,Saponara,83092,19829.44,1083990
83048,Messina,ME1A17700C,SORRISO DEI BIMBI 2 SOC.COOP.SOCIALE,VIA A. M. IACI37,38.210705,15.550621869,10804,38.2193988,15.430337,village,Saponara,83092,18225.326,996826
83048,Messina,ME1A149008,L'ALBERO AZZURRO SOC.COOP.SOC.,VILL. S. AGATA SALITA SPERONE N. 17/A,38.266490001,15.638894651,10804,38.2193988,15.430337,village,Saponara,83092,26802.879,1689169
83048,Messina,ME1A029006,CONGREGAZIONE DELLE RELIGIOSE DOMENICANE SACRO CUORE,VIA SACRO CUORE 3,38.191030001357,15.548169964714,10804,38.2193988,15.430337,village,Saponara,83092,19518.136,1113789
83048,Messina,ME1A108002,IST. ANCELLE RIPARATRICI DEL SS.CUORE GESU' ANTONINO CELONA,VIA NINO BIXIO 30 IS.127,38.182280006903,15.554529985206,10804,38.2193988,15.430337,village,Saponara,83092,21045.863,1188803
83048,Messina,ME1A107006,"IST.APOSTOLE DELLA SACRA FAMIGLIA ""LEONE XIII"" M.PAINO",VIA ELENUCCIA 15,38.200929992926,15.55550002286,10804,38.2193988,15.430337,village,Saponara,83092,18826.937,1033314
83048,Messina,ME1A040001,SCUOLA INFANZIA PARIT. REGIONALE,VIA TRENTO,38.178921408451,15.552800040089,10804,38.2193988,15.430337,village,Saponara,83092,21814.184,1143629
83048,Messina,ME1A151008,BABY'S WORLD SOC. COOP. SOC.,VIALE S. MARTINO IS. 102 N. 227,38.184059987862,15.554280036853,10804,38.2193988,15.430337,village,Saponara,83092,20374.293,1174205
83048,Messina,ME1A130007,IL MONDO DI TRILLY S.C.S.,Via Vittorio Bottego snc Vill. Contesse,38.158222086953,15.534905400212,10804,38.2193988,15.430337,village,Saponara,83092,23805.307,1261340
83048,Messina,ME1A179004,LA NUVOLETTA SOC.COOP.SOC.,VIA LA FARINA IS. 149 N.64,38.181039988148,15.555760029497,10804,38.2193988,15.430337,village,Saponara,83092,21257.189,1140041
83048,Messina,ME1AMR500R,LA CASA DI WINNIE,VIA CENTONZE N. 200,38.18311999933,15.550829961687,10804,38.2193988,15.430337,village,Saponara,83092,20495.225,1171170
83048,Messina,ME1A31500V,SORRISO DEI BIMBI 1 SOC.COOP.SOC.,VIA GARIBALDI 318 IS. 495,38.207130002886,15.558520022574,10804,38.2193988,15.430337,village,Saponara,83092,19011.109,1034550
83048,Messina,ME1A04600X,SCUOLA MATERNA REGIONALE,PIAZZ CHIESA MILI S. PIETRO,38.126935586195,15.488188525193,10804,38.2193988,15.430337,village,Saponara,83092,30424.491,1691804
83048,Messina,ME1A181004,L'ALLEGRO MONDO DEI BIMBI SOC.COOP.SOC.,VIA MARINA 72 SANTA MARGHERITA,38.099430006975,15.495690030742,10804,38.2193988,15.430337,village,Saponara,83092,31447.97,1765323
83076,Rometta,MEAA87407R,ROMETTA,VIA MARIO GIURBA,38.172143668609,15.413616216817,10804,38.2193988,15.430337,village,Saponara,83092,12284.694,940291
83076,Rometta,MEAA87406Q,MAREA,CORSO DELLA LIBERTA'86,38.231839146136,15.408355381169,10804,38.2193988,15.430337,village,Saponara,83092,3556.835,286121
83076,Rometta,ME1ADL5008,EMOZIONIDO,CORSO FRANCESCO SAIJA N. 80,38.230270006801,15.402600027343,10804,38.2193988,15.430337,village,Saponara,83092,4083.791,328082
83105,Villafranca Tirrena,MEAA819056,GRIOLI,VIA EUROPA,38.231719760868,15.44004621626,10804,38.2193988,15.430337,village,Saponara,83092,3796.462,283737
83105,Villafranca Tirrena,MEAA819034,DIVIETO,VIA MARINA,38.243843005058,15.440998036997,10804,38.2193988,15.430337,village,Saponara,83092,4306.417,328298
83105,Villafranca Tirrena,ME1A15600B,IL LANTERNINO SOC.COOP.SOC.,VIA LIOTTA 4,38.235310003271,15.433630000536,10804,38.2193988,15.430337,village,Saponara,83092,3214.258,237715
83105,Villafranca Tirrena,ME1A15300X,QUIBIMBI SOC. COOP. SOC.,VIA NAZIONALE 162/164,38.240916943715,15.443074639833,10804,38.2193988,15.430337,village,Saponara,83092,3969.848,272751
83092,Saponara,MEAA87403L,"SCUOLA MATERNA ""S.QUASIMODO""",VIA COMO,38.203449943985,15.431719628489,10804,38.2193988,15.430337,village,Saponara,83092,2295.483,178311
83092,Saponara,MEAA87404N,"SCUOLA MATERNA ""GIOVANNI XXIII""",VIA DEL MARE,38.237368145049,15.426919346945,10804,38.2193988,15.430337,village,Saponara,83092,2706.055,224124
83092,Saponara,MEAA87401E,"SCUOLA MATERNA ""ARIELLA""",VIA ARIELLA,38.194971232933,15.434431881933,10804,38.2193988,15.430337,village,Saponara,83092,3864.891,309309
83048,Messina,MEAA869013,MONTEPISELLI,VIA GELONE,38.188591981193,15.541618388566,10805,38.2026991,15.4314191,village,Saponara,83092,22505.703,1403164
83048,Messina,MEAA86704E,S. CLEMENTE,VIA GHIBELLINA N.209,38.181620015847,15.549089962407,10805,38.2026991,15.4314191,village,Saponara,83092,22405.962,1308397
83048,Messina,MEAA88202E,C. BATTISTI,VIA A. MANZONI,38.207585776225,15.553169906042,10805,38.2026991,15.4314191,village,Saponara,83092,20558.943,1166674
83048,Messina,MEAA872042,GANZIRRI,VIA CONSOLARE POMPEA N. 1707,38.25751999312,15.606129986982,10805,38.2026991,15.4314191,village,Saponara,83092,28393.181,1613179
83048,Messina,MEAA871013,VILLA LINA - GIOSTRA,VIA M. SCUDERI,38.211421180176,15.549429286619,10805,38.2026991,15.4314191,village,Saponara,83092,19800.543,1117332
83048,Messina,MEAA86501Q,S. LICANDRO,VIA OLIMPIA,38.215669101332,15.558419602048,10805,38.2026991,15.4314191,village,Saponara,83092,21565.404,1224692
83048,Messina,MEAA869057,SAVASTA,VIA F. BISAZZA,38.191253808213,15.549390710487,10805,38.2026991,15.4314191,village,Saponara,83092,21368.462,1249595
83048,Messina,MEAA82201T,S.S.ANNUNZIATA,VIA CAPRERA,38.222244061436,15.555236574639,10805,38.2026991,15.4314191,village,Saponara,83092,20535.125,1254630
83048,Messina,MEAA86205C,GAZZI FUCILE,FONDO FUCILE,38.170560001,15.527801667,10805,38.2026991,15.4314191,village,Saponara,83092,23621.668,1287738
83048,Messina,MEAA8AD109,ALFIO RAGAZZI,VIA NAZIONALE,38.069978264643,15.487473561461,10805,38.2026991,15.4314191,village,Saponara,83092,35352.369,2028042
83048,Messina,MEAA86204B,CENTRO SOCIALE,VIA D'ANFUSO,38.170496462295,15.528435361582,10805,38.2026991,15.4314191,village,Saponara,83092,23638.412,1289748
83048,Messina,MEAA8AD031,S.STEFANO BRIGA,VIA NUOVA,38.265225015704,15.643204988746,10805,38.2026991,15.4314191,village,Saponara,83092,29145.284,1877773
83048,Messina,MEAA897039,S.LUCIA,VIA CARIDDI N. 1,38.156859999596,15.520380016193,10805,38.2026991,15.4314191,village,Saponara,83092,24875.606,1367625
83048,Messina,MEAA8AD097,"""PASQUALE SIMONE NERI""",VIA M.RIZZO,38.208779622255,15.550716042503,10805,38.2026991,15.4314191,village,Saponara,83092,20172.183,1182980
83048,Messina,MEAA8AD053,GALATI S. ANNA,VIA COMUNALE,38.122327754497,15.497774170025,10805,38.2026991,15.4314191,village,Saponara,83092,31106.184,1742101
83048,Messina,MEAA86103E,"""SAN NICOLA""",C.DA BADESSA,38.16509555232,15.497708305782,10805,38.2026991,15.4314191,village,Saponara,83092,27327.209,1566567
83048,Messina,MEAA89301X,BOER,VIA PALERMO IS.271,38.20841000332,15.549179984047,10805,38.2026991,15.4314191,village,Saponara,83092,19990.675,1161198
83048,Messina,MEAA864032,SAN GIACOMO APOSTOLO,VIA COMUNALE,38.186282358556,15.552004849959,10805,38.2026991,15.4314191,village,Saponara,83092,21790.295,1264525
83048,Messina,MEAA86107P,BORDONARO,VIA SCAMINACI17/18,38.175754573363,15.513151431345,10805,38.2026991,15.4314191,village,Saponara,83092,24206.481,1343252
83048,Messina,MEAA86105L,GESCAL,CASE GESCAL,38.17839,15.55309,10805,38.2026991,15.4314191,village,Saponara,83092,23573.312,1270816
83048,Messina,MEAA86401X,BISCONTE,VIA POLVERIERA,38.189589221974,15.530729990234,10805,38.2026991,15.4314191,village,Saponara,83092,21627.496,1201054
83048,Messina,MEAA864021,LA PIRA,CONTROVIALE TANGENZIALE CAMARO,38.188037313204,15.528515819619,10805,38.2026991,15.4314191,village,Saponara,83092,20123.725,1038023
83048,Messina,MEAA87201V,FARO SUPERIORE,VIA REGINA ELENA,38.268074936258,15.58166002649,10805,38.2026991,15.4314191,village,Saponara,83092,24380.431,1499931
83048,Messina,MEAA851041,GRANATA,Non Disponibile,38.17839,15.55309,10805,38.2026991,15.4314191,village,Saponara,83092,23573.312,1270816
83048,Messina,MEAA8AC046,MOLETI,VIA NAZIONALE,38.127196457132,15.519534058723,10805,38.2026991,15.4314191,village,Saponara,83092,28182.62,1523042
83048,Messina,MEAA872031,"""EVEMERO DA MESSINA""",VIA CARATOZZOLO - C/DA SALINA,38.266490001,15.638894651,10805,38.2026991,15.4314191,village,Saponara,83092,28651.6,1824782
83048,Messina,MEAA85103X,CONTESSE UNRRA,VIA CALISPERA,38.151053452353,15.532322015683,10805,38.2026991,15.4314191,village,Saponara,83092,26688.516,1480335
83048,Messina,MEAA8AD064,ALTOLIA,VIA PROVINCIALE,38.074165001,15.436346127,10805,38.2026991,15.4314191,village,Saponara,83092,47205.24,3720526
83048,Messina,MEAA872064,AIOSSA,VIA PIANO ROMITI,38.26473,15.613193147,10805,38.2026991,15.4314191,village,Saponara,83092,29695.821,1720386
83048,Messina,MEAA872075,GRANATARI,Non Disponibile,38.17839,15.55309,10805,38.2026991,15.4314191,village,Saponara,83092,23573.312,1270816
83048,Messina,MEAA87108A,"""CESAREO-S.MICHELE""",VIA COMUNALE PER S.MICHELE,38.215572419099,15.533436058757,10805,38.2026991,15.4314191,village,Saponara,83092,18358.699,1046740
83048,Messina,MEAA8AC013,TREMESTIERI,VIA CONSOLARE VALERIA,38.166857770792,15.53986435789,10805,38.2026991,15.4314191,village,Saponara,83092,24769.406,1346798
83048,Messina,MEAA871046,"""G.MAURO""",VIA TORRENTE S. ANDREA,38.215728400035,15.545257865615,10805,38.2026991,15.4314191,village,Saponara,83092,19688.235,1124559
83048,Messina,MEAA872053,TORRE FARO,VIA SCUOLE,38.267376734778,15.645048302952,10805,38.2026991,15.4314191,village,Saponara,83092,29541.278,1925292
83048,Messina,MEAA871079,MASSA S. LUCIA,VIA DEL POZZO,38.200884690543,15.548363248548,10805,38.2026991,15.4314191,village,Saponara,83092,20057.659,1115330
83048,Messina,MEAA8AC024,TREMESTIERI - PISTUNINA,VIA C.VALERIA,38.139142216305,15.525532423198,10805,38.2026991,15.4314191,village,Saponara,83092,26954.028,1525841
83048,Messina,MEAA871068,CASTANEA,VIA MASSA,38.267511445361,15.526065442296,10805,38.2026991,15.4314191,village,Saponara,83092,16721.014,1334059
83048,Messina,MEAA897017,INFANZIA CONTESSE CEP,VIA DEI GELSOMINI (17/G),38.153030032408,15.52766857356,10805,38.2026991,15.4314191,village,Saponara,83092,25770.602,1490605
83048,Messina,MEAA897028,CEP EX PALAZZO SAJA,VIA 17/G,38.154352479222,15.529278214766,10805,38.2026991,15.4314191,village,Saponara,83092,25877.574,1480527
83048,Messina,MEAA86705G,ISTITUTO ANTONIANO,VIA CESARE BATTISTI N. 279,38.183449994858,15.549939971208,10805,38.2026991,15.4314191,village,Saponara,83092,22153.144,1286296
83048,Messina,MEAA85102V,ZAFFERIA,VIA GABBELLA,38.152761252618,15.506516422391,10805,38.2026991,15.4314191,village,Saponara,83092,27315.249,1605048
83048,Messina,MEAA87304T,F.CRISPI,VIA MONS. D'ARRIGO ISOLATO 401,38.201536753888,15.556049780429,10805,38.2026991,15.4314191,village,Saponara,83092,20815.864,1185752
83048,Messina,MEAA86702C,VIA PIEMONTE,VIA PIEMONTE,38.180382395234,15.546183720194,10805,38.2026991,15.4314191,village,Saponara,83092,23055.802,1259805
83048,Messina,MEAA89602C,VIA TRENTO,VIA TRENTO EX MISCELA D'ORO,38.178921408451,15.552800040089,10805,38.2026991,15.4314191,village,Saponara,83092,23662.905,1279242
83048,Messina,MEAA87302Q,ISTITUTO ASSISTENZA INFANZIA,PIAZZA CASA PIA 39/B,38.203717436736,15.556199157404,10805,38.2026991,15.4314191,village,Saponara,83092,21117.916,1190879
83048,Messina,MEAA86602L,CANNIZZARO - INFANZIA,VIA M. GIURBA N. 2,38.187639982527,15.551760017663,10805,38.2026991,15.4314191,village,Saponara,83092,21711.534,1281390
83048,Messina,MEAA851052,POLIMENI-ZUMBO,VIA MARCO POLO 228,38.157480008973,15.534799990959,10805,38.2026991,15.4314191,village,Saponara,83092,25657.468,1415948
83048,Messina,MEAA86601G,GALATTI - INFANZIA,VIA N. FABRIZI 157,38.188059999695,15.551539992705,10805,38.2026991,15.4314191,village,Saponara,83092,21638.934,1272677
83048,Messina,MEAA8AE03R,PIETRO DONATO,VIA CONSOLARE POMPEA N? 45 PARADISO,38.220769999652,15.565159998632,10805,38.2026991,15.4314191,village,Saponara,83092,22647.331,1266807
83048,Messina,MEAA8AE01P,BEATA EUSTOCHIA,VIA DEL FANTE N? 18,38.219259999795,15.560999976267,10805,38.2026991,15.4314191,village,Saponara,83092,21178.775,1306897
83048,Messina,MEAA8AE02Q,"SCUOLA DELL'INFANZIA ""PETRARCA""",VIA C. POMPEA,38.266815737558,15.617599521315,10805,38.2026991,15.4314191,village,Saponara,83092,30133.746,1947229
83048,Messina,MEAA8AE04T,LETTERIO DONATO,C.DA SENA - PACE,38.242397773927,15.579480386546,10805,38.2026991,15.4314191,village,Saponara,83092,25442.763,1433113
83048,Messina,MEAA862029,POLICLINICO,VIA CONDOTTIERI,38.161466882859,15.53610918086,10805,38.2026991,15.4314191,village,Saponara,83092,25508.729,1395952
83048,Messina,MEAA862018,VALLE DEGLI ANGELI,VIA CHERUBINI,38.171514168612,15.538800995649,10805,38.2026991,15.4314191,village,Saponara,83092,24562.414,1402374
83048,Messina,MEAA88701L,INFANZIA DRAGO,VIA CATANIA 103 IS. 26/C,38.172979991964,15.543750019532,10805,38.2026991,15.4314191,village,Saponara,83092,24818.472,1426546
83048,Messina,MEAA86703D,VIA DEI MILLE,VIA DEI MILLE,38.186724993022,15.55569997316,10805,38.2026991,15.4314191,village,Saponara,83092,21848.93,1277811
83048,Messina,MEAA89601B,L. RIZZO,VIALE SAN MARTINO 246,38.181239980357,15.551749959379,10805,38.2026991,15.4314191,village,Saponara,83092,22595.244,1331111
83048,Messina,MEAA86102D,VILL.SANTO EX SALA SMERALDA,PIAZZA CHIESA,38.250860005268,15.493709973755,10805,38.2026991,15.4314191,village,Saponara,83092,13475.74,895350
83048,Messina,MEAA8AD086,GIAMPILIERI MARINA,VIA COMUNALE,38.101806434596,15.490070145087,10805,38.2026991,15.4314191,village,Saponara,83092,33886.995,1943439
83048,Messina,MEAA89401Q,BUON PASTORE - CRISTO RE,V.LE P.UMBERTO 93,38.195970001722,15.55114998275,10805,38.2026991,15.4314191,village,Saponara,83092,20372.898,1124199
83048,Messina,MEAA871024,"""E.CASTRONOVO",PIAZZA CASTELLO,38.233675431323,15.471649738821,10805,38.2026991,15.4314191,village,Saponara,83092,11430.393,887790
83048,Messina,MEAA8AD01V,S.MARGHERITA SCUOLE ELEMENTARI,VIA COMUNALE,38.101806434596,15.490070145087,10805,38.2026991,15.4314191,village,Saponara,83092,33886.995,1943439
83048,Messina,MEAA871057,FRANCESCO SACCA',VIA COMUNALE-S.MICHELE,38.215572419099,15.533436058757,10805,38.2026991,15.4314191,village,Saponara,83092,18358.699,1046740
83048,Messina,MEAA8AC035,TIPOLDO,PIAZZA CHIESA,38.250860005268,15.493709973755,10805,38.2026991,15.4314191,village,Saponara,83092,13475.74,895350
83048,Messina,MEAA871035,"""G.CENA""",VIA P. UMBERTO,38.250711918243,15.493949472509,10805,38.2026991,15.4314191,village,Saponara,83092,13502.009,897241
83048,Messina,MEAA86203A,EX LEOPARDI,VIA TAORMINA (LOCALI IACP),38.163385508864,15.539499160259,10805,38.2026991,15.4314191,village,Saponara,83092,24880.037,1347305
83048,Messina,MEAA86109R,SCUOLA MATERNA,VIA PRIMO MOLINO,38.169370510009,15.529767454561,10805,38.2026991,15.4314191,village,Saponara,83092,23854.702,1315703
83048,Messina,MEAA86106N,A.LUCIANI,GAZZI FUCILE,38.17839,15.55309,10805,38.2026991,15.4314191,village,Saponara,83092,23573.312,1270816
83048,Messina,MEAA89603D,VIA NATOLI,VIA NATOLI 79,38.182879983533,15.556529991122,10805,38.2026991,15.4314191,village,Saponara,83092,22989.948,1335861
83048,Messina,MEAA86108Q,CUMIA SUPERIORE,VIA COMUNALE,38.186282358556,15.552004849959,10805,38.2026991,15.4314191,village,Saponara,83092,21790.295,1264525
83048,Messina,MEAA864043,"""GENTILUOMO""",VIA COMUNALE,38.186282358556,15.552004849959,10805,38.2026991,15.4314191,village,Saponara,83092,21790.295,1264525
83048,Messina,MEAA869024,GRAVITELLISUPERIORE,PIAZZA VERSACI,38.196228017163,15.537102044292,10805,38.2026991,15.4314191,village,Saponara,83092,21971.837,1305954
83048,Messina,MEAA869046,CRISTO RE,VIALE PRINCIPE UMBERTO,38.195267085469,15.546481725724,10805,38.2026991,15.4314191,village,Saponara,83092,20774.464,1171184
83048,Messina,MEAA8AD042,S.STEFANO MEDIO,VIA COMUNALE,38.101806434596,15.490070145087,10805,38.2026991,15.4314191,village,Saponara,83092,33886.995,1943439
83048,Messina,ME1A044008,SCUOLA MATERNA REGIONALE,SS. 114 PAL. PRESTI,38.128861226149,15.520616628536,10805,38.2026991,15.4314191,village,Saponara,83092,27973.133,1506283
83048,Messina,ME1A5F500S,PATAPUFFETE,VIALE PRINCIPE UMBERTO 61/B,38.195410006771,15.546159984333,10805,38.2026991,15.4314191,village,Saponara,83092,20772.603,1170758
83048,Messina,ME1A505001,IL REGNO DEGLI ELFI,VIA SANTA CECILIA N. 119,38.183360015128,15.550849994435,10805,38.2026991,15.4314191,village,Saponara,83092,22341.817,1315739
83048,Messina,ME1A16900D,JUNIOR SOC. COOP. SOCIALE,VIA MARCO POLO VILLA MILORO s.n.c.,38.154871841121,15.533945048798,10805,38.2026991,15.4314191,village,Saponara,83092,25952.931,1451403
83048,Messina,ME1A565003,MAGICA BULA,VIA CATANIA IS. 41,38.179579986343,15.54736002141,10805,38.2026991,15.4314191,village,Saponara,83092,23291.657,1269267
83048,Messina,ME1A137002,PARK PALACE SAS IMP. SOC.,VIA DUCEZIO 36,38.190520004458,15.543469980146,10805,38.2026991,15.4314191,village,Saponara,83092,21637.229,1291104
83048,Messina,ME1A16800N,SAN DOMENICO SAVIO,VIA LENZI24,38.191400020472,15.550389995589,10805,38.2026991,15.4314191,village,Saponara,83092,21263.805,1230371
83048,Messina,ME1A007009,IL PICCOLO PRINCIPE SOC. COOP. SOCIALE,VIA MARIO PASSAMONTE PAL.B RIONE OGLIASTRI,38.209632247888,15.557555905839,10805,38.2026991,15.4314191,village,Saponara,83092,20527.689,1150798
83048,Messina,ME1AUL500G,IL BOSCO DEI 100 ACRI,VILLAGGIO CONTESSE S.S. 114 KM 4.100 I LOTTO,38.152812084765,15.530618021107,10805,38.2026991,15.4314191,village,Saponara,83092,25695.053,1439671
83048,Messina,ME1A101007,SCUOLA MATERNA REGIONALE,VIA COMUNALE33/D BORDONARO CONTRADA CONVITO,38.176680974762,15.520824003995,10805,38.2026991,15.4314191,village,Saponara,83092,23706.691,1316124
83048,Messina,ME1AZA500L,I PESCIOLINI 2,Via Lenzi 5/B,38.191490000203,15.550299973949,10805,38.2026991,15.4314191,village,Saponara,83092,21257.474,1229611
83048,Messina,ME1A173005,PLACIDO DI BELLA SOC.COOP.SOC.,VIALE ANNUNZIATA 86,38.220730017973,15.555589960681,10805,38.2026991,15.4314191,village,Saponara,83092,20905.281,1270342
83048,Messina,ME1A02600P,IST.FIGLIE DELDIVINO ZELO C. A. MARIA DI FRANCIA,VIA SANTA MARTA 194,38.185990004887,15.549200016795,10805,38.2026991,15.4314191,village,Saponara,83092,22984.0,1298358
83048,Messina,ME1A845003,I PESCIOLINI,VIALE BOCCETTA N. 64,38.197419987152,15.555709989535,10805,38.2026991,15.4314191,village,Saponara,83092,20813.398,1170908
83048,Messina,ME1A14100N,S. IGNAZIO,VIA IGNATIANUM 23,38.206349982976,15.551179989963,10805,38.2026991,15.4314191,village,Saponara,83092,21034.592,1169324
83048,Messina,ME1A10500E,S.ANNA P.G.B.TORNATORE,VIA XXIV MAGGIO 159,38.195549984554,15.553119981453,10805,38.2026991,15.4314191,village,Saponara,83092,20610.193,1151937
83048,Messina,ME1A11700R,IST.FEMMINILE S.G.BOSCO DELLE SALESIANE SAN GIOVANNI BOSCO,VIA BRESCIA 5,38.179210009137,15.548450004099,10805,38.2026991,15.4314191,village,Saponara,83092,23237.472,1264800
83048,Messina,ME1A10400P,ANCELLE RIPARATRICI DEL SS. CUORE DI GESU' SACRO CUORE,VIA MONS. A. CELONA 1 IS.485,38.206639996826,15.556940033826,10805,38.2026991,15.4314191,village,Saponara,83092,20655.035,1178206
83048,Messina,ME1A032002,SCUOLA MATERNA REGIONALE,VIA BRASILE,38.212749691491,15.560170671344,10805,38.2026991,15.4314191,village,Saponara,83092,21678.161,1219603
83048,Messina,ME1A17700C,SORRISO DEI BIMBI 2 SOC.COOP.SOCIALE,VIA A. M. IACI37,38.210705,15.550621869,10805,38.2026991,15.4314191,village,Saponara,83092,20074.048,1132439
83048,Messina,ME1A149008,L'ALBERO AZZURRO SOC.COOP.SOC.,VILL. S. AGATA SALITA SPERONE N. 17/A,38.266490001,15.638894651,10805,38.2026991,15.4314191,village,Saponara,83092,28651.6,1824782
83048,Messina,ME1A029006,CONGREGAZIONE DELLE RELIGIOSE DOMENICANE SACRO CUORE,VIA SACRO CUORE 3,38.191030001357,15.548169964714,10805,38.2026991,15.4314191,village,Saponara,83092,21366.857,1249402
83048,Messina,ME1A108002,IST. ANCELLE RIPARATRICI DEL SS.CUORE GESU' ANTONINO CELONA,VIA NINO BIXIO 30 IS.127,38.182280006903,15.554529985206,10805,38.2026991,15.4314191,village,Saponara,83092,22894.585,1324416
83048,Messina,ME1A107006,"IST.APOSTOLE DELLA SACRA FAMIGLIA ""LEONE XIII"" M.PAINO",VIA ELENUCCIA 15,38.200929992926,15.55550002286,10805,38.2026991,15.4314191,village,Saponara,83092,20675.658,1168927
83048,Messina,ME1A040001,SCUOLA INFANZIA PARIT. REGIONALE,VIA TRENTO,38.178921408451,15.552800040089,10805,38.2026991,15.4314191,village,Saponara,83092,23662.905,1279242
83048,Messina,ME1A151008,BABY'S WORLD SOC. COOP. SOC.,VIALE S. MARTINO IS. 102 N. 227,38.184059987862,15.554280036853,10805,38.2026991,15.4314191,village,Saponara,83092,22223.014,1309818
83048,Messina,ME1A130007,IL MONDO DI TRILLY S.C.S.,Via Vittorio Bottego snc Vill. Contesse,38.158222086953,15.534905400212,10805,38.2026991,15.4314191,village,Saponara,83092,25654.029,1396953
83048,Messina,ME1A179004,LA NUVOLETTA SOC.COOP.SOC.,VIA LA FARINA IS. 149 N.64,38.181039988148,15.555760029497,10805,38.2026991,15.4314191,village,Saponara,83092,23105.91,1275654
83048,Messina,ME1AMR500R,LA CASA DI WINNIE,VIA CENTONZE N. 200,38.18311999933,15.550829961687,10805,38.2026991,15.4314191,village,Saponara,83092,22343.947,1306783
83048,Messina,ME1A31500V,SORRISO DEI BIMBI 1 SOC.COOP.SOC.,VIA GARIBALDI 318 IS. 495,38.207130002886,15.558520022574,10805,38.2026991,15.4314191,village,Saponara,83092,20859.83,1170163
83048,Messina,ME1A04600X,SCUOLA MATERNA REGIONALE,PIAZZ CHIESA MILI S. PIETRO,38.126935586195,15.488188525193,10805,38.2026991,15.4314191,village,Saponara,83092,32273.212,1827417
83048,Messina,ME1A181004,L'ALLEGRO MONDO DEI BIMBI SOC.COOP.SOC.,VIA MARINA 72 SANTA MARGHERITA,38.099430006975,15.495690030742,10805,38.2026991,15.4314191,village,Saponara,83092,33296.691,1900936
83076,Rometta,MEAA87407R,ROMETTA,VIA MARIO GIURBA,38.172143668609,15.413616216817,10805,38.2026991,15.4314191,village,Saponara,83092,9994.007,767148
83076,Rometta,MEAA87406Q,MAREA,CORSO DELLA LIBERTA'86,38.231839146136,15.408355381169,10805,38.2026991,15.4314191,village,Saponara,83092,5297.81,410611
83076,Rometta,ME1ADL5008,EMOZIONIDO,CORSO FRANCESCO SAIJA N. 80,38.230270006801,15.402600027343,10805,38.2026991,15.4314191,village,Saponara,83092,5824.767,452572
83105,Villafranca Tirrena,MEAA819056,GRIOLI,VIA EUROPA,38.231719760868,15.44004621626,10805,38.2026991,15.4314191,village,Saponara,83092,5645.183,419350
83105,Villafranca Tirrena,MEAA819034,DIVIETO,VIA MARINA,38.243843005058,15.440998036997,10805,38.2026991,15.4314191,village,Saponara,83092,6155.139,463911
83105,Villafranca Tirrena,ME1A15600B,IL LANTERNINO SOC.COOP.SOC.,VIA LIOTTA 4,38.235310003271,15.433630000536,10805,38.2026991,15.4314191,village,Saponara,83092,5062.979,373328
83105,Villafranca Tirrena,ME1A15300X,QUIBIMBI SOC. COOP. SOC.,VIA NAZIONALE 162/164,38.240916943715,15.443074639833,10805,38.2026991,15.4314191,village,Saponara,83092,5818.57,408364
83092,Saponara,MEAA87403L,"SCUOLA MATERNA ""S.QUASIMODO""",VIA COMO,38.203449943985,15.431719628489,10805,38.2026991,15.4314191,village,Saponara,83092,393.639,37760
83092,Saponara,MEAA87404N,"SCUOLA MATERNA ""GIOVANNI XXIII""",VIA DEL MARE,38.237368145049,15.426919346945,10805,38.2026991,15.4314191,village,Saponara,83092,4554.777,359737
83092,Saponara,MEAA87401E,"SCUOLA MATERNA ""ARIELLA""",VIA ARIELLA,38.194971232933,15.434431881933,10805,38.2026991,15.4314191,village,Saponara,83092,1574.205,136166
83048,Messina,MEAA869013,MONTEPISELLI,VIA GELONE,38.188591981193,15.541618388566,10806,38.2353656,15.4273591,village,Saponara,83092,18412.561,1098822
83048,Messina,MEAA86704E,S. CLEMENTE,VIA GHIBELLINA N.209,38.181620015847,15.549089962407,10806,38.2353656,15.4273591,village,Saponara,83092,18312.82,1004055
83048,Messina,MEAA88202E,C. BATTISTI,VIA A. MANZONI,38.207585776225,15.553169906042,10806,38.2353656,15.4273591,village,Saponara,83092,16465.801,862332
83048,Messina,MEAA872042,GANZIRRI,VIA CONSOLARE POMPEA N. 1707,38.25751999312,15.606129986982,10806,38.2353656,15.4273591,village,Saponara,83092,24300.038,1308837
83048,Messina,MEAA871013,VILLA LINA - GIOSTRA,VIA M. SCUDERI,38.211421180176,15.549429286619,10806,38.2353656,15.4273591,village,Saponara,83092,15707.4,812990
83048,Messina,MEAA86501Q,S. LICANDRO,VIA OLIMPIA,38.215669101332,15.558419602048,10806,38.2353656,15.4273591,village,Saponara,83092,17472.262,920350
83048,Messina,MEAA869057,SAVASTA,VIA F. BISAZZA,38.191253808213,15.549390710487,10806,38.2353656,15.4273591,village,Saponara,83092,17275.32,945253
83048,Messina,MEAA82201T,S.S.ANNUNZIATA,VIA CAPRERA,38.222244061436,15.555236574639,10806,38.2353656,15.4273591,village,Saponara,83092,16441.983,950288
83048,Messina,MEAA86205C,GAZZI FUCILE,FONDO FUCILE,38.170560001,15.527801667,10806,38.2353656,15.4273591,village,Saponara,83092,19528.526,983396
83048,Messina,MEAA8AD109,ALFIO RAGAZZI,VIA NAZIONALE,38.069978264643,15.487473561461,10806,38.2353656,15.4273591,village,Saponara,83092,31259.227,1723700
83048,Messina,MEAA86204B,CENTRO SOCIALE,VIA D'ANFUSO,38.170496462295,15.528435361582,10806,38.2353656,15.4273591,village,Saponara,83092,19545.27,985406
83048,Messina,MEAA8AD031,S.STEFANO BRIGA,VIA NUOVA,38.265225015704,15.643204988746,10806,38.2353656,15.4273591,village,Saponara,83092,25052.142,1573431
83048,Messina,MEAA897039,S.LUCIA,VIA CARIDDI N. 1,38.156859999596,15.520380016193,10806,38.2353656,15.4273591,village,Saponara,83092,20782.463,1063283
83048,Messina,MEAA8AD097,"""PASQUALE SIMONE NERI""",VIA M.RIZZO,38.208779622255,15.550716042503,10806,38.2353656,15.4273591,village,Saponara,83092,16079.041,878638
83048,Messina,MEAA8AD053,GALATI S. ANNA,VIA COMUNALE,38.122327754497,15.497774170025,10806,38.2353656,15.4273591,village,Saponara,83092,27013.042,1437759
83048,Messina,MEAA86103E,"""SAN NICOLA""",C.DA BADESSA,38.16509555232,15.497708305782,10806,38.2353656,15.4273591,village,Saponara,83092,23234.066,1262225
83048,Messina,MEAA89301X,BOER,VIA PALERMO IS.271,38.20841000332,15.549179984047,10806,38.2353656,15.4273591,village,Saponara,83092,15897.533,856856
83048,Messina,MEAA864032,SAN GIACOMO APOSTOLO,VIA COMUNALE,38.186282358556,15.552004849959,10806,38.2353656,15.4273591,village,Saponara,83092,17697.153,960183
83048,Messina,MEAA86107P,BORDONARO,VIA SCAMINACI17/18,38.175754573363,15.513151431345,10806,38.2353656,15.4273591,village,Saponara,83092,20113.339,1038910
83048,Messina,MEAA86105L,GESCAL,CASE GESCAL,38.17839,15.55309,10806,38.2353656,15.4273591,village,Saponara,83092,19480.169,966474
83048,Messina,MEAA86401X,BISCONTE,VIA POLVERIERA,38.189589221974,15.530729990234,10806,38.2353656,15.4273591,village,Saponara,83092,17534.354,896712
83048,Messina,MEAA864021,LA PIRA,CONTROVIALE TANGENZIALE CAMARO,38.188037313204,15.528515819619,10806,38.2353656,15.4273591,village,Saponara,83092,16030.583,733681
83048,Messina,MEAA87201V,FARO SUPERIORE,VIA REGINA ELENA,38.268074936258,15.58166002649,10806,38.2353656,15.4273591,village,Saponara,83092,20287.289,1195589
83048,Messina,MEAA851041,GRANATA,Non Disponibile,38.17839,15.55309,10806,38.2353656,15.4273591,village,Saponara,83092,19480.169,966474
83048,Messina,MEAA8AC046,MOLETI,VIA NAZIONALE,38.127196457132,15.519534058723,10806,38.2353656,15.4273591,village,Saponara,83092,24089.478,1218700
83048,Messina,MEAA872031,"""EVEMERO DA MESSINA""",VIA CARATOZZOLO - C/DA SALINA,38.266490001,15.638894651,10806,38.2353656,15.4273591,village,Saponara,83092,24558.458,1520440
83048,Messina,MEAA85103X,CONTESSE UNRRA,VIA CALISPERA,38.151053452353,15.532322015683,10806,38.2353656,15.4273591,village,Saponara,83092,22595.374,1175993
83048,Messina,MEAA8AD064,ALTOLIA,VIA PROVINCIALE,38.074165001,15.436346127,10806,38.2353656,15.4273591,village,Saponara,83092,43112.098,3416184
83048,Messina,MEAA872064,AIOSSA,VIA PIANO ROMITI,38.26473,15.613193147,10806,38.2353656,15.4273591,village,Saponara,83092,25602.679,1416044
83048,Messina,MEAA872075,GRANATARI,Non Disponibile,38.17839,15.55309,10806,38.2353656,15.4273591,village,Saponara,83092,19480.169,966474
83048,Messina,MEAA87108A,"""CESAREO-S.MICHELE""",VIA COMUNALE PER S.MICHELE,38.215572419099,15.533436058757,10806,38.2353656,15.4273591,village,Saponara,83092,14265.556,742398
83048,Messina,MEAA8AC013,TREMESTIERI,VIA CONSOLARE VALERIA,38.166857770792,15.53986435789,10806,38.2353656,15.4273591,village,Saponara,83092,20676.264,1042456
83048,Messina,MEAA871046,"""G.MAURO""",VIA TORRENTE S. ANDREA,38.215728400035,15.545257865615,10806,38.2353656,15.4273591,village,Saponara,83092,15595.093,820217
83048,Messina,MEAA872053,TORRE FARO,VIA SCUOLE,38.267376734778,15.645048302952,10806,38.2353656,15.4273591,village,Saponara,83092,25448.136,1620950
83048,Messina,MEAA871079,MASSA S. LUCIA,VIA DEL POZZO,38.200884690543,15.548363248548,10806,38.2353656,15.4273591,village,Saponara,83092,15964.517,810988
83048,Messina,MEAA8AC024,TREMESTIERI - PISTUNINA,VIA C.VALERIA,38.139142216305,15.525532423198,10806,38.2353656,15.4273591,village,Saponara,83092,22860.886,1221499
83048,Messina,MEAA871068,CASTANEA,VIA MASSA,38.267511445361,15.526065442296,10806,38.2353656,15.4273591,village,Saponara,83092,12627.871,1029717
83048,Messina,MEAA897017,INFANZIA CONTESSE CEP,VIA DEI GELSOMINI (17/G),38.153030032408,15.52766857356,10806,38.2353656,15.4273591,village,Saponara,83092,21677.46,1186263
83048,Messina,MEAA897028,CEP EX PALAZZO SAJA,VIA 17/G,38.154352479222,15.529278214766,10806,38.2353656,15.4273591,village,Saponara,83092,21784.432,1176185
83048,Messina,MEAA86705G,ISTITUTO ANTONIANO,VIA CESARE BATTISTI N. 279,38.183449994858,15.549939971208,10806,38.2353656,15.4273591,village,Saponara,83092,18060.001,981954
83048,Messina,MEAA85102V,ZAFFERIA,VIA GABBELLA,38.152761252618,15.506516422391,10806,38.2353656,15.4273591,village,Saponara,83092,23222.106,1300706
83048,Messina,MEAA87304T,F.CRISPI,VIA MONS. D'ARRIGO ISOLATO 401,38.201536753888,15.556049780429,10806,38.2353656,15.4273591,village,Saponara,83092,16722.722,881410
83048,Messina,MEAA86702C,VIA PIEMONTE,VIA PIEMONTE,38.180382395234,15.546183720194,10806,38.2353656,15.4273591,village,Saponara,83092,18962.66,955463
83048,Messina,MEAA89602C,VIA TRENTO,VIA TRENTO EX MISCELA D'ORO,38.178921408451,15.552800040089,10806,38.2353656,15.4273591,village,Saponara,83092,19569.763,974900
83048,Messina,MEAA87302Q,ISTITUTO ASSISTENZA INFANZIA,PIAZZA CASA PIA 39/B,38.203717436736,15.556199157404,10806,38.2353656,15.4273591,village,Saponara,83092,17024.774,886537
83048,Messina,MEAA86602L,CANNIZZARO - INFANZIA,VIA M. GIURBA N. 2,38.187639982527,15.551760017663,10806,38.2353656,15.4273591,village,Saponara,83092,17618.392,977048
83048,Messina,MEAA851052,POLIMENI-ZUMBO,VIA MARCO POLO 228,38.157480008973,15.534799990959,10806,38.2353656,15.4273591,village,Saponara,83092,21564.326,1111606
83048,Messina,MEAA86601G,GALATTI - INFANZIA,VIA N. FABRIZI 157,38.188059999695,15.551539992705,10806,38.2353656,15.4273591,village,Saponara,83092,17545.791,968335
83048,Messina,MEAA8AE03R,PIETRO DONATO,VIA CONSOLARE POMPEA N? 45 PARADISO,38.220769999652,15.565159998632,10806,38.2353656,15.4273591,village,Saponara,83092,18554.189,962465
83048,Messina,MEAA8AE01P,BEATA EUSTOCHIA,VIA DEL FANTE N? 18,38.219259999795,15.560999976267,10806,38.2353656,15.4273591,village,Saponara,83092,17085.633,1002555
83048,Messina,MEAA8AE02Q,"SCUOLA DELL'INFANZIA ""PETRARCA""",VIA C. POMPEA,38.266815737558,15.617599521315,10806,38.2353656,15.4273591,village,Saponara,83092,26040.604,1642887
83048,Messina,MEAA8AE04T,LETTERIO DONATO,C.DA SENA - PACE,38.242397773927,15.579480386546,10806,38.2353656,15.4273591,village,Saponara,83092,21349.62,1128771
83048,Messina,MEAA862029,POLICLINICO,VIA CONDOTTIERI,38.161466882859,15.53610918086,10806,38.2353656,15.4273591,village,Saponara,83092,21415.587,1091610
83048,Messina,MEAA862018,VALLE DEGLI ANGELI,VIA CHERUBINI,38.171514168612,15.538800995649,10806,38.2353656,15.4273591,village,Saponara,83092,20469.272,1098032
83048,Messina,MEAA88701L,INFANZIA DRAGO,VIA CATANIA 103 IS. 26/C,38.172979991964,15.543750019532,10806,38.2353656,15.4273591,village,Saponara,83092,20725.329,1122204
83048,Messina,MEAA86703D,VIA DEI MILLE,VIA DEI MILLE,38.186724993022,15.55569997316,10806,38.2353656,15.4273591,village,Saponara,83092,17755.788,973469
83048,Messina,MEAA89601B,L. RIZZO,VIALE SAN MARTINO 246,38.181239980357,15.551749959379,10806,38.2353656,15.4273591,village,Saponara,83092,18502.102,1026769
83048,Messina,MEAA86102D,VILL.SANTO EX SALA SMERALDA,PIAZZA CHIESA,38.250860005268,15.493709973755,10806,38.2353656,15.4273591,village,Saponara,83092,9382.598,591008
83048,Messina,MEAA8AD086,GIAMPILIERI MARINA,VIA COMUNALE,38.101806434596,15.490070145087,10806,38.2353656,15.4273591,village,Saponara,83092,29793.853,1639097
83048,Messina,MEAA89401Q,BUON PASTORE - CRISTO RE,V.LE P.UMBERTO 93,38.195970001722,15.55114998275,10806,38.2353656,15.4273591,village,Saponara,83092,16279.756,819857
83048,Messina,MEAA871024,"""E.CASTRONOVO",PIAZZA CASTELLO,38.233675431323,15.471649738821,10806,38.2353656,15.4273591,village,Saponara,83092,7337.251,583448
83048,Messina,MEAA8AD01V,S.MARGHERITA SCUOLE ELEMENTARI,VIA COMUNALE,38.101806434596,15.490070145087,10806,38.2353656,15.4273591,village,Saponara,83092,29793.853,1639097
83048,Messina,MEAA871057,FRANCESCO SACCA',VIA COMUNALE-S.MICHELE,38.215572419099,15.533436058757,10806,38.2353656,15.4273591,village,Saponara,83092,14265.556,742398
83048,Messina,MEAA8AC035,TIPOLDO,PIAZZA CHIESA,38.250860005268,15.493709973755,10806,38.2353656,15.4273591,village,Saponara,83092,9382.598,591008
83048,Messina,MEAA871035,"""G.CENA""",VIA P. UMBERTO,38.250711918243,15.493949472509,10806,38.2353656,15.4273591,village,Saponara,83092,9408.866,592899
83048,Messina,MEAA86203A,EX LEOPARDI,VIA TAORMINA (LOCALI IACP),38.163385508864,15.539499160259,10806,38.2353656,15.4273591,village,Saponara,83092,20786.895,1042963
83048,Messina,MEAA86109R,SCUOLA MATERNA,VIA PRIMO MOLINO,38.169370510009,15.529767454561,10806,38.2353656,15.4273591,village,Saponara,83092,19761.56,1011361
83048,Messina,MEAA86106N,A.LUCIANI,GAZZI FUCILE,38.17839,15.55309,10806,38.2353656,15.4273591,village,Saponara,83092,19480.169,966474
83048,Messina,MEAA89603D,VIA NATOLI,VIA NATOLI 79,38.182879983533,15.556529991122,10806,38.2353656,15.4273591,village,Saponara,83092,18896.806,1031519
83048,Messina,MEAA86108Q,CUMIA SUPERIORE,VIA COMUNALE,38.186282358556,15.552004849959,10806,38.2353656,15.4273591,village,Saponara,83092,17697.153,960183
83048,Messina,MEAA864043,"""GENTILUOMO""",VIA COMUNALE,38.186282358556,15.552004849959,10806,38.2353656,15.4273591,village,Saponara,83092,17697.153,960183
83048,Messina,MEAA869024,GRAVITELLISUPERIORE,PIAZZA VERSACI,38.196228017163,15.537102044292,10806,38.2353656,15.4273591,village,Saponara,83092,17878.695,1001612
83048,Messina,MEAA869046,CRISTO RE,VIALE PRINCIPE UMBERTO,38.195267085469,15.546481725724,10806,38.2353656,15.4273591,village,Saponara,83092,16681.322,866842
83048,Messina,MEAA8AD042,S.STEFANO MEDIO,VIA COMUNALE,38.101806434596,15.490070145087,10806,38.2353656,15.4273591,village,Saponara,83092,29793.853,1639097
83048,Messina,ME1A044008,SCUOLA MATERNA REGIONALE,SS. 114 PAL. PRESTI,38.128861226149,15.520616628536,10806,38.2353656,15.4273591,village,Saponara,83092,23879.991,1201941
83048,Messina,ME1A5F500S,PATAPUFFETE,VIALE PRINCIPE UMBERTO 61/B,38.195410006771,15.546159984333,10806,38.2353656,15.4273591,village,Saponara,83092,16679.46,866416
83048,Messina,ME1A505001,IL REGNO DEGLI ELFI,VIA SANTA CECILIA N. 119,38.183360015128,15.550849994435,10806,38.2353656,15.4273591,village,Saponara,83092,18248.675,1011397
83048,Messina,ME1A16900D,JUNIOR SOC. COOP. SOCIALE,VIA MARCO POLO VILLA MILORO s.n.c.,38.154871841121,15.533945048798,10806,38.2353656,15.4273591,village,Saponara,83092,21859.788,1147061
83048,Messina,ME1A565003,MAGICA BULA,VIA CATANIA IS. 41,38.179579986343,15.54736002141,10806,38.2353656,15.4273591,village,Saponara,83092,19198.514,964925
83048,Messina,ME1A137002,PARK PALACE SAS IMP. SOC.,VIA DUCEZIO 36,38.190520004458,15.543469980146,10806,38.2353656,15.4273591,village,Saponara,83092,17544.087,986762
83048,Messina,ME1A16800N,SAN DOMENICO SAVIO,VIA LENZI24,38.191400020472,15.550389995589,10806,38.2353656,15.4273591,village,Saponara,83092,17170.663,926029
83048,Messina,ME1A007009,IL PICCOLO PRINCIPE SOC. COOP. SOCIALE,VIA MARIO PASSAMONTE PAL.B RIONE OGLIASTRI,38.209632247888,15.557555905839,10806,38.2353656,15.4273591,village,Saponara,83092,16434.547,846456
83048,Messina,ME1AUL500G,IL BOSCO DEI 100 ACRI,VILLAGGIO CONTESSE S.S. 114 KM 4.100 I LOTTO,38.152812084765,15.530618021107,10806,38.2353656,15.4273591,village,Saponara,83092,21601.911,1135329
83048,Messina,ME1A101007,SCUOLA MATERNA REGIONALE,VIA COMUNALE33/D BORDONARO CONTRADA CONVITO,38.176680974762,15.520824003995,10806,38.2353656,15.4273591,village,Saponara,83092,19613.548,1011782
83048,Messina,ME1AZA500L,I PESCIOLINI 2,Via Lenzi 5/B,38.191490000203,15.550299973949,10806,38.2353656,15.4273591,village,Saponara,83092,17164.331,925269
83048,Messina,ME1A173005,PLACIDO DI BELLA SOC.COOP.SOC.,VIALE ANNUNZIATA 86,38.220730017973,15.555589960681,10806,38.2353656,15.4273591,village,Saponara,83092,16812.139,966000
83048,Messina,ME1A02600P,IST.FIGLIE DELDIVINO ZELO C. A. MARIA DI FRANCIA,VIA SANTA MARTA 194,38.185990004887,15.549200016795,10806,38.2353656,15.4273591,village,Saponara,83092,18890.858,994016
83048,Messina,ME1A845003,I PESCIOLINI,VIALE BOCCETTA N. 64,38.197419987152,15.555709989535,10806,38.2353656,15.4273591,village,Saponara,83092,16720.256,866566
83048,Messina,ME1A14100N,S. IGNAZIO,VIA IGNATIANUM 23,38.206349982976,15.551179989963,10806,38.2353656,15.4273591,village,Saponara,83092,16941.45,864982
83048,Messina,ME1A10500E,S.ANNA P.G.B.TORNATORE,VIA XXIV MAGGIO 159,38.195549984554,15.553119981453,10806,38.2353656,15.4273591,village,Saponara,83092,16517.051,847595
83048,Messina,ME1A11700R,IST.FEMMINILE S.G.BOSCO DELLE SALESIANE SAN GIOVANNI BOSCO,VIA BRESCIA 5,38.179210009137,15.548450004099,10806,38.2353656,15.4273591,village,Saponara,83092,19144.329,960458
83048,Messina,ME1A10400P,ANCELLE RIPARATRICI DEL SS. CUORE DI GESU' SACRO CUORE,VIA MONS. A. CELONA 1 IS.485,38.206639996826,15.556940033826,10806,38.2353656,15.4273591,village,Saponara,83092,16561.893,873864
83048,Messina,ME1A032002,SCUOLA MATERNA REGIONALE,VIA BRASILE,38.212749691491,15.560170671344,10806,38.2353656,15.4273591,village,Saponara,83092,17585.019,915261
83048,Messina,ME1A17700C,SORRISO DEI BIMBI 2 SOC.COOP.SOCIALE,VIA A. M. IACI37,38.210705,15.550621869,10806,38.2353656,15.4273591,village,Saponara,83092,15980.905,828097
83048,Messina,ME1A149008,L'ALBERO AZZURRO SOC.COOP.SOC.,VILL. S. AGATA SALITA SPERONE N. 17/A,38.266490001,15.638894651,10806,38.2353656,15.4273591,village,Saponara,83092,24558.458,1520440
83048,Messina,ME1A029006,CONGREGAZIONE DELLE RELIGIOSE DOMENICANE SACRO CUORE,VIA SACRO CUORE 3,38.191030001357,15.548169964714,10806,38.2353656,15.4273591,village,Saponara,83092,17273.715,945060
83048,Messina,ME1A108002,IST. ANCELLE RIPARATRICI DEL SS.CUORE GESU' ANTONINO CELONA,VIA NINO BIXIO 30 IS.127,38.182280006903,15.554529985206,10806,38.2353656,15.4273591,village,Saponara,83092,18801.442,1020074
83048,Messina,ME1A107006,"IST.APOSTOLE DELLA SACRA FAMIGLIA ""LEONE XIII"" M.PAINO",VIA ELENUCCIA 15,38.200929992926,15.55550002286,10806,38.2353656,15.4273591,village,Saponara,83092,16582.516,864585
83048,Messina,ME1A040001,SCUOLA INFANZIA PARIT. REGIONALE,VIA TRENTO,38.178921408451,15.552800040089,10806,38.2353656,15.4273591,village,Saponara,83092,19569.763,974900
83048,Messina,ME1A151008,BABY'S WORLD SOC. COOP. SOC.,VIALE S. MARTINO IS. 102 N. 227,38.184059987862,15.554280036853,10806,38.2353656,15.4273591,village,Saponara,83092,18129.872,1005476
83048,Messina,ME1A130007,IL MONDO DI TRILLY S.C.S.,Via Vittorio Bottego snc Vill. Contesse,38.158222086953,15.534905400212,10806,38.2353656,15.4273591,village,Saponara,83092,21560.886,1092611
83048,Messina,ME1A179004,LA NUVOLETTA SOC.COOP.SOC.,VIA LA FARINA IS. 149 N.64,38.181039988148,15.555760029497,10806,38.2353656,15.4273591,village,Saponara,83092,19012.768,971312
83048,Messina,ME1AMR500R,LA CASA DI WINNIE,VIA CENTONZE N. 200,38.18311999933,15.550829961687,10806,38.2353656,15.4273591,village,Saponara,83092,18250.805,1002441
83048,Messina,ME1A31500V,SORRISO DEI BIMBI 1 SOC.COOP.SOC.,VIA GARIBALDI 318 IS. 495,38.207130002886,15.558520022574,10806,38.2353656,15.4273591,village,Saponara,83092,16766.688,865821
83048,Messina,ME1A04600X,SCUOLA MATERNA REGIONALE,PIAZZ CHIESA MILI S. PIETRO,38.126935586195,15.488188525193,10806,38.2353656,15.4273591,village,Saponara,83092,28180.07,1523075
83048,Messina,ME1A181004,L'ALLEGRO MONDO DEI BIMBI SOC.COOP.SOC.,VIA MARINA 72 SANTA MARGHERITA,38.099430006975,15.495690030742,10806,38.2353656,15.4273591,village,Saponara,83092,29203.549,1596594
83076,Rometta,MEAA87407R,ROMETTA,VIA MARIO GIURBA,38.172143668609,15.413616216817,10806,38.2353656,15.4273591,village,Saponara,83092,13333.413,1015062
83076,Rometta,MEAA87406Q,MAREA,CORSO DELLA LIBERTA'86,38.231839146136,15.408355381169,10806,38.2353656,15.4273591,village,Saponara,83092,2086.148,160830
83076,Rometta,ME1ADL5008,EMOZIONIDO,CORSO FRANCESCO SAIJA N. 80,38.230270006801,15.402600027343,10806,38.2353656,15.4273591,village,Saponara,83092,2613.105,202791
83105,Villafranca Tirrena,MEAA819056,GRIOLI,VIA EUROPA,38.231719760868,15.44004621626,10806,38.2353656,15.4273591,village,Saponara,83092,1552.041,115008
83105,Villafranca Tirrena,MEAA819034,DIVIETO,VIA MARINA,38.243843005058,15.440998036997,10806,38.2353656,15.4273591,village,Saponara,83092,2061.997,159569
83105,Villafranca Tirrena,ME1A15600B,IL LANTERNINO SOC.COOP.SOC.,VIA LIOTTA 4,38.235310003271,15.433630000536,10806,38.2353656,15.4273591,village,Saponara,83092,969.837,68986
83105,Villafranca Tirrena,ME1A15300X,QUIBIMBI SOC. COOP. SOC.,VIA NAZIONALE 162/164,38.240916943715,15.443074639833,10806,38.2353656,15.4273591,village,Saponara,83092,1725.427,104022
83092,Saponara,MEAA87403L,"SCUOLA MATERNA ""S.QUASIMODO""",VIA COMO,38.203449943985,15.431719628489,10806,38.2353656,15.4273591,village,Saponara,83092,4170.966,307083
83092,Saponara,MEAA87404N,"SCUOLA MATERNA ""GIOVANNI XXIII""",VIA DEL MARE,38.237368145049,15.426919346945,10806,38.2353656,15.4273591,village,Saponara,83092,273.878,32865
83092,Saponara,MEAA87401E,"SCUOLA MATERNA ""ARIELLA""",VIA ARIELLA,38.194971232933,15.434431881933,10806,38.2353656,15.4273591,village,Saponara,83092,5740.373,438081
83033,Gioiosa Marea,MEAA84404T,SAN GIORGIO,FRAZ. SAN GIORGIO,38.174940016202,14.941235014676,10800,38.1138413,14.8822553,village,Sant'Angelo di Brolo,83088,20792.921,1322429
83033,Gioiosa Marea,MEAA84401P,GIOIOSA MAREA,VIA CONVENTO,38.173364665901,14.897099846425,10800,38.1138413,14.8822553,village,Sant'Angelo di Brolo,83088,14437.186,962182
83033,Gioiosa Marea,MEAA84402Q,SAN FRANCESCO,FRAZ. SAN FRANCESCO,38.144207124937,14.905980583996,10800,38.1138413,14.8822553,village,Sant'Angelo di Brolo,83088,11229.002,969258
83095,Sinagra,MEAA83805G,SINAGRA,Non Disponibile,38.08315,14.851593839,10800,38.1138413,14.8822553,village,Sant'Angelo di Brolo,83088,12354.708,1304436
83095,Sinagra,MEAA83806L,GORGHI,Non Disponibile,38.08315,14.851593839,10800,38.1138413,14.8822553,village,Sant'Angelo di Brolo,83088,12354.708,1304436
83068,Piraino,MEAA84406X,ZAPPARDINO,VIA DELLA REGIONE SICILIANA,38.166432496572,14.897308085398,10800,38.1138413,14.8822553,village,Sant'Angelo di Brolo,83088,11777.928,959578
83068,Piraino,MEAA844071,FIUMARA,Non Disponibile,38.162050520411,14.845646130016,10800,38.1138413,14.8822553,village,Sant'Angelo di Brolo,83088,9217.836,690690
83068,Piraino,ME1A12400X,IST.FEMMINILE S.G.BOSCO DELLE SALESIANE GEMBILLO BARBERA,VIA MESSINA 13,38.163099739776,14.847314280852,10800,38.1138413,14.8822553,village,Sant'Angelo di Brolo,83088,9191.45,688440
83056,Montagnareale,MEAA849063,MONTAGNAREALE,VIA SAN SEBASTIANO,38.131927326291,14.944546753635,10800,38.1138413,14.8822553,village,Sant'Angelo di Brolo,83088,14431.356,1693627
83056,Montagnareale,MEAA849052,SANTA NICOLELLA,VIA SANTA NICOLELLA,38.107987042579,14.963939997816,10800,38.1138413,14.8822553,village,Sant'Angelo di Brolo,83088,21032.217,1960324
83039,Librizzi,MEAA87802V,LIBRIZZI,VIA MATRICE,38.098173790914,14.959462051576,10800,38.1138413,14.8822553,village,Sant'Angelo di Brolo,83088,17428.455,1604440
83007,Brolo,MEAA839028,VIA TRENTO,VIA TRENTO,38.151958080722,14.838135450875,10800,38.1138413,14.8822553,village,Sant'Angelo di Brolo,83088,10414.792,743495
83007,Brolo,MEAA839017,PIAZZA ANNUNZIATELLA,VIA PIAZZA ANNUNZIATELLA,38.15677999433,14.829276995199,10800,38.1138413,14.8822553,village,Sant'Angelo di Brolo,83088,9315.589,674448
83007,Brolo,ME1A01200R,PROGETTO INFANZIA SOC. COOP.,VIA PRINCIPE LANCIA 27,38.152820006084,14.825370039244,10800,38.1138413,14.8822553,village,Sant'Angelo di Brolo,83088,9794.734,729259
83069,Raccuja,MEAA83807N,RACCUIA,VIA P.CASTELLO,38.056306447826,14.910955475652,10800,38.1138413,14.8822553,village,Sant'Angelo di Brolo,83088,12323.414,1241935
83081,San Piero Patti,MEAA87801T,SAN PIERO PATTI,PIAZZA A.DE GASPERI,38.033542323,14.967005001,10800,38.1138413,14.8822553,village,Sant'Angelo di Brolo,83088,26906.589,2016617
83020,Ficarra,MEAA839039,FICARRA,P.ZZA MONASTERO,38.110756874173,14.827576926708,10800,38.1138413,14.8822553,village,Sant'Angelo di Brolo,83088,10687.773,1025342
83088,Sant'Angelo di Brolo,MEAA83904A,SANT'ANGELO DI BROLO,VIA S.FRANCESCO,38.111814962567,14.88377249528,10800,38.1138413,14.8822553,village,Sant'Angelo di Brolo,83088,660.136,59895
83088,Sant'Angelo di Brolo,MEAA83905B,CONTURA,Non Disponibile,38.106865108174,14.889350428449,10800,38.1138413,14.8822553,village,Sant'Angelo di Brolo,83088,1590.368,181707
