from_pro_com,from_comune,from_id_school,from_name,from_address,latitude_school,longitude_school,to,latitude_to,longitude_to,to_kind,to_comune,to_pro_com,distance,travel_time
1066,Castellamonte,TOAA8BS015,I.C. CASTELLAMONTE - V. GIRAUDO,VIA GIRAUDO 15,45.383200014654,7.713940007479,6842,45.4941168,7.7804864,village,Valchiusa,1318,16986.148,1309186
1066,Castellamonte,TOAA8BS037,I.C. CASTELLAMONTE - V. BARENGO,VIA BARENGO,45.385727586406,7.704673662006,6842,45.4941168,7.7804864,village,Valchiusa,1318,18022.511,1370498
1210,Quincinetto,TOAA849037,I.C.SETTIMO VITTONE-QUINCINETTO,VIA BUAT ALBIANA 13,45.562062291973,7.80922158865,6842,45.4941168,7.7804864,village,Valchiusa,1318,15578.061,1584267
1230,Rueglio,TOAA80606C,I.C. VISTRORIO RUEGLIO,REGIONE CIOS,45.472360369552,7.754527300367,6842,45.4941168,7.7804864,village,Valchiusa,1318,6449.586,605801
1132,Lessolo,TO1A20600E,IORIO,V.Vittorio Veneto 57,45.477610000166,7.815709974531,6842,45.4941168,7.7804864,village,Valchiusa,1318,8549.683,907509
1318,Valchiusa,TOAA80604A,I.C. VISTRORIO VICO C.SE,VIA DON AIMINO,45.493148910664,7.781966026563,6842,45.4941168,7.7804864,village,Valchiusa,1318,174.971,20996
1066,Castellamonte,TOAA8BS015,I.C. CASTELLAMONTE - V. GIRAUDO,VIA GIRAUDO 15,45.383200014654,7.713940007479,6843,45.4976831,7.7674163,village,Valchiusa,1318,18380.148,1392435
1066,Castellamonte,TOAA8BS037,I.C. CASTELLAMONTE - V. BARENGO,VIA BARENGO,45.385727586406,7.704673662006,6843,45.4976831,7.7674163,village,Valchiusa,1318,19416.512,1453747
1210,Quincinetto,TOAA849037,I.C.SETTIMO VITTONE-QUINCINETTO,VIA BUAT ALBIANA 13,45.562062291973,7.80922158865,6843,45.4976831,7.7674163,village,Valchiusa,1318,16900.624,1731095
1230,Rueglio,TOAA80606C,I.C. VISTRORIO RUEGLIO,REGIONE CIOS,45.472360369552,7.754527300367,6843,45.4976831,7.7674163,village,Valchiusa,1318,7312.994,646953
1132,Lessolo,TO1A20600E,IORIO,V.Vittorio Veneto 57,45.477610000166,7.815709974531,6843,45.4976831,7.7674163,village,Valchiusa,1318,9943.684,990758
1318,Valchiusa,TOAA80604A,I.C. VISTRORIO VICO C.SE,VIA DON AIMINO,45.493148910664,7.781966026563,6843,45.4976831,7.7674163,village,Valchiusa,1318,1497.534,167824
1179,Parella,TOAA806039,I.C. VISTRORIO PARELLA,VIA CARANDINI 30,45.429789985265,7.794020039865,6597,45.460658,7.779217,village,Val di Chy,1317,6362.038,846727
1066,Castellamonte,TOAA8BS015,I.C. CASTELLAMONTE - V. GIRAUDO,VIA GIRAUDO 15,45.383200014654,7.713940007479,6597,45.460658,7.779217,village,Val di Chy,1317,12935.294,991115
1066,Castellamonte,TOAA8BS037,I.C. CASTELLAMONTE - V. BARENGO,VIA BARENGO,45.385727586406,7.704673662006,6597,45.460658,7.779217,village,Val di Chy,1317,13971.657,1052427
1318,Valchiusa,TOAA80604A,I.C. VISTRORIO VICO C.SE,VIA DON AIMINO,45.493148910664,7.781966026563,6597,45.460658,7.779217,village,Val di Chy,1317,5397.669,438991
1312,Vistrorio,TOAA806028,I.C. VISTRORIO LUGNACCO,VIA G. MARCONI,45.446356178989,7.761177356976,6597,45.460658,7.779217,village,Val di Chy,1317,4239.147,367583
1105,Fiorano Canavese,TOAA8AR04C,I.C. PAVONE - FIORANO,VIA MOLA DI LARISSE',45.469331583901,7.829151048466,6597,45.460658,7.779217,village,Val di Chy,1317,5984.016,546738
1137,Loranzè,TOAA806017,I.C. VISTRORIO LORANZE',VIA IVREA 6,45.440890013911,7.812800029206,6597,45.460658,7.779217,village,Val di Chy,1317,7298.91,895740
1230,Rueglio,TOAA80606C,I.C. VISTRORIO RUEGLIO,REGIONE CIOS,45.472360369552,7.754527300367,6597,45.460658,7.779217,village,Val di Chy,1317,3391.368,282890
1132,Lessolo,TO1A20600E,IORIO,V.Vittorio Veneto 57,45.477610000166,7.815709974531,6597,45.460658,7.779217,village,Val di Chy,1317,5853.394,499623
1179,Parella,TOAA806039,I.C. VISTRORIO PARELLA,VIA CARANDINI 30,45.429789985265,7.794020039865,6598,45.452057,7.777417,village,Val di Chy,1317,8651.397,765467
1066,Castellamonte,TOAA8BS015,I.C. CASTELLAMONTE - V. GIRAUDO,VIA GIRAUDO 15,45.383200014654,7.713940007479,6598,45.452057,7.777417,village,Val di Chy,1317,12106.765,922679
1066,Castellamonte,TOAA8BS037,I.C. CASTELLAMONTE - V. BARENGO,VIA BARENGO,45.385727586406,7.704673662006,6598,45.452057,7.777417,village,Val di Chy,1317,13143.129,983991
1318,Valchiusa,TOAA80604A,I.C. VISTRORIO VICO C.SE,VIA DON AIMINO,45.493148910664,7.781966026563,6598,45.452057,7.777417,village,Val di Chy,1317,7039.204,560561
1312,Vistrorio,TOAA806028,I.C. VISTRORIO LUGNACCO,VIA G. MARCONI,45.446356178989,7.761177356976,6598,45.452057,7.777417,village,Val di Chy,1317,3410.618,299147
1105,Fiorano Canavese,TOAA8AR04C,I.C. PAVONE - FIORANO,VIA MOLA DI LARISSE',45.469331583901,7.829151048466,6598,45.452057,7.777417,village,Val di Chy,1317,7361.556,754554
1137,Loranzè,TOAA806017,I.C. VISTRORIO LORANZE',VIA IVREA 6,45.440890013911,7.812800029206,6598,45.452057,7.777417,village,Val di Chy,1317,6986.305,1004306
1230,Rueglio,TOAA80606C,I.C. VISTRORIO RUEGLIO,REGIONE CIOS,45.472360369552,7.754527300367,6598,45.452057,7.777417,village,Val di Chy,1317,4082.54,336032
1132,Lessolo,TO1A20600E,IORIO,V.Vittorio Veneto 57,45.477610000166,7.815709974531,6598,45.452057,7.777417,village,Val di Chy,1317,7230.934,707439
1179,Parella,TOAA806039,I.C. VISTRORIO PARELLA,VIA CARANDINI 30,45.429789985265,7.794020039865,6599,45.445057,7.782117,village,Val di Chy,1317,7325.887,644961
1066,Castellamonte,TOAA8BS015,I.C. CASTELLAMONTE - V. GIRAUDO,VIA GIRAUDO 15,45.383200014654,7.713940007479,6599,45.445057,7.782117,village,Val di Chy,1317,10816.549,860668
1066,Castellamonte,TOAA8BS037,I.C. CASTELLAMONTE - V. BARENGO,VIA BARENGO,45.385727586406,7.704673662006,6599,45.445057,7.782117,village,Val di Chy,1317,11852.912,921980
1318,Valchiusa,TOAA80604A,I.C. VISTRORIO VICO C.SE,VIA DON AIMINO,45.493148910664,7.781966026563,6599,45.445057,7.782117,village,Val di Chy,1317,8334.124,678464
1312,Vistrorio,TOAA806028,I.C. VISTRORIO LUGNACCO,VIA G. MARCONI,45.446356178989,7.761177356976,6599,45.445057,7.782117,village,Val di Chy,1317,2223.967,238915
1105,Fiorano Canavese,TOAA8AR04C,I.C. PAVONE - FIORANO,VIA MOLA DI LARISSE',45.469331583901,7.829151048466,6599,45.445057,7.782117,village,Val di Chy,1317,8623.609,868512
1137,Loranzè,TOAA806017,I.C. VISTRORIO LORANZE',VIA IVREA 6,45.440890013911,7.812800029206,6599,45.445057,7.782117,village,Val di Chy,1317,6240.065,944044
1230,Rueglio,TOAA80606C,I.C. VISTRORIO RUEGLIO,REGIONE CIOS,45.472360369552,7.754527300367,6599,45.445057,7.782117,village,Val di Chy,1317,5377.46,453935
1132,Lessolo,TO1A20600E,IORIO,V.Vittorio Veneto 57,45.477610000166,7.815709974531,6599,45.445057,7.782117,village,Val di Chy,1317,8492.986,821397
1272,Torino,TOAA86602X,"I.C. CAIROLI - ""LA GIOSTRA""",VIA MONASTIR 17/9,45.015929995578,7.655050013054,6660,45.1521446,7.6579731,town,Borgaro Torinese,1028,17319.478,1349756
1272,Torino,TOAA00401L,TO ALLIEVO SPINA 3,V.ORVIETO 1 INTERNO 5-7-9,45.092362884052,7.669523038932,6660,45.1521446,7.6579731,town,Borgaro Torinese,1028,8141.232,700467
1272,Torino,TOAA8BV01L,"I.C. DUCA D'AOSTA ""ARCHIMEDE""",VIA VALGIOIE 72,45.076830012294,7.627770019522,6660,45.1521446,7.6579731,town,Borgaro Torinese,1028,10557.759,851520
1272,Torino,TOAA8BD01R,I.C. ILARIA ALPI - PEREMPRUNER,VIA BERSEZIO 11,45.085090000688,7.694059977165,6660,45.1521446,7.6579731,town,Borgaro Torinese,1028,9396.426,801338
1272,Torino,TOAA881011,"I.C. ""S.PERTINI"" - LINUS",VIA POIRINO9,45.033650009443,7.649330034689,6660,45.1521446,7.6579731,town,Borgaro Torinese,1028,14472.843,1107442
1272,Torino,TOAA8BW02D,"I.C. ALIGHIERI-KENNEDY ""M.POLO""",VIA PASSONI 9,45.083120001984,7.618389999316,6660,45.1521446,7.6579731,town,Borgaro Torinese,1028,10212.918,844721
1272,Torino,TOAA8BW03E,I.C. ALIGHIERI-KENNEDY BELLARDI,VIA BELLARDI56,45.079099999312,7.624379958783,6660,45.1521446,7.6579731,town,Borgaro Torinese,1028,10501.321,870843
1272,Torino,TOAA8BE01L,I.C. TORINO II - VIA BEINASCO,VIA BEINASCO 34,45.087810012087,7.677990024759,6660,45.1521446,7.6579731,town,Borgaro Torinese,1028,8321.855,744587
1272,Torino,TOAA8B901X,IC MATTEOTTI - PELLICO - BORG.,CORSO SICILIA 24,45.041489980669,7.682169996054,6660,45.1521446,7.6579731,town,Borgaro Torinese,1028,14897.279,1129682
1272,Torino,TOAA88301L,I.C. R.L. MONTALCINI,VIA COLLEGNO 73,45.072370001614,7.658430015509,6660,45.1521446,7.6579731,town,Borgaro Torinese,1028,9727.94,775110
1272,Torino,TOAA88302N,I.C. R.L. MONTALCINI V. CASALIS,VIA CASALIS 54,45.075110003853,7.658490029936,6660,45.1521446,7.6579731,town,Borgaro Torinese,1028,9509.22,748863
1272,Torino,TOAA88401C,I.C. M. L. SPAZIANI- QUARANTA,VIA BARDONECCHIA 36/A,45.072769986034,7.644659973516,6660,45.1521446,7.6579731,town,Borgaro Torinese,1028,9908.973,795943
1272,Torino,TOAA8BX03A,I.C. BOSSO - MONTALCINI,VIA MONTE NOVEGNO 31,45.040389981605,7.630060039288,6660,45.1521446,7.6579731,town,Borgaro Torinese,1028,13670.543,1107282
1272,Torino,TOAA81601T,I.C. KING MILA - VIA THURES,VIA THURES 11,45.072819984086,7.605810019935,6660,45.1521446,7.6579731,town,Borgaro Torinese,1028,11923.119,965300
1272,Torino,TOAA8CD02C,I.C. BARICCO - VIA FATTORI,VIA FATTORI 113,45.071819981128,7.626790007403,6660,45.1521446,7.6579731,town,Borgaro Torinese,1028,11037.39,880809
1272,Torino,TOAA81702P,I.C. PACINOTTI - INF. MANZONI,VIA BALME 46,45.081252852152,7.649488957343,6660,45.1521446,7.6579731,town,Borgaro Torinese,1028,8658.525,694424
1272,Torino,TOAA8CD03D,"I.C. BARICCO- (""TOSCANINI"")",VIA MONTE ORTIGARA 50,45.067829985669,7.630439990959,6660,45.1521446,7.6579731,town,Borgaro Torinese,1028,11304.741,880352
1272,Torino,TOAA8B002E,IC CEFALONIA-MAZZINI N. GREEN,CORSO ORBASSANO 224/26,45.041719980092,7.635899962688,6660,45.1521446,7.6579731,town,Borgaro Torinese,1028,13251.463,1052496
1272,Torino,TOAA8B003G,IC CEFALONIA-MAZZINI BALTIMORA,VIA BALTIMORA 64,45.044910006712,7.641850024295,6660,45.1521446,7.6579731,town,Borgaro Torinese,1028,13391.02,1017563
1272,Torino,TOAA8BW01C,"I.C. ALIGHIERI-KENNEDY ""CURIE""",VIA PIETRO COSSA 115/21,45.082740008404,7.622339971188,6660,45.1521446,7.6579731,town,Borgaro Torinese,1028,9899.923,807162
1272,Torino,TOAA87602E,I.C. GINO STRADA -VANCHIGLIETTA,VIA MANIN 22,45.072610017412,7.705900002134,6660,45.1521446,7.6579731,town,Borgaro Torinese,1028,11321.021,920896
1272,Torino,TOAA82001D,I.C. SALVEMINI - MARIELE VENTRE,VIA PLAVA 177/2,45.023210013762,7.607539960932,6660,45.1521446,7.6579731,town,Borgaro Torinese,1028,16697.65,1341028
1272,Torino,TOAA8BX029,I.C. BOSSO - D'ARBOREA,VIA ELEONORA D'ARBOREA 9/4,45.035110011247,7.640299958941,6660,45.1521446,7.6579731,town,Borgaro Torinese,1028,14306.236,1102042
1272,Torino,TOAA8A001V,I.C. NIGRA TORINO - BOVETTI,VIA SAVIGLIANO 7,45.082720017565,7.671060034852,6660,45.1521446,7.6579731,town,Borgaro Torinese,1028,8837.548,714869
1272,Torino,TOAA8BX018,I.C. BOSSO - V. GUIDOBONO,VIA GUIDOBONO 2,45.038110020123,7.618090011002,6660,45.1521446,7.6579731,town,Borgaro Torinese,1028,14938.59,1205536
1272,Torino,TOAA8AZ03B,IC. ALBERTI - SALGARI - VIA BERTA,VIA BERTA 15,45.058849991792,7.65347999877,6660,45.1521446,7.6579731,town,Borgaro Torinese,1028,11607.991,880364
1272,Torino,TOAA8A102Q,SC. INFANZIA DI VIA ALASSIO 22,VIA ALASSIO 22,45.039269991703,7.66916002504,6660,45.1521446,7.6579731,town,Borgaro Torinese,1028,14276.945,1089855
1272,Torino,TOAA81602V,I.C. KING MILA - VIA POSTUMIA,VIA POSTUMIA 28,45.068230011998,7.621210006821,6660,45.1521446,7.6579731,town,Borgaro Torinese,1028,11552.256,937066
1272,Torino,TOAA81002X,"I.C. D.M. TUROLDO ""VALLETTE A""",VIA DELLE VERBENE 4,45.104190011092,7.633680015632,6660,45.1521446,7.6579731,town,Borgaro Torinese,1028,8099.0,642195
1272,Torino,TOAA8AZ019,I.C. ALBERTI-SALGARI V.BRACC.63,VIA BRACCINI 63,45.060129992226,7.649430030794,6660,45.1521446,7.6579731,town,Borgaro Torinese,1028,11187.677,879373
1272,Torino,TOAA8A101P,SC. INFANZIA MARIO LODI,VIA GARESSIO 24/5,45.030710014995,7.67014003716,6660,45.1521446,7.6579731,town,Borgaro Torinese,1028,15447.096,1243517
1272,Torino,TOAA8B501L,IC PACCHIOTTI-VIA REVEL CHIARA,VIA SANTA CHIARA 12,45.075279988849,7.681129969508,6660,45.1521446,7.6579731,town,Borgaro Torinese,1028,10227.689,825937
1272,Torino,TOAA8CA01X,I.C. CACCIA - S. MARGHERITA,STRADA S.VINCENZO N. 144,45.052030014364,7.718649966511,6660,45.1521446,7.6579731,town,Borgaro Torinese,1028,14868.522,1149213
1272,Torino,TOAA8B7029,"I.C. CORSO VERCELLI ""PERRAULT"" FRANK",VIA BOCCHERINI 43,45.10179999522,7.692289970672,6660,45.1521446,7.6579731,town,Borgaro Torinese,1028,9332.712,576099
1272,Torino,TOAA87601D,I.C. GINO STRADA - RODARI,CORSO REGINA MARGHERITA 43,45.071139999233,7.699729999388,6660,45.1521446,7.6579731,town,Borgaro Torinese,1028,11475.288,884717
1272,Torino,TOAA8B8025,IC GABELLI A. DI ANZIO,VIA LEONCAVALLO 61/2,45.087999987923,7.702849995206,6660,45.1521446,7.6579731,town,Borgaro Torinese,1028,10342.601,855410
1272,Torino,TOAA82002E,I.C. SALVEMINI - CASTELLO MIR.,STR. CASTELLO DI MIRAFIORI 45,45.012072769465,7.628855056888,6660,45.1521446,7.6579731,town,Borgaro Torinese,1028,17332.062,1336655
1272,Torino,TOAA8AY01D,I.C. PALAZZESCHI - ANDERSEN,VIA STELVIO 45,45.065565155503,7.628611689628,6660,45.1521446,7.6579731,town,Borgaro Torinese,1028,11435.792,900841
1272,Torino,TOAA86601V,IC CAIROLI V. ARTOM,VIA ARTOM 109/3,45.010132102562,7.649793574824,6660,45.1521446,7.6579731,town,Borgaro Torinese,1028,17479.794,1351547
1272,Torino,TOAA80502C,I.C. CENA - VIA ANGLESIO,VIA ANGLESIO 17,45.104500015781,7.731019979218,6660,45.1521446,7.6579731,town,Borgaro Torinese,1028,10659.831,869094
1272,Torino,TOAA8B7018,"IC C.SO VERCELLI ""E. LUZZATI""",VIA RONDISSONE 32,45.097300002862,7.690530022462,6660,45.1521446,7.6579731,town,Borgaro Torinese,1028,9870.631,618087
1272,Torino,TOAA881022,"I.C.""S. PERTINI"" L.GO LA LOGGIA",LARGO LA LOGGIA 51,45.031799997684,7.653340020987,6660,45.1521446,7.6579731,town,Borgaro Torinese,1028,14831.589,1129139
1272,Torino,TOAA80503D,I.C. CENA - PIAZZA ABBA,PIAZZA ABBA 9,45.09067000127,7.714620031284,6660,45.1521446,7.6579731,town,Borgaro Torinese,1028,10404.849,774787
1272,Torino,TOAA8B2015,I.C. FRASSATI - VIA GORRESIO,VIA GORRESIO 13,45.099890010944,7.65726996011,6660,45.1521446,7.6579731,town,Borgaro Torinese,1028,6532.559,570143
1272,Torino,TOAA80801V,R. LUXEMBURG,VIA DEGLI ABETI 13,45.130880002459,7.709530036761,6660,45.1521446,7.6579731,town,Borgaro Torinese,1028,7729.05,625105
1272,Torino,TOAA873023,I.C.PADRE GEMELLI -C.CINCINNATO,CORSO CINCINNATO 121,45.098070006398,7.639969963413,6660,45.1521446,7.6579731,town,Borgaro Torinese,1028,7898.101,658013
1272,Torino,TOAA81701N,I.C. PACINOTTI - V.FOSSANO,VIA FOSSANO 8,45.085350007324,7.661919988534,6660,45.1521446,7.6579731,town,Borgaro Torinese,1028,8573.608,707015
1272,Torino,TOAA873012,I.C. PADRE GEMELLI- V.TERRANEO,VIA TERRANEO 1,45.098259982233,7.644399966879,6660,45.1521446,7.6579731,town,Borgaro Torinese,1028,7460.72,628414
1272,Torino,TOAA87702A,I.C. REGIO PARCO MARIA TERESA,VIA MAMELI 18,45.079329998735,7.683749984803,6660,45.1521446,7.6579731,town,Borgaro Torinese,1028,9355.28,852149
1272,Torino,TOAA877019,JELLA LEPMAN,C.SO CIRIE' 3/A,45.084350004366,7.674710018409,6660,45.1521446,7.6579731,town,Borgaro Torinese,1028,8669.751,710676
1272,Torino,TOAA819019,I.C. MANZONI - R. D'AZEGLIO,VIA GIACOSA 23,45.055059988543,7.68127003111,6660,45.1521446,7.6579731,town,Borgaro Torinese,1028,12812.209,977484
1272,Torino,TOAA8B9021,IC MATTEOTTI - PELLICO- MONCAL.,C.SO MONCALIERI N.400,45.025069999986,7.676069982199,6660,45.1521446,7.6579731,town,Borgaro Torinese,1028,16383.089,1267157
1272,Torino,TOAA8B401R,SCUOLA DELL'INFANZIA,CORSO MATTEOTTI 6 BIS,45.065479993385,7.677600014805,6660,45.1521446,7.6579731,town,Borgaro Torinese,1028,11170.162,847217
1272,Torino,TOAA8AZ02A,I.C. ALBERTI - SALGARI - VIA TOLMINO,VIA TOLMINO 30,45.057749992729,7.644889972939,6660,45.1521446,7.6579731,town,Borgaro Torinese,1028,11446.105,924358
1272,Torino,TOAA81001V,"I.C. ""D.M.TUROLDO""-V.D.MAGNOLIE",VIA DELLE MAGNOLIE 15,45.101700150919,7.631877069919,6660,45.1521446,7.6579731,town,Borgaro Torinese,1028,7969.453,662272
1272,Torino,TOAA8BR021,I.C. PARRI - VIA VENARIA,VIA VENARIA 79/15,45.110080016363,7.658260030513,6660,45.1521446,7.6579731,town,Borgaro Torinese,1028,5624.594,490790
1272,Torino,TOAA8BR032,I.C. PARRI - MELANIA KLEIN,VIA LANZO 28,45.109089987869,7.661670040182,6660,45.1521446,7.6579731,town,Borgaro Torinese,1028,5550.12,472441
1272,Torino,TOAA8BZ01X,I.C. ANTONELLI-CASALEGNO PARRA,VIA BOSTON 33,45.040449996032,7.64156998491,6660,45.1521446,7.6579731,town,Borgaro Torinese,1028,13941.442,1059629
1272,Torino,TOAA8BR01X,I.C. PARRI - STRADA LANZO,STRADA DI LANZO 146,45.117659980952,7.657259985645,6660,45.1521446,7.6579731,town,Borgaro Torinese,1028,6053.457,509032
1272,Torino,TOAA80802X,WALT DISNEY,VIA CAVAGNOLO 35,45.11594001442,7.707210009781,6660,45.1521446,7.6579731,town,Borgaro Torinese,1028,7669.667,573342
1272,Torino,TOAA8BR043,I.C. PARRI - VIA VENARIA 100,VIA VENARIA 100,45.112050015066,7.65735998175,6660,45.1521446,7.6579731,town,Borgaro Torinese,1028,5459.314,463583
1272,Torino,TOAA8B001D,IC CEFALONIA-MAZZINI - BALTIM,VIA BALTIMORA,45.044886022997,7.641727149292,6660,45.1521446,7.6579731,town,Borgaro Torinese,1028,13398.486,1018459
1272,Torino,TOAA8CA021,I.C. CACCIA - VILLA GENERO,STRADA S. MARGHERITA 77,45.056289990924,7.708079967512,6660,45.1521446,7.6579731,town,Borgaro Torinese,1028,13528.083,1104114
1272,Torino,TOAA88201R,"I.C. SIDOLI - ""FANCIULLI""",VIA CAROLINA INVERNIZIO21,45.02218000359,7.654969965878,6660,45.1521446,7.6579731,town,Borgaro Torinese,1028,16238.333,1251695
1272,Torino,TOAA81801D,IC OLIVETTI-REAGLIE,VIA VARALLO 33,45.071133882405,7.713380674802,6660,45.1521446,7.6579731,town,Borgaro Torinese,1028,12034.283,991794
1272,Torino,TOAA8B8014,IC GABELLI -TOMMASO DI SAVOIA,VIA CERVINO 6,45.091219979846,7.688419962157,6660,45.1521446,7.6579731,town,Borgaro Torinese,1028,9264.438,752855
1272,Torino,TOAA88202T,"I.C. SIDOLI - ""KELLER""",VIA PODGORA28,45.026879988158,7.643969975246,6660,45.1521446,7.6579731,town,Borgaro Torinese,1028,15368.495,1184867
1272,Torino,TOAA81802E,IC OLIVETTI-BONCOMPAGNI,VIA BEATO CAFASSO 73,45.087665453722,7.730511233113,6660,45.1521446,7.6579731,town,Borgaro Torinese,1028,13053.833,1013139
1272,Torino,TOAA8CD01B,"I.C . BARICCO ""GIAN BURRASCA""",VIA POZZO STRADA 12/1,45.073929999524,7.628290032795,6660,45.1521446,7.6579731,town,Borgaro Torinese,1028,10672.968,837079
1272,Torino,TOAA88203V,"I.C. SIDOLI - ""KANDINSKIJ""",VIA MONTECORNO21,45.018385,7.659278291,6660,45.1521446,7.6579731,town,Borgaro Torinese,1028,17409.295,1334430
1272,Torino,TOAA8B8036,I.C. GABELLI T. SARTI STRADA,VIA BANFO 17/19,45.090809979053,7.686809966195,6660,45.1521446,7.6579731,town,Borgaro Torinese,1028,8720.79,778355
1272,Torino,TOAA815012,"I.C. ""TOMMASEO"" VIA PLANA",VIA PLANA 2,45.064969996486,7.693360004431,6660,45.1521446,7.6579731,town,Borgaro Torinese,1028,11878.901,937157
1272,Torino,TOAA8CE017,I.C. PEROTTI - TOSCANINI ROUSS,VIA DELLEANI 25,45.067670017047,7.634730016643,6660,45.1521446,7.6579731,town,Borgaro Torinese,1028,10596.107,859468
1272,Torino,TOAA8BY014,"I.C. SINIGAGLIA -""BRUNO MUNARI""",VIA ROVERETO 21,45.052460005997,7.638879980724,6660,45.1521446,7.6579731,town,Borgaro Torinese,1028,12204.827,968765
1272,Torino,TO1A00200D,SCUOLA MATERNA FRIDA KAHLO,V.Monte Cristallo 9,45.061484545027,7.630349106089,6660,45.1521446,7.6579731,town,Borgaro Torinese,1028,11654.133,901701
1272,Torino,TO1A04900P,SS.NATALE,V.PIEDICAVALLO 5,45.076110006811,7.642199968753,6660,45.1521446,7.6579731,town,Borgaro Torinese,1028,9425.551,763044
1272,Torino,TO1A04800V,TESORIERA,V.A.BERNEZZO 23,45.07931742588,7.638028714637,6660,45.1521446,7.6579731,town,Borgaro Torinese,1028,9423.403,773002
1272,Torino,TO1A140005,MIRAFIORI NORD,Piazzetta JONA 6,45.019689991614,7.614099973633,6660,45.1521446,7.6579731,town,Borgaro Torinese,1028,17517.371,1439392
1272,Torino,TO1A10100E,SCUOLA MATERNA LUGARO,V.LUGARO 6,45.048396459338,7.671443842198,6660,45.1521446,7.6579731,town,Borgaro Torinese,1028,13358.46,1013748
1272,Torino,TO1A07200Q,SCUOLA MATERNA FIORI DEL MELOGRANO,V.SPOLETO 5,45.087250017136,7.653849975976,6660,45.1521446,7.6579731,town,Borgaro Torinese,1028,7995.49,642835
1272,Torino,TO1A06500L,BRUNELLA,V.ROMITA 19,45.047429983992,7.627010032361,6660,45.1521446,7.6579731,town,Borgaro Torinese,1028,13061.266,1047115
1272,Torino,TO1A302004,AL BOSCHETTO,V.VAL DELLA TORRE 61,45.09404354701,7.656974312075,6660,45.1521446,7.6579731,town,Borgaro Torinese,1028,7005.303,565723
1272,Torino,TO1A28500G,SCUOLA DELL'INFANZIA ISTITUTO SOCIALE,CORSO SIRACUSA 10/A,45.054569982483,7.634440002793,6660,45.1521446,7.6579731,town,Borgaro Torinese,1028,12199.015,971598
1272,Torino,TO1A00100N,BRISSOGNE,V.BRISSOGNE 39,45.06296999057,7.618569958777,6660,45.1521446,7.6579731,town,Borgaro Torinese,1028,12407.291,982182
1272,Torino,TO1A047003,CASA DEL SOLE,V.VALGIOIE 10,45.07674728291,7.634194245392,6660,45.1521446,7.6579731,town,Borgaro Torinese,1028,10052.733,790916
1272,Torino,TO1A07100X,SCUOLA MATERNA ALBERTO MANZI,V.MEDICI 12,45.076739990654,7.654430003676,6660,45.1521446,7.6579731,town,Borgaro Torinese,1028,9362.993,731941
1272,Torino,TO1A054006,SCUOLA MATERNA JOAN MIRO',V.SCOTELLARO 19,45.106720004746,7.701160035888,6660,45.1521446,7.6579731,town,Borgaro Torinese,1028,8261.653,653246
1272,Torino,TO1A06900X,PRINCIPESSA CLOTILDE,P.za M.AUSILIATRICE 27,45.080219989214,7.675230031682,6660,45.1521446,7.6579731,town,Borgaro Torinese,1028,9096.903,720577
1272,Torino,TO1AGF500E,ARSENALE DELLA PACE,VIA ANDREIS 18/25,45.079909984525,7.682859994323,6660,45.1521446,7.6579731,town,Borgaro Torinese,1028,9645.468,791982
1272,Torino,TO1A30500G,SAINT DENIS,STR.VAL S.MARTINO 24,45.062930008891,7.715420000123,6660,45.1521446,7.6579731,town,Borgaro Torinese,1028,12835.16,963494
1272,Torino,TO1A104002,BORGNANA PICCO,CORSO MONCALIERI 218 PI 06283010012 CF 80089910014,45.040469986871,7.682680034862,6660,45.1521446,7.6579731,town,Borgaro Torinese,1028,14938.251,1127022
1272,Torino,TO1A05200E,S.GIULIO D'ORTA,V.VERBANO 6,45.076229993755,7.723399991041,6660,45.1521446,7.6579731,town,Borgaro Torinese,1028,12446.629,1014513
1272,Torino,TO1A08700D,CANONICO EDOARDO FERRERO,V.PALLAVICINO 20,45.072726022952,7.702247671644,6660,45.1521446,7.6579731,town,Borgaro Torinese,1028,11237.208,915667
1272,Torino,TO1A068004,SCUOLA MATERNA ROSA L. PARKS,V.ANCONA 2/A,45.078909981567,7.690549971392,6660,45.1521446,7.6579731,town,Borgaro Torinese,1028,9583.506,836056
1272,Torino,TO1A08600N,SCUOLA MATERNA B.POTTER,V.VARALLO 33,45.071133882405,7.713380674802,6660,45.1521446,7.6579731,town,Borgaro Torinese,1028,12034.283,991794
1272,Torino,TO1A01600B,SCUOLA MATERNA CENTO FIORI,V.PISACANE 71,45.014480010147,7.649500019685,6660,45.1521446,7.6579731,town,Borgaro Torinese,1028,17326.302,1353410
1272,Torino,TO1A10200A,SCUOLA MATERNA CELLINI,V.Madama Cristina 134,45.043649997117,7.672889971953,6660,45.1521446,7.6579731,town,Borgaro Torinese,1028,13951.601,1050453
1272,Torino,TO1A30300X,LE BIRBE,V.GATTINARA 7,45.074120017269,7.707990029691,6660,45.1521446,7.6579731,town,Borgaro Torinese,1028,11078.432,919226
1272,Torino,TO1A05700N,S.GIUSEPPE LAVORATORE,VIA BOTTICELLI 11/15,45.103329985916,7.69707997688,6660,45.1521446,7.6579731,town,Borgaro Torinese,1028,9107.548,555230
1272,Torino,TO1A084002,SANTA RITA,V.VERNAZZA 41,45.045846684392,7.646379185676,6660,45.1521446,7.6579731,town,Borgaro Torinese,1028,13029.704,991167
1272,Torino,TO1A10600N,ASSUNZIONE MARIA VERGINE,V. VINOVO 11,45.021809984474,7.664460040473,6660,45.1521446,7.6579731,town,Borgaro Torinese,1028,16306.053,1346592
1272,Torino,TO1A055002,SCUOLA MATERNA G. PEREMPRUNER,V.TRONZANO 20,45.099578090921,7.695732951372,6660,45.1521446,7.6579731,town,Borgaro Torinese,1028,9517.781,593049
1272,Torino,TO1A090009,UMBERTO I,V.PAROLETTI 15,45.091390006752,7.714690020175,6660,45.1521446,7.6579731,town,Borgaro Torinese,1028,10344.935,764477
1272,Torino,TO1A4C500G,POPPY,CORSO TRENTO 13,45.060559983859,7.664059972234,6660,45.1521446,7.6579731,town,Borgaro Torinese,1028,11938.947,915763
1272,Torino,TO1A020003,SCUOLA MATERNA SOLE,C.so CROCE 21,45.020789990677,7.645200019537,6660,45.1521446,7.6579731,town,Borgaro Torinese,1028,16253.134,1261251
1272,Torino,TO1A14300L,RUDOLF STEINER,V.CAVOUR 45/D,45.062049992877,7.692180000102,6660,45.1521446,7.6579731,town,Borgaro Torinese,1028,12488.855,965224
1272,Torino,TO1A004005,SCUOLA MATERNA ARMANDO MELIS,V.ASSISI 45,45.095449991103,7.667490014652,6660,45.1521446,7.6579731,town,Borgaro Torinese,1028,7106.106,589682
1272,Torino,TO1A10500T,MILLEFONTI,C.so CAD.LAVORO 5,45.026859997319,7.666689961993,6660,45.1521446,7.6579731,town,Borgaro Torinese,1028,15988.056,1308431
1272,Torino,TO1A09500C,SANT'ANNA,VIA DELLA CONSOLATA 20,45.077730019147,7.679379995763,6660,45.1521446,7.6579731,town,Borgaro Torinese,1028,9459.379,747452
1272,Torino,TO1A089005,FANCIULLI,V.MERCADANTE 129,45.097640014765,7.703340001266,6660,45.1521446,7.6579731,town,Borgaro Torinese,1028,9218.098,720874
1272,Torino,TO1A3T500C,VITTORIA JUNIOR INTERNATIONAL SCHOOL,VIA DEGLI ARTISTI4,45.070690016761,7.694619972117,6660,45.1521446,7.6579731,town,Borgaro Torinese,1028,11162.376,862165
1272,Torino,TO1A01900V,DUCHESSA ELENA D'AOSTA,C.SO FRANCIA 139,45.075397716501,7.646287621956,6660,45.1521446,7.6579731,town,Borgaro Torinese,1028,9578.599,768479
1272,Torino,TO1A018003,SCUOLA MATERNA BRUNO CIARI,V.MORETTA 57,45.069959994904,7.648050034255,6660,45.1521446,7.6579731,town,Borgaro Torinese,1028,10073.818,814215
1272,Torino,TO1A003009,SACRO CUORE,V.S.M.Mazzarello 102,45.057810007156,7.628260025581,6660,45.1521446,7.6579731,town,Borgaro Torinese,1028,12580.594,998828
1272,Torino,TO1A12300B,SCUOLA MATERNA CAVORETTO,Str.RONCHI 27,45.029350009295,7.690690032994,6660,45.1521446,7.6579731,town,Borgaro Torinese,1028,16772.655,1451695
1272,Torino,TO1A29400A,"""IL PAESE DEL SOLE"" COLLEGIO SACRA FAMIGLIA",VIA R.PILO 24,45.077479986976,7.648239968181,6660,45.1521446,7.6579731,town,Borgaro Torinese,1028,9262.802,728608
1272,Torino,TO1A5L500C,MOBY DICK,VIA ADA NEGRI8,45.05185764397,7.642577293833,6660,45.1521446,7.6579731,town,Borgaro Torinese,1028,12497.011,997508
1272,Torino,TO1A09400L,VITTORIO EMANUELE II,C.so R.MARGHER.107,45.06777,7.673545255,6660,45.1521446,7.6579731,town,Borgaro Torinese,1028,10890.724,837875
1272,Torino,TO1A07400B,CONIUGI VERNA,V.MUSINE' 8,45.08116999412,7.653029974388,6660,45.1521446,7.6579731,town,Borgaro Torinese,1028,9017.254,719121
1272,Torino,TO1A09300R,UMBERTO I,C.SO MATTEOTTI 48,45.069679997428,7.665799971514,6660,45.1521446,7.6579731,town,Borgaro Torinese,1028,10132.568,772235
1272,Torino,TO1A07300G,CASA dei BIMBI,V.MEDICI 61,45.079060017634,7.648080041468,6660,45.1521446,7.6579731,town,Borgaro Torinese,1028,8901.056,710320
1272,Torino,TO1A12200G,S.PIO X,V.PIOPPI 15,45.126209983195,7.709939995646,6660,45.1521446,7.6579731,town,Borgaro Torinese,1028,7377.557,568944
1272,Torino,TO1A00600R,DANILO DOLCI,V.REISS ROMOLI 49,45.107479991907,7.691819997361,6660,45.1521446,7.6579731,town,Borgaro Torinese,1028,7223.911,569764
1272,Torino,TO1A097004,SCUOLA MATERNA M.CHAGALL,V.CECCHI 2,45.084549996576,7.683659963162,6660,45.1521446,7.6579731,town,Borgaro Torinese,1028,8668.476,761176
1272,Torino,TO1ANB500N,SANTA MARIA,VIA SAN PIO V11,45.060480020503,7.682609962152,6660,45.1521446,7.6579731,town,Borgaro Torinese,1028,12525.758,966959
1272,Torino,TO1A092001,SCUOLA MATERNA ALDA MERINI,V.GIULIO 30,45.078026654701,7.676249187289,6660,45.1521446,7.6579731,town,Borgaro Torinese,1028,9770.352,792233
1272,Torino,TO1A4G500E,LA CASA DI KALU',VIA PACCHIOTTI116,45.078310004938,7.622699973929,6660,45.1521446,7.6579731,town,Borgaro Torinese,1028,10391.104,844100
1272,Torino,TO1A290003,ENFANTS PARADISE,V.RUBINO 77/A,45.038330003171,7.620399979698,6660,45.1521446,7.6579731,town,Borgaro Torinese,1028,14665.453,1213967
1272,Torino,TO1A02100V,SCUOLA MATERNA SILVANA ALLASIA,P.za GUALA 140,45.022750014915,7.640919968319,6660,45.1521446,7.6579731,town,Borgaro Torinese,1028,16194.761,1238395
1272,Torino,TO1A03600L,CADORNA-IST.ADORAZIONE PERPETUA DEL SACRO CUORE,V.G.CURRENO 21,45.054180014438,7.694770008183,6660,45.1521446,7.6579731,town,Borgaro Torinese,1028,13332.64,1036775
1272,Torino,TO1A005001,SCUOLA MATERNA MARGHERITA HACK,V.COPPINO 147,45.101352569229,7.671919263747,6660,45.1521446,7.6579731,town,Borgaro Torinese,1028,6538.867,582466
1272,Torino,TO1A096008,SACRO CUORE,V.PIANEZZA 110,45.095130011949,7.647969987079,6660,45.1521446,7.6579731,town,Borgaro Torinese,1028,7540.226,641155
1272,Torino,TO1A125003,BONACOSSA,V.NIZZA 22/F,45.056150013141,7.676290007157,6660,45.1521446,7.6579731,town,Borgaro Torinese,1028,12437.32,978411
1272,Torino,TO1A07900E,VIRGINIA AGNELLI,V.SARPI 123,45.031029994148,7.642649993134,6660,45.1521446,7.6579731,town,Borgaro Torinese,1028,14657.818,1125738
1272,Torino,TO1A296002,ANCINA,V. ANCINA 29,45.079347827258,7.691381158226,6660,45.1521446,7.6579731,town,Borgaro Torinese,1028,9664.648,847740
1272,Torino,TO1A01000C,BRUINO 14,V.BRUINO 14,45.074901200247,7.65496851966,6660,45.1521446,7.6579731,town,Borgaro Torinese,1028,9395.61,733539
1272,Torino,TO1A00800C,REGINA PACIS,V.MESSEDAGLIA 7,45.097959993918,7.660279985359,6660,45.1521446,7.6579731,town,Borgaro Torinese,1028,6563.849,561422
1272,Torino,TO1A124007,SCUOLA MATERNA BAY,V.PR.TOMMASO 25,45.057784893099,7.681702951304,6660,45.1521446,7.6579731,town,Borgaro Torinese,1028,12630.82,967925
1272,Torino,TO1A075007,COLLINO 12,V.COLLINO 12,45.039189986437,7.623879978258,6660,45.1521446,7.6579731,town,Borgaro Torinese,1028,14643.733,1215197
1272,Torino,TO1A109005,BORGO SAN PAOLO,V.S.PAOLO 50,45.062110007304,7.649000039161,6660,45.1521446,7.6579731,town,Borgaro Torinese,1028,11243.612,890431
1272,Torino,TO1A059009,IMMACOLATA,VIA VESTIGNE' 7,45.093700017358,7.692969994477,6660,45.1521446,7.6579731,town,Borgaro Torinese,1028,9075.653,732562
1272,Torino,TO1A009008,FRANCESCA DURIO,V.ZUBIENA 4,45.102409988224,7.667560003543,6660,45.1521446,7.6579731,town,Borgaro Torinese,1028,6239.238,546511
1272,Torino,TO1A041004,CENTRO PEDAGOGICO PER BAMBINI LOGOPATICI,V.PAOLI 75,45.033370011967,7.651189979003,6660,45.1521446,7.6579731,town,Borgaro Torinese,1028,14512.397,1109562
1272,Torino,TO1A040008,S.GIUSEPPE CAFASSO,V.R.BETTAZZI 6,45.105730018162,7.683150008173,6660,45.1521446,7.6579731,town,Borgaro Torinese,1028,6816.557,577726
1272,Torino,TO1A00700L,VITTORIO VENETO,V.SOSPELLO 64,45.103010006763,7.671769982051,6660,45.1521446,7.6579731,town,Borgaro Torinese,1028,6401.998,566041
1272,Torino,TO1A29900D,MARIA MONTESSORI S.R.L.,V.MIGLIARA 7,45.079210011791,7.659110039314,6660,45.1521446,7.6579731,town,Borgaro Torinese,1028,9026.212,730887
1272,Torino,TO1A116008,MARGHERITA MIRAFIORI,Str. MIRAFIORI 46,45.012537926927,7.62791500309,6660,45.1521446,7.6579731,town,Borgaro Torinese,1028,17285.121,1332342
1272,Torino,TO1A108009,SCUOLA MATERNA MALTA,V.BRACCINI 75,45.060240004705,7.648559989244,6660,45.1521446,7.6579731,town,Borgaro Torinese,1028,11257.092,884926
1272,Torino,TO1A012004,SCUOLA MATERNA DE PANIS,V.ALA DI STURA 23,45.103639990605,7.68475002967,6660,45.1521446,7.6579731,town,Borgaro Torinese,1028,7655.667,619093
1272,Torino,TO1A10700D,NOSTRA SIGNORA DELLA SPERANZA,V.DESANA 18,45.096640011806,7.690379986395,6660,45.1521446,7.6579731,town,Borgaro Torinese,1028,8541.428,687127
1272,Torino,TO1A038008,PROTETTE S.GIUSEPPE,V.BIDONE 33,45.052036636068,7.680669383928,6660,45.1521446,7.6579731,town,Borgaro Torinese,1028,13285.417,1040424
1272,Torino,TO1A11500C,PAJETTA,V.ISLER 15,45.017070018229,7.636549979279,6660,45.1521446,7.6579731,town,Borgaro Torinese,1028,16599.594,1294898
1272,Torino,TO1A145008,S.GIUSEPPE,V.S.F.da PAOLA 23,45.063529985521,7.685649994614,6660,45.1521446,7.6579731,town,Borgaro Torinese,1028,11895.117,925436
1272,Torino,TO1ABP5007,SCUOLA DELL`INFANZIA NINA KIDS,VIA BOCCACCIO 59,45.069352425047,7.724872240509,6660,45.1521446,7.6579731,town,Borgaro Torinese,1028,13416.249,1024238
1272,Torino,TO1A29700T,IL MICINO,VIA S.MARINO 31,45.03680998694,7.646650004967,6660,45.1521446,7.6579731,town,Borgaro Torinese,1028,13914.176,1055745
1272,Torino,TO1A111005,SCUOLA MATERNA A.LINDGREN,V.BARLETTA 109,45.049370017391,7.637569973076,6660,45.1521446,7.6579731,town,Borgaro Torinese,1028,12483.228,991039
1272,Torino,TO1A011008,PICCOLO TORINO,V.COLLEGNO 65,45.072819984086,7.658829999929,6660,45.1521446,7.6579731,town,Borgaro Torinese,1028,9669.285,768071
1272,Torino,TO1A04400G,CAVAGLIA,V.CARRERA 23,45.079939991739,7.635099993849,6660,45.1521446,7.6579731,town,Borgaro Torinese,1028,9921.37,796806
1272,Torino,TO1A14400C,S.MASSIMO,V.DEI MILLE 19,45.06209999093,7.688839979325,6660,45.1521446,7.6579731,town,Borgaro Torinese,1028,12163.99,947203
1272,Torino,TO1A02400A,S.TERESA GESU' BAMBINO,V.G.DA VERAZZANO 58,45.056330014512,7.655860040177,6660,45.1521446,7.6579731,town,Borgaro Torinese,1028,11470.678,862662
1272,Torino,TO1A11900Q,LUIGI GRASSI,Str.BERTOLLA 74,45.09962480342,7.745082754867,6660,45.1521446,7.6579731,town,Borgaro Torinese,1028,11814.861,923824
1272,Torino,TO1A110009,MADRE MAZZARELLO,V.CUMIANA 2,45.066549985235,7.643730001358,6660,45.1521446,7.6579731,town,Borgaro Torinese,1028,10596.165,853494
1272,Torino,TO1A04200X,MADONNA DELLE ROSE,C.so U.SOVIET.223,45.040844208,7.65737,6660,45.1521446,7.6579731,town,Borgaro Torinese,1028,13781.477,1045132
1272,Torino,TO1A02300E,SCUOLA MATERNA MILLE COLORI,V.GIOBERTI 33,45.059890018338,7.673019975272,6660,45.1521446,7.6579731,town,Borgaro Torinese,1028,11781.209,908186
1272,Torino,TO1A14700X,SCUOLA MATERNA VALLETTE B,VIA PRIMULE 36/C,45.102339999332,7.626479960804,6660,45.1521446,7.6579731,town,Borgaro Torinese,1028,8958.884,696739
1272,Torino,TO1A10000P,BARRIERA NIZZA,V.L.DA VINCI 8,45.043899987379,7.668549990127,6660,45.1521446,7.6579731,town,Borgaro Torinese,1028,14045.287,1090792
1272,Torino,TO1ADM500O,SCUOLA DELL'INFANZIA DELLE LINGUE E DELLE ARTI,VIA DELLE ROSINE14,45.064700015385,7.691079959129,6660,45.1521446,7.6579731,town,Borgaro Torinese,1028,11880.565,962940
1272,Torino,TO1A02800N,CINCINNATO 200,C.so CINCINNATO 200,45.102220012388,7.649119984195,6660,45.1521446,7.6579731,town,Borgaro Torinese,1028,6897.091,608228
1272,Torino,TO1A12700P,ONORATO MORELLI,V.ASILO 3,45.028825427885,7.686472678411,6660,45.1521446,7.6579731,town,Borgaro Torinese,1028,16760.367,1407827
1272,Torino,TO1A046007,CENTRO PEDAGOGICO,V.SERVAIS 62,45.083760002201,7.631650002502,6660,45.1521446,7.6579731,town,Borgaro Torinese,1028,9668.814,755137
1272,Torino,TO1A02700T,SANT'ANNA,V.MASSENA 36,45.060520002181,7.672510020282,6660,45.1521446,7.6579731,town,Borgaro Torinese,1028,11907.688,924760
1272,Torino,TO1A146004,SS.ANNUNZIATA,V.FERRARI 16,45.068933421312,7.694340184189,6660,45.1521446,7.6579731,town,Borgaro Torinese,1028,11128.591,869430
1272,Torino,TO1A026002,SAN SECONDO,V.GIOBERTI9,45.062320015888,7.674659978447,6660,45.1521446,7.6579731,town,Borgaro Torinese,1028,11501.19,887354
1272,Torino,TO1A137009,PRINCIPESSA DI PIEMONTE,V.PAISIELLO 1,45.089279988357,7.698410017275,6660,45.1521446,7.6579731,town,Borgaro Torinese,1028,9869.992,798697
1272,Torino,TO1ACM500D,PICCOLO PRINCIPE,VIA RUBIANA8,45.074402644693,7.639095236826,6660,45.1521446,7.6579731,town,Borgaro Torinese,1028,9792.973,787244
1272,Torino,TO1AB7500R,GIROTONDO,VIA AVIGLIANA45 bis,45.073434456572,7.657301125905,6660,45.1521446,7.6579731,town,Borgaro Torinese,1028,9687.875,753493
1272,Torino,TO1A08100E,COLLODI,C.so ORBASSANO 122,45.047860017534,7.648209960967,6660,45.1521446,7.6579731,town,Borgaro Torinese,1028,12742.979,962051
1272,Torino,TO1A28000C,BUON CONSIGLIO,V.SFORZESCA 10,45.057933753669,7.69678880687,6660,45.1521446,7.6579731,town,Borgaro Torinese,1028,12891.939,1011810
1272,Torino,TO1A04500B,DEMURO,V.LESSONA 70,45.08339999946,7.642250008715,6660,45.1521446,7.6579731,town,Borgaro Torinese,1028,8835.651,695150
1272,Torino,TO1A12600V,COLONNA FINZI,V.S.ANSELMO 7,45.060005629146,7.681748829765,6660,45.1521446,7.6579731,town,Borgaro Torinese,1028,12083.838,930735
1272,Torino,TO1A12100Q,SACRO CUORE,VIA VAL LAGARINA 23,45.072489988558,7.611629994405,6660,45.1521446,7.6579731,town,Borgaro Torinese,1028,11515.07,941672
1272,Torino,TO1A061009,FAA' DI BRUNO,V.S.DONATO 31,45.080030013379,7.66500997714,6660,45.1521446,7.6579731,town,Borgaro Torinese,1028,8832.251,717742
1272,Torino,TO1A025006,PRINCIPESSA CLOTILDE DI SAVOIA,V.MAGENTA 29,45.064520014014,7.67100999489,6660,45.1521446,7.6579731,town,Borgaro Torinese,1028,11515.624,908365
1272,Torino,TO1A12000X,SCUOLA MATERNA C.MODIGLIANI,V.GERMONIO 35,45.071020012289,7.611269991664,6660,45.1521446,7.6579731,town,Borgaro Torinese,1028,11792.318,975941
1272,Torino,TO1A13400T,ASILO SUOR TARCISIA PONCHIA,VIA MONTEMAGNO 59,45.066970002403,7.717029996085,6660,45.1521446,7.6579731,town,Borgaro Torinese,1028,12823.739,975734
1272,Torino,TO1A03100D,ARCOBALENO,P.za MANNO 22,45.105090017945,7.655449997473,6660,45.1521446,7.6579731,town,Borgaro Torinese,1028,6286.915,533956
1272,Torino,TO1A06000D,THAON DI REVEL,V.LOMBARDORE 27,45.088999990881,7.692340010634,6660,45.1521446,7.6579731,town,Borgaro Torinese,1028,9156.924,794761
1272,Torino,TO1A01400Q,NOSTRA SIGNORA DELLA SALUTE,VIA FONTANELLA 9/11,45.095360011372,7.679630027935,6660,45.1521446,7.6579731,town,Borgaro Torinese,1028,7955.382,695784
1272,Torino,TO1A139001,MAMMA MARGHERITA,V.PAISIELLO 42,45.090839986266,7.700770025934,6660,45.1521446,7.6579731,town,Borgaro Torinese,1028,9745.067,793423
1272,Torino,TO1A132006,SASSI,Str.MONGRENO 72,45.062396408453,7.754301077871,6660,45.1521446,7.6579731,town,Borgaro Torinese,1028,16975.416,1342105
1272,Torino,TO1A301008,IL POLLICINO,CORSO GALILEO FERRARIS 24,45.066777678479,7.671347423886,6660,45.1521446,7.6579731,town,Borgaro Torinese,1028,10775.053,824332
1272,Torino,TO1A083006,PRINCIPE TOMMASO,VIA CAPRERA46,45.050470016455,7.646550008863,6660,45.1521446,7.6579731,town,Borgaro Torinese,1028,12714.867,961502
1272,Torino,TO1A03000N,SCUOLA MATERNA ANNA FRANK,V.SANSOVINO 111,45.103124796927,7.642895415259,6660,45.1521446,7.6579731,town,Borgaro Torinese,1028,7449.955,604131
1272,Torino,TO1A06400R,SCUOLA MATERNA IL CILIEGIO,V GUIDO RENI 53,45.052249997413,7.630000024862,6660,45.1521446,7.6579731,town,Borgaro Torinese,1028,12309.203,977117
1272,Torino,TO1A01300X,VIBERTI,V.CAMBIANO 10,45.092240015553,7.675449972821,6660,45.1521446,7.6579731,town,Borgaro Torinese,1028,7615.27,672962
1272,Torino,TO1A13600D,PARROCCHIA STIMMATE DI SAN FRANCESCO,V.ASCOLI 38,45.08395,7.664776644,6660,45.1521446,7.6579731,town,Borgaro Torinese,1028,8396.785,684419
1272,Torino,TO1A138005,F.TEDESCHI-C.ASSANDRI,V.TOLLEGNO 21,45.085179980418,7.698930030548,6660,45.1521446,7.6579731,town,Borgaro Torinese,1028,9747.666,829244
1272,Torino,TO1A08200A,PRINCIPE V.EMANUELE,C.so U.SOVIETICA 170,45.04126999762,7.655679996896,6660,45.1521446,7.6579731,town,Borgaro Torinese,1028,13985.976,1071360
1272,Torino,TO1A063001,SCUOLA MATERNA B. FREINET,V.Forno Canavese 5,45.047177904528,7.630592141789,6660,45.1521446,7.6579731,town,Borgaro Torinese,1028,12948.427,1035047
1272,Torino,TO1A033005,M.L.RUBATTO,C.SO MONCALIERI 48,45.05618999482,7.692289970672,6660,45.1521446,7.6579731,town,Borgaro Torinese,1028,12891.674,1000979
1272,Torino,TO1A062005,SACRA FAMIGLIA,V.S.DONATO 17,45.078919997941,7.666960026914,6660,45.1521446,7.6579731,town,Borgaro Torinese,1028,9031.762,733702
1272,Torino,TO1A05000V,SCUOLA MATERNA GRAZIA DELEDDA,V.DELEDDA 9,45.075589993538,7.720869997386,6660,45.1521446,7.6579731,town,Borgaro Torinese,1028,12539.012,1026067
1272,Torino,TO1A141001,MIRAFIORI SUD,V.NEGARVILLE 30/8,45.01860998339,7.609690002915,6660,45.1521446,7.6579731,town,Borgaro Torinese,1028,17463.438,1432922
1272,Torino,TO1AG2500B,SAINT DENIS SCHOOL,C.Moncalieri52a- Via S.Massimo21 bis,45.065099999805,7.690059965332,6660,45.1521446,7.6579731,town,Borgaro Torinese,1028,11600.765,922648
1272,Torino,TO1A13500N,APORTI GASTALDI,V.LIVORNO 14,45.083929987198,7.66782001018,6660,45.1521446,7.6579731,town,Borgaro Torinese,1028,8206.83,656360
1272,Torino,TO1A032009,D'AZEGLIO,V.LODOVICA 2,45.063249988045,7.701779961447,6660,45.1521446,7.6579731,town,Borgaro Torinese,1028,12518.853,980776
1272,Torino,TO1A067008,S.MARIA GORETTI,VIA SERVAIS 135,45.083879989145,7.622869958925,6660,45.1521446,7.6579731,town,Borgaro Torinese,1028,9751.695,797897
1292,Venaria Reale,TOAA8A304D,I.C. VENARIA I,VIA BOCCACCIO 80,45.119170115597,7.625486616975,6660,45.1521446,7.6579731,town,Borgaro Torinese,1028,7631.677,592453
1292,Venaria Reale,TOAA8A301A,I.C. VENARIA I,VIA PAGANELLI 44,45.114866627858,7.639947839894,6660,45.1521446,7.6579731,town,Borgaro Torinese,1028,6340.068,510555
1292,Venaria Reale,TOAA8A4038,"I.C. VENARIA II - ""ANDERSEN""",VIA S. MARCHESE,45.127024684392,7.64430625032,6660,45.1521446,7.6579731,town,Borgaro Torinese,1028,7561.136,583198
1292,Venaria Reale,TOAA8A4027,"I.C. VENARIA II - ""DISNEY""",VIA AMATI 115,45.12078001868,7.649240013049,6660,45.1521446,7.6579731,town,Borgaro Torinese,1028,6722.647,561204
1292,Venaria Reale,TOAA8A303C,"I.C. VENARIA I-""DE AMICIS""",PIAZZA VITTORIO VENETO 2,45.133210003904,7.632909970187,6660,45.1521446,7.6579731,town,Borgaro Torinese,1028,6622.691,523193
1292,Venaria Reale,TOAA8A4049,"I.C. VENARIA II - ""RODARI""",VIA GUARINI 19,45.152595,7.616044277,6660,45.1521446,7.6579731,town,Borgaro Torinese,1028,5160.368,444059
1292,Venaria Reale,TOAA8A4016,I.C. VENARIA II - GRAMSCI,VIA MOTRASSINO 10,45.127016181649,7.639196804827,6660,45.1521446,7.6579731,town,Borgaro Torinese,1028,7068.77,540561
1292,Venaria Reale,TO1A23000B,BURIDANI,V.MEDICI VASCELLO 13,45.131949994309,7.631029993124,6660,45.1521446,7.6579731,town,Borgaro Torinese,1028,7420.929,601007
1292,Venaria Reale,TO1A232003,ASILO INFANTILE DI ALTESSANO,V.AMATI 23,45.12686074809,7.640754104743,6660,45.1521446,7.6579731,town,Borgaro Torinese,1028,7228.293,552335
1292,Venaria Reale,TO1A231007,DON TONUS - PARROCCHIA SAN FRANCESCO,V.JUVARRA85,45.125970009307,7.629970017648,6660,45.1521446,7.6579731,town,Borgaro Torinese,1028,7395.08,572595
1063,Caselle Torinese,TOAA89201B,IC.CASELLE-STR. SALGA -ANDERSEN,STRADA SALGA 3,45.175400020171,7.639769971203,6660,45.1521446,7.6579731,town,Borgaro Torinese,1028,3990.601,383199
1063,Caselle Torinese,TOAA89202C,IC.CASELLE- ST.CALDANO-ANDERSEN,STRADA CALDANO 22,45.176589998964,7.639230009,6660,45.1521446,7.6579731,town,Borgaro Torinese,1028,4081.683,394133
1063,Caselle Torinese,TO1A168001,LA FAMIGLIA ETS,P.ZZA BOSCHIASSI 5,45.177210008342,7.646650004967,6660,45.1521446,7.6579731,town,Borgaro Torinese,1028,3510.919,325639
1316,Mappano,TOAA86001X,I.C. MAPPANO - SCUOLA INFANZIA,V. DON MURIALDO 12,45.149429992377,7.703649964046,6660,45.1521446,7.6579731,town,Borgaro Torinese,1028,4011.445,366376
1316,Mappano,TO1A26200V,S.MICHELE ARCANGELO,VIA PARROCCHIA 13,45.15400999,7.700499961013,6660,45.1521446,7.6579731,town,Borgaro Torinese,1028,3932.406,360264
1028,Borgaro Torinese,TOAA89102L,"IC. BORGARO - ""G. PELOSO""",VIA GARIBALDI 4,45.14809999389,7.657770024453,6660,45.1521446,7.6579731,town,Borgaro Torinese,1028,1172.864,103914
1028,Borgaro Torinese,TOAA89101G,"IC. BORGARO - ""C. BORGARESI""",VIA SAVANT 1,45.154760002696,7.652079969483,6660,45.1521446,7.6579731,town,Borgaro Torinese,1028,884.506,92904
1028,Borgaro Torinese,TO1A154003,SUOR NEMESIA VALLE,V.G.PEROTTI 6,45.150010020076,7.659090006565,6660,45.1521446,7.6579731,town,Borgaro Torinese,1028,286.15,34338
1292,Venaria Reale,TOAA8A304D,I.C. VENARIA I,VIA BOCCACCIO 80,45.119170115597,7.625486616975,6591,45.1774901,7.6463671,town,Caselle Torinese,1063,10616.351,851584
1292,Venaria Reale,TOAA8A301A,I.C. VENARIA I,VIA PAGANELLI 44,45.114866627858,7.639947839894,6591,45.1774901,7.6463671,town,Caselle Torinese,1063,9324.743,769686
1292,Venaria Reale,TOAA8A4038,"I.C. VENARIA II - ""ANDERSEN""",VIA S. MARCHESE,45.127024684392,7.64430625032,6591,45.1774901,7.6463671,town,Caselle Torinese,1063,10004.369,764641
1292,Venaria Reale,TOAA8A4027,"I.C. VENARIA II - ""DISNEY""",VIA AMATI 115,45.12078001868,7.649240013049,6591,45.1774901,7.6463671,town,Caselle Torinese,1063,9707.322,820335
1292,Venaria Reale,TOAA8A303C,"I.C. VENARIA I-""DE AMICIS""",PIAZZA VITTORIO VENETO 2,45.133210003904,7.632909970187,6591,45.1774901,7.6463671,town,Caselle Torinese,1063,8788.674,676078
1292,Venaria Reale,TOAA8A4049,"I.C. VENARIA II - ""RODARI""",VIA GUARINI 19,45.152595,7.616044277,6591,45.1774901,7.6463671,town,Caselle Torinese,1063,7326.352,596944
1292,Venaria Reale,TOAA8A4016,I.C. VENARIA II - GRAMSCI,VIA MOTRASSINO 10,45.127016181649,7.639196804827,6591,45.1774901,7.6463671,town,Caselle Torinese,1063,9818.63,751267
1292,Venaria Reale,TO1A23000B,BURIDANI,V.MEDICI VASCELLO 13,45.131949994309,7.631029993124,6591,45.1774901,7.6463671,town,Caselle Torinese,1063,9586.912,753892
1292,Venaria Reale,TO1A232003,ASILO INFANTILE DI ALTESSANO,V.AMATI 23,45.12686074809,7.640754104743,6591,45.1774901,7.6463671,town,Caselle Torinese,1063,9918.776,758767
1292,Venaria Reale,TO1A231007,DON TONUS - PARROCCHIA SAN FRANCESCO,V.JUVARRA85,45.125970009307,7.629970017648,6591,45.1774901,7.6463671,town,Caselle Torinese,1063,9850.06,788174
1028,Borgaro Torinese,TOAA89102L,"IC. BORGARO - ""G. PELOSO""",VIA GARIBALDI 4,45.14809999389,7.657770024453,6591,45.1774901,7.6463671,town,Caselle Torinese,1063,4084.426,386659
1028,Borgaro Torinese,TOAA89101G,"IC. BORGARO - ""C. BORGARESI""",VIA SAVANT 1,45.154760002696,7.652079969483,6591,45.1774901,7.6463671,town,Caselle Torinese,1063,3070.13,296670
1028,Borgaro Torinese,TO1A154003,SUOR NEMESIA VALLE,V.G.PEROTTI 6,45.150010020076,7.659090006565,6591,45.1774901,7.6463671,town,Caselle Torinese,1063,3548.977,357621
1130,Leini,TOAA122035,LEINI' - VIA TORINO,VIA TORINO,45.1707454422,7.712941684595,6591,45.1774901,7.6463671,town,Caselle Torinese,1063,6717.818,513469
1130,Leini,TOAA86101Q,INFANZIA RODARI,VIA DOGLIOTTI 19,45.182410015344,7.711909994349,6591,45.1774901,7.6463671,town,Caselle Torinese,1063,5476.115,432094
1130,Leini,TO1A19400D,VITTORIO FERRERO,V.CAPIRONE 1,45.184560015418,7.716830003875,6591,45.1774901,7.6463671,town,Caselle Torinese,1063,6762.957,565044
1220,Robassomero,TOAA828025,"I.C. FIANO - ROBASSOMERO ""LOSA""",VIA LOSA 32,45.198799988813,7.570190032744,6591,45.1774901,7.6463671,town,Caselle Torinese,1063,10082.124,792212
1248,San Maurizio Canavese,TOAA831065,ICSMAURIZIO TANA DEI CUCCIOLI,VIA BO S.N.C.,45.205095,7.647323303,6591,45.1774901,7.6463671,town,Caselle Torinese,1063,4528.032,332498
1248,San Maurizio Canavese,TOAA831032,ICSMAURIZIO IL GIARDINO FIORITO,VIA CAVALIER BRUNETTO 81,45.200696971714,7.615894524534,6591,45.1774901,7.6463671,town,Caselle Torinese,1063,4031.735,283945
1248,San Maurizio Canavese,TOAA831054,ICSMAURIZIO ALBERO FATE,VIA GENERAL CABRERA 10,45.210914992755,7.628043733421,6591,45.1774901,7.6463671,town,Caselle Torinese,1063,4512.079,314571
1248,San Maurizio Canavese,TO1AU3500Q,DIDO' SAN MAURIZIO,VIA MARTIRI DELLA LIBERTA'7/A,45.200539988093,7.620889985757,6591,45.1774901,7.6463671,town,Caselle Torinese,1063,3581.326,242456
1316,Mappano,TOAA86001X,I.C. MAPPANO - SCUOLA INFANZIA,V. DON MURIALDO 12,45.149429992377,7.703649964046,6591,45.1774901,7.6463671,town,Caselle Torinese,1063,6717.147,546713
1316,Mappano,TO1A26200V,S.MICHELE ARCANGELO,VIA PARROCCHIA 13,45.15400999,7.700499961013,6591,45.1774901,7.6463671,town,Caselle Torinese,1063,5911.889,466570
1063,Caselle Torinese,TOAA89201B,IC.CASELLE-STR. SALGA -ANDERSEN,STRADA SALGA 3,45.175400020171,7.639769971203,6591,45.1774901,7.6463671,town,Caselle Torinese,1063,1244.222,138340
1063,Caselle Torinese,TOAA89202C,IC.CASELLE- ST.CALDANO-ANDERSEN,STRADA CALDANO 22,45.176589998964,7.639230009,6591,45.1774901,7.6463671,town,Caselle Torinese,1063,1187.452,131528
1063,Caselle Torinese,TO1A168001,LA FAMIGLIA ETS,P.ZZA BOSCHIASSI 5,45.177210008342,7.646650004967,6591,45.1774901,7.6463671,town,Caselle Torinese,1063,38.071,4568
1314,Volpiano,TOAA8BH025,"I.C. VOLPIANO- ""ACQUERELLO""",VIA LOMBARDORE 10,45.205030005986,7.775120021671,6862,45.1373354,7.7710152,town,Settimo Torinese,1265,11296.591,898069
1314,Volpiano,TOAA8BH014,"I.C. VOLPIANO - ""ARCOBALENO""",VIA TRIESTE 7,45.199400007352,7.781000010567,6862,45.1373354,7.7710152,town,Settimo Torinese,1265,12157.13,771412
1314,Volpiano,TO1A23500E,IL GRILLO PARLANTE,C.XI FEBBRAIO 9,45.204063865917,7.776221906662,6862,45.1373354,7.7710152,town,Settimo Torinese,1265,11008.561,870765
1272,Torino,TOAA86602X,"I.C. CAIROLI - ""LA GIOSTRA""",VIA MONASTIR 17/9,45.015929995578,7.655050013054,6862,45.1373354,7.7710152,town,Settimo Torinese,1265,18729.659,1453564
1272,Torino,TOAA00401L,TO ALLIEVO SPINA 3,V.ORVIETO 1 INTERNO 5-7-9,45.092362884052,7.669523038932,6862,45.1373354,7.7710152,town,Settimo Torinese,1265,11540.873,864230
1272,Torino,TOAA8BV01L,"I.C. DUCA D'AOSTA ""ARCHIMEDE""",VIA VALGIOIE 72,45.076830012294,7.627770019522,6862,45.1373354,7.7710152,town,Settimo Torinese,1265,15467.841,1144672
1272,Torino,TOAA8BD01R,I.C. ILARIA ALPI - PEREMPRUNER,VIA BERSEZIO 11,45.085090000688,7.694059977165,6862,45.1373354,7.7710152,town,Settimo Torinese,1265,9688.563,735009
1272,Torino,TOAA881011,"I.C. ""S.PERTINI"" - LINUS",VIA POIRINO9,45.033650009443,7.649330034689,6862,45.1373354,7.7710152,town,Settimo Torinese,1265,16093.898,1337371
1272,Torino,TOAA8BW02D,"I.C. ALIGHIERI-KENNEDY ""M.POLO""",VIA PASSONI 9,45.083120001984,7.618389999316,6862,45.1373354,7.7710152,town,Settimo Torinese,1265,15725.682,1153238
1272,Torino,TOAA8BW03E,I.C. ALIGHIERI-KENNEDY BELLARDI,VIA BELLARDI56,45.079099999312,7.624379958783,6862,45.1373354,7.7710152,town,Settimo Torinese,1265,15888.302,1177075
1272,Torino,TOAA8BE01L,I.C. TORINO II - VIA BEINASCO,VIA BEINASCO 34,45.087810012087,7.677990024759,6862,45.1373354,7.7710152,town,Settimo Torinese,1265,10751.91,806590
1272,Torino,TOAA8B901X,IC MATTEOTTI - PELLICO - BORG.,CORSO SICILIA 24,45.041489980669,7.682169996054,6862,45.1373354,7.7710152,town,Settimo Torinese,1265,14631.458,1155428
1272,Torino,TOAA88301L,I.C. R.L. MONTALCINI,VIA COLLEGNO 73,45.072370001614,7.658430015509,6862,45.1373354,7.7710152,town,Settimo Torinese,1265,13362.514,995409
1272,Torino,TOAA88302N,I.C. R.L. MONTALCINI V. CASALIS,VIA CASALIS 54,45.075110003853,7.658490029936,6862,45.1373354,7.7710152,town,Settimo Torinese,1265,13366.099,997776
1272,Torino,TOAA88401C,I.C. M. L. SPAZIANI- QUARANTA,VIA BARDONECCHIA 36/A,45.072769986034,7.644659973516,6862,45.1373354,7.7710152,town,Settimo Torinese,1265,14312.95,1078587
1272,Torino,TOAA8BX03A,I.C. BOSSO - MONTALCINI,VIA MONTE NOVEGNO 31,45.040389981605,7.630060039288,6862,45.1373354,7.7710152,town,Settimo Torinese,1265,17729.788,1317860
1272,Torino,TOAA81601T,I.C. KING MILA - VIA THURES,VIA THURES 11,45.072819984086,7.605810019935,6862,45.1373354,7.7710152,town,Settimo Torinese,1265,17370.873,1271628
1272,Torino,TOAA8CD02C,I.C. BARICCO - VIA FATTORI,VIA FATTORI 113,45.071819981128,7.626790007403,6862,45.1373354,7.7710152,town,Settimo Torinese,1265,15947.473,1173961
1272,Torino,TOAA81702P,I.C. PACINOTTI - INF. MANZONI,VIA BALME 46,45.081252852152,7.649488957343,6862,45.1373354,7.7710152,town,Settimo Torinese,1265,13568.607,987576
1272,Torino,TOAA8CD03D,"I.C. BARICCO- (""TOSCANINI"")",VIA MONTE ORTIGARA 50,45.067829985669,7.630439990959,6862,45.1373354,7.7710152,town,Settimo Torinese,1265,16214.823,1173504
1272,Torino,TOAA8B002E,IC CEFALONIA-MAZZINI N. GREEN,CORSO ORBASSANO 224/26,45.041719980092,7.635899962688,6862,45.1373354,7.7710152,town,Settimo Torinese,1265,17150.87,1255336
1272,Torino,TOAA8B003G,IC CEFALONIA-MAZZINI BALTIMORA,VIA BALTIMORA 64,45.044910006712,7.641850024295,6862,45.1373354,7.7710152,town,Settimo Torinese,1265,16574.311,1211180
1272,Torino,TOAA8BW01C,"I.C. ALIGHIERI-KENNEDY ""CURIE""",VIA PIETRO COSSA 115/21,45.082740008404,7.622339971188,6862,45.1373354,7.7710152,town,Settimo Torinese,1265,15412.687,1115679
1272,Torino,TOAA87602E,I.C. GINO STRADA -VANCHIGLIETTA,VIA MANIN 22,45.072610017412,7.705900002134,6862,45.1373354,7.7710152,town,Settimo Torinese,1265,10605.137,835004
1272,Torino,TOAA82001D,I.C. SALVEMINI - MARIELE VENTRE,VIA PLAVA 177/2,45.023210013762,7.607539960932,6862,45.1373354,7.7710152,town,Settimo Torinese,1265,20689.28,1551244
1272,Torino,TOAA8BX029,I.C. BOSSO - D'ARBOREA,VIA ELEONORA D'ARBOREA 9/4,45.035110011247,7.640299958941,6862,45.1373354,7.7710152,town,Settimo Torinese,1265,17489.527,1295659
1272,Torino,TOAA8A001V,I.C. NIGRA TORINO - BOVETTI,VIA SAVIGLIANO 7,45.082720017565,7.671060034852,6862,45.1373354,7.7710152,town,Settimo Torinese,1265,11636.573,860876
1272,Torino,TOAA8BX018,I.C. BOSSO - V. GUIDOBONO,VIA GUIDOBONO 2,45.038110020123,7.618090011002,6862,45.1373354,7.7710152,town,Settimo Torinese,1265,18930.22,1415752
1272,Torino,TOAA8AZ03B,IC. ALBERTI - SALGARI - VIA BERTA,VIA BERTA 15,45.058849991792,7.65347999877,6862,45.1373354,7.7710152,town,Settimo Torinese,1265,14791.282,1073981
1272,Torino,TOAA8A102Q,SC. INFANZIA DI VIA ALASSIO 22,VIA ALASSIO 22,45.039269991703,7.66916002504,6862,45.1373354,7.7710152,town,Settimo Torinese,1265,14781.147,1176292
1272,Torino,TOAA81602V,I.C. KING MILA - VIA POSTUMIA,VIA POSTUMIA 28,45.068230011998,7.621210006821,6862,45.1373354,7.7710152,town,Settimo Torinese,1265,16825.725,1232637
1272,Torino,TOAA81002X,"I.C. D.M. TUROLDO ""VALLETTE A""",VIA DELLE VERBENE 4,45.104190011092,7.633680015632,6862,45.1373354,7.7710152,town,Settimo Torinese,1265,13431.543,980037
1272,Torino,TOAA8AZ019,I.C. ALBERTI-SALGARI V.BRACC.63,VIA BRACCINI 63,45.060129992226,7.649430030794,6862,45.1373354,7.7710152,town,Settimo Torinese,1265,14802.147,1074003
1272,Torino,TOAA8A101P,SC. INFANZIA MARIO LODI,VIA GARESSIO 24/5,45.030710014995,7.67014003716,6862,45.1373354,7.7710152,town,Settimo Torinese,1265,15852.234,1326232
1272,Torino,TOAA8B501L,IC PACCHIOTTI-VIA REVEL CHIARA,VIA SANTA CHIARA 12,45.075279988849,7.681129969508,6862,45.1373354,7.7710152,town,Settimo Torinese,1265,10771.53,871116
1272,Torino,TOAA8CA01X,I.C. CACCIA - S. MARGHERITA,STRADA S.VINCENZO N. 144,45.052030014364,7.718649966511,6862,45.1373354,7.7710152,town,Settimo Torinese,1265,13755.123,1093327
1272,Torino,TOAA8B7029,"I.C. CORSO VERCELLI ""PERRAULT"" FRANK",VIA BOCCHERINI 43,45.10179999522,7.692289970672,6862,45.1373354,7.7710152,town,Settimo Torinese,1265,8392.547,656943
1272,Torino,TOAA87601D,I.C. GINO STRADA - RODARI,CORSO REGINA MARGHERITA 43,45.071139999233,7.699729999388,6862,45.1373354,7.7710152,town,Settimo Torinese,1265,11082.799,882483
1272,Torino,TOAA8B8025,IC GABELLI A. DI ANZIO,VIA LEONCAVALLO 61/2,45.087999987923,7.702849995206,6862,45.1373354,7.7710152,town,Settimo Torinese,1265,8482.424,716333
1272,Torino,TOAA82002E,I.C. SALVEMINI - CASTELLO MIR.,STR. CASTELLO DI MIRAFIORI 45,45.012072769465,7.628855056888,6862,45.1373354,7.7710152,town,Settimo Torinese,1265,19304.44,1595518
1272,Torino,TOAA8AY01D,I.C. PALAZZESCHI - ANDERSEN,VIA STELVIO 45,45.065565155503,7.628611689628,6862,45.1373354,7.7710152,town,Settimo Torinese,1265,16345.874,1193993
1272,Torino,TOAA86601V,IC CAIROLI V. ARTOM,VIA ARTOM 109/3,45.010132102562,7.649793574824,6862,45.1373354,7.7710152,town,Settimo Torinese,1265,18988.959,1572524
1272,Torino,TOAA80502C,I.C. CENA - VIA ANGLESIO,VIA ANGLESIO 17,45.104500015781,7.731019979218,6862,45.1373354,7.7710152,town,Settimo Torinese,1265,5855.7,551124
1272,Torino,TOAA8B7018,"IC C.SO VERCELLI ""E. LUZZATI""",VIA RONDISSONE 32,45.097300002862,7.690530022462,6862,45.1373354,7.7710152,town,Settimo Torinese,1265,8930.465,698931
1272,Torino,TOAA881022,"I.C.""S. PERTINI"" L.GO LA LOGGIA",LARGO LA LOGGIA 51,45.031799997684,7.653340020987,6862,45.1373354,7.7710152,town,Settimo Torinese,1265,16340.754,1350116
1272,Torino,TOAA80503D,I.C. CENA - PIAZZA ABBA,PIAZZA ABBA 9,45.09067000127,7.714620031284,6862,45.1373354,7.7710152,town,Settimo Torinese,1265,7431.155,645781
1272,Torino,TOAA8B2015,I.C. FRASSATI - VIA GORRESIO,VIA GORRESIO 13,45.099890010944,7.65726996011,6862,45.1373354,7.7710152,town,Settimo Torinese,1265,11436.105,863022
1272,Torino,TOAA80801V,R. LUXEMBURG,VIA DEGLI ABETI 13,45.130880002459,7.709530036761,6862,45.1373354,7.7710152,town,Settimo Torinese,1265,8198.36,758325
1272,Torino,TOAA873023,I.C.PADRE GEMELLI -C.CINCINNATO,CORSO CINCINNATO 121,45.098070006398,7.639969963413,6862,45.1373354,7.7710152,town,Settimo Torinese,1265,13021.395,988116
1272,Torino,TOAA81701N,I.C. PACINOTTI - V.FOSSANO,VIA FOSSANO 8,45.085350007324,7.661919988534,6862,45.1373354,7.7710152,town,Settimo Torinese,1265,12397.865,954139
1272,Torino,TOAA873012,I.C. PADRE GEMELLI- V.TERRANEO,VIA TERRANEO 1,45.098259982233,7.644399966879,6862,45.1373354,7.7710152,town,Settimo Torinese,1265,12364.266,921293
1272,Torino,TOAA87702A,I.C. REGIO PARCO MARIA TERESA,VIA MAMELI 18,45.079329998735,7.683749984803,6862,45.1373354,7.7710152,town,Settimo Torinese,1265,10581.291,833962
1272,Torino,TOAA877019,JELLA LEPMAN,C.SO CIRIE' 3/A,45.084350004366,7.674710018409,6862,45.1373354,7.7710152,town,Settimo Torinese,1265,11161.415,825651
1272,Torino,TOAA819019,I.C. MANZONI - R. D'AZEGLIO,VIA GIACOSA 23,45.055059988543,7.68127003111,6862,45.1373354,7.7710152,town,Settimo Torinese,1265,12694.618,1022917
1272,Torino,TOAA8B9021,IC MATTEOTTI - PELLICO- MONCAL.,C.SO MONCALIERI N.400,45.025069999986,7.676069982199,6862,45.1373354,7.7710152,town,Settimo Torinese,1265,16460.568,1295821
1272,Torino,TOAA8B401R,SCUOLA DELL'INFANZIA,CORSO MATTEOTTI 6 BIS,45.065479993385,7.677600014805,6862,45.1373354,7.7710152,town,Settimo Torinese,1265,11935.372,997673
1272,Torino,TOAA8AZ02A,I.C. ALBERTI - SALGARI - VIA TOLMINO,VIA TOLMINO 30,45.057749992729,7.644889972939,6862,45.1373354,7.7710152,town,Settimo Torinese,1265,15456.176,1129187
1272,Torino,TOAA81001V,"I.C. ""D.M.TUROLDO""-V.D.MAGNOLIE",VIA DELLE MAGNOLIE 15,45.101700150919,7.631877069919,6862,45.1373354,7.7710152,town,Settimo Torinese,1265,13313.546,997992
1272,Torino,TOAA8BR021,I.C. PARRI - VIA VENARIA,VIA VENARIA 79/15,45.110080016363,7.658260030513,6862,45.1373354,7.7710152,town,Settimo Torinese,1265,11102.634,838441
1272,Torino,TOAA8BR032,I.C. PARRI - MELANIA KLEIN,VIA LANZO 28,45.109089987869,7.661670040182,6862,45.1373354,7.7710152,town,Settimo Torinese,1265,11028.16,820092
1272,Torino,TOAA8BZ01X,I.C. ANTONELLI-CASALEGNO PARRA,VIA BOSTON 33,45.040449996032,7.64156998491,6862,45.1373354,7.7710152,town,Settimo Torinese,1265,17124.733,1253246
1272,Torino,TOAA8BR01X,I.C. PARRI - STRADA LANZO,STRADA DI LANZO 146,45.117659980952,7.657259985645,6862,45.1373354,7.7710152,town,Settimo Torinese,1265,11531.497,856683
1272,Torino,TOAA80802X,WALT DISNEY,VIA CAVAGNOLO 35,45.11594001442,7.707210009781,6862,45.1373354,7.7710152,town,Settimo Torinese,1265,6165.562,551937
1272,Torino,TOAA8BR043,I.C. PARRI - VIA VENARIA 100,VIA VENARIA 100,45.112050015066,7.65735998175,6862,45.1373354,7.7710152,town,Settimo Torinese,1265,10937.354,811234
1272,Torino,TOAA8B001D,IC CEFALONIA-MAZZINI - BALTIM,VIA BALTIMORA,45.044886022997,7.641727149292,6862,45.1373354,7.7710152,town,Settimo Torinese,1265,16581.777,1212076
1272,Torino,TOAA8CA021,I.C. CACCIA - VILLA GENERO,STRADA S. MARGHERITA 77,45.056289990924,7.708079967512,6862,45.1373354,7.7710152,town,Settimo Torinese,1265,13021.915,1070658
1272,Torino,TOAA88201R,"I.C. SIDOLI - ""FANCIULLI""",VIA CAROLINA INVERNIZIO21,45.02218000359,7.654969965878,6862,45.1373354,7.7710152,town,Settimo Torinese,1265,17747.498,1472672
1272,Torino,TOAA81801D,IC OLIVETTI-REAGLIE,VIA VARALLO 33,45.071133882405,7.713380674802,6862,45.1373354,7.7710152,town,Settimo Torinese,1265,11211.904,849247
1272,Torino,TOAA8B8014,IC GABELLI -TOMMASO DI SAVOIA,VIA CERVINO 6,45.091219979846,7.688419962157,6862,45.1373354,7.7710152,town,Settimo Torinese,1265,9483.009,755986
1272,Torino,TOAA88202T,"I.C. SIDOLI - ""KELLER""",VIA PODGORA28,45.026879988158,7.643969975246,6862,45.1373354,7.7710152,town,Settimo Torinese,1265,17098.572,1423756
1272,Torino,TOAA81802E,IC OLIVETTI-BONCOMPAGNI,VIA BEATO CAFASSO 73,45.087665453722,7.730511233113,6862,45.1373354,7.7710152,town,Settimo Torinese,1265,8606.379,662519
1272,Torino,TOAA8CD01B,"I.C . BARICCO ""GIAN BURRASCA""",VIA POZZO STRADA 12/1,45.073929999524,7.628290032795,6862,45.1373354,7.7710152,town,Settimo Torinese,1265,15583.05,1130231
1272,Torino,TOAA88203V,"I.C. SIDOLI - ""KANDINSKIJ""",VIA MONTECORNO21,45.018385,7.659278291,6862,45.1373354,7.7710152,town,Settimo Torinese,1265,18270.829,1407787
1272,Torino,TOAA8B8036,I.C. GABELLI T. SARTI STRADA,VIA BANFO 17/19,45.090809979053,7.686809966195,6862,45.1373354,7.7710152,town,Settimo Torinese,1265,9546.215,751260
1272,Torino,TOAA815012,"I.C. ""TOMMASEO"" VIA PLANA",VIA PLANA 2,45.064969996486,7.693360004431,6862,45.1373354,7.7710152,town,Settimo Torinese,1265,11742.627,939437
1272,Torino,TOAA8CE017,I.C. PEROTTI - TOSCANINI ROUSS,VIA DELLEANI 25,45.067670017047,7.634730016643,6862,45.1373354,7.7710152,town,Settimo Torinese,1265,15506.189,1152620
1272,Torino,TOAA8BY014,"I.C. SINIGAGLIA -""BRUNO MUNARI""",VIA ROVERETO 21,45.052460005997,7.638879980724,6862,45.1373354,7.7710152,town,Settimo Torinese,1265,16127.606,1199286
1272,Torino,TO1A00200D,SCUOLA MATERNA FRIDA KAHLO,V.Monte Cristallo 9,45.061484545027,7.630349106089,6862,45.1373354,7.7710152,town,Settimo Torinese,1265,16564.216,1194853
1272,Torino,TO1A04900P,SS.NATALE,V.PIEDICAVALLO 5,45.076110006811,7.642199968753,6862,45.1373354,7.7710152,town,Settimo Torinese,1265,14335.633,1056196
1272,Torino,TO1A04800V,TESORIERA,V.A.BERNEZZO 23,45.07931742588,7.638028714637,6862,45.1373354,7.7710152,town,Settimo Torinese,1265,14333.485,1066154
1272,Torino,TO1A140005,MIRAFIORI NORD,Piazzetta JONA 6,45.019689991614,7.614099973633,6862,45.1373354,7.7710152,town,Settimo Torinese,1265,19813.118,1678830
1272,Torino,TO1A10100E,SCUOLA MATERNA LUGARO,V.LUGARO 6,45.048396459338,7.671443842198,6862,45.1373354,7.7710152,town,Settimo Torinese,1265,14087.282,1130054
1272,Torino,TO1A07200Q,SCUOLA MATERNA FIORI DEL MELOGRANO,V.SPOLETO 5,45.087250017136,7.653849975976,6862,45.1373354,7.7710152,town,Settimo Torinese,1265,12905.572,935987
1272,Torino,TO1A06500L,BRUNELLA,V.ROMITA 19,45.047429983992,7.627010032361,6862,45.1373354,7.7710152,town,Settimo Torinese,1265,17680.573,1335174
1272,Torino,TO1A302004,AL BOSCHETTO,V.VAL DELLA TORRE 61,45.09404354701,7.656974312075,6862,45.1373354,7.7710152,town,Settimo Torinese,1265,11915.385,858875
1272,Torino,TO1A28500G,SCUOLA DELL'INFANZIA ISTITUTO SOCIALE,CORSO SIRACUSA 10/A,45.054569982483,7.634440002793,6862,45.1373354,7.7710152,town,Settimo Torinese,1265,16674.573,1246340
1272,Torino,TO1A00100N,BRISSOGNE,V.BRISSOGNE 39,45.06296999057,7.618569958777,6862,45.1373354,7.7710152,town,Settimo Torinese,1265,17317.373,1275334
1272,Torino,TO1A047003,CASA DEL SOLE,V.VALGIOIE 10,45.07674728291,7.634194245392,6862,45.1373354,7.7710152,town,Settimo Torinese,1265,14962.815,1084068
1272,Torino,TO1A07100X,SCUOLA MATERNA ALBERTO MANZI,V.MEDICI 12,45.076739990654,7.654430003676,6862,45.1373354,7.7710152,town,Settimo Torinese,1265,13219.872,980854
1272,Torino,TO1A054006,SCUOLA MATERNA JOAN MIRO',V.SCOTELLARO 19,45.106720004746,7.701160035888,6862,45.1373354,7.7710152,town,Settimo Torinese,1265,7322.255,625385
1272,Torino,TO1A06900X,PRINCIPESSA CLOTILDE,P.za M.AUSILIATRICE 27,45.080219989214,7.675230031682,6862,45.1373354,7.7710152,town,Settimo Torinese,1265,11296.249,852395
1272,Torino,TO1AGF500E,ARSENALE DELLA PACE,VIA ANDREIS 18/25,45.079909984525,7.682859994323,6862,45.1373354,7.7710152,town,Settimo Torinese,1265,11290.937,869883
1272,Torino,TO1A30500G,SAINT DENIS,STR.VAL S.MARTINO 24,45.062930008891,7.715420000123,6862,45.1373354,7.7710152,town,Settimo Torinese,1265,11721.761,907608
1272,Torino,TO1A104002,BORGNANA PICCO,CORSO MONCALIERI 218 PI 06283010012 CF 80089910014,45.040469986871,7.682680034862,6862,45.1373354,7.7710152,town,Settimo Torinese,1265,14672.43,1152768
1272,Torino,TO1A05200E,S.GIULIO D'ORTA,V.VERBANO 6,45.076229993755,7.723399991041,6862,45.1373354,7.7710152,town,Settimo Torinese,1265,10309.575,763138
1272,Torino,TO1A08700D,CANONICO EDOARDO FERRERO,V.PALLAVICINO 20,45.072726022952,7.702247671644,6862,45.1373354,7.7710152,town,Settimo Torinese,1265,10521.324,829775
1272,Torino,TO1A068004,SCUOLA MATERNA ROSA L. PARKS,V.ANCONA 2/A,45.078909981567,7.690549971392,6862,45.1373354,7.7710152,town,Settimo Torinese,1265,9843.269,784327
1272,Torino,TO1A08600N,SCUOLA MATERNA B.POTTER,V.VARALLO 33,45.071133882405,7.713380674802,6862,45.1373354,7.7710152,town,Settimo Torinese,1265,11211.904,849247
1272,Torino,TO1A01600B,SCUOLA MATERNA CENTO FIORI,V.PISACANE 71,45.014480010147,7.649500019685,6862,45.1373354,7.7710152,town,Settimo Torinese,1265,19287.624,1519509
1272,Torino,TO1A10200A,SCUOLA MATERNA CELLINI,V.Madama Cristina 134,45.043649997117,7.672889971953,6862,45.1373354,7.7710152,town,Settimo Torinese,1265,14100.719,1123355
1272,Torino,TO1A30300X,LE BIRBE,V.GATTINARA 7,45.074120017269,7.707990029691,6862,45.1373354,7.7710152,town,Settimo Torinese,1265,10362.549,833334
1272,Torino,TO1A05700N,S.GIUSEPPE LAVORATORE,VIA BOTTICELLI 11/15,45.103329985916,7.69707997688,6862,45.1373354,7.7710152,town,Settimo Torinese,1265,7924.433,623722
1272,Torino,TO1A084002,SANTA RITA,V.VERNAZZA 41,45.045846684392,7.646379185676,6862,45.1373354,7.7710152,town,Settimo Torinese,1265,16212.995,1184784
1272,Torino,TO1A10600N,ASSUNZIONE MARIA VERGINE,V. VINOVO 11,45.021809984474,7.664460040473,6862,45.1373354,7.7710152,town,Settimo Torinese,1265,16711.191,1429307
1272,Torino,TO1A055002,SCUOLA MATERNA G. PEREMPRUNER,V.TRONZANO 20,45.099578090921,7.695732951372,6862,45.1373354,7.7710152,town,Settimo Torinese,1265,8248.635,656927
1272,Torino,TO1A090009,UMBERTO I,V.PAROLETTI 15,45.091390006752,7.714690020175,6862,45.1373354,7.7710152,town,Settimo Torinese,1265,7371.241,635471
1272,Torino,TO1A4C500G,POPPY,CORSO TRENTO 13,45.060559983859,7.664059972234,6862,45.1373354,7.7710152,town,Settimo Torinese,1265,13546.371,1140673
1272,Torino,TO1A020003,SCUOLA MATERNA SOLE,C.so CROCE 21,45.020789990677,7.645200019537,6862,45.1373354,7.7710152,town,Settimo Torinese,1265,18117.673,1511418
1272,Torino,TO1A14300L,RUDOLF STEINER,V.CAVOUR 45/D,45.062049992877,7.692180000102,6862,45.1373354,7.7710152,town,Settimo Torinese,1265,12351.855,963596
1272,Torino,TO1A004005,SCUOLA MATERNA ARMANDO MELIS,V.ASSISI 45,45.095449991103,7.667490014652,6862,45.1373354,7.7710152,town,Settimo Torinese,1265,11282.198,866126
1272,Torino,TO1A10500T,MILLEFONTI,C.so CAD.LAVORO 5,45.026859997319,7.666689961993,6862,45.1373354,7.7710152,town,Settimo Torinese,1265,16393.195,1391146
1272,Torino,TO1A09500C,SANT'ANNA,VIA DELLA CONSOLATA 20,45.077730019147,7.679379995763,6862,45.1373354,7.7710152,town,Settimo Torinese,1265,11150.769,862334
1272,Torino,TO1A089005,FANCIULLI,V.MERCADANTE 129,45.097640014765,7.703340001266,6862,45.1373354,7.7710152,town,Settimo Torinese,1265,8418.339,681632
1272,Torino,TO1A3T500C,VITTORIA JUNIOR INTERNATIONAL SCHOOL,VIA DEGLI ARTISTI4,45.070690016761,7.694619972117,6862,45.1373354,7.7710152,town,Settimo Torinese,1265,10814.431,862686
1272,Torino,TO1A01900V,DUCHESSA ELENA D'AOSTA,C.SO FRANCIA 139,45.075397716501,7.646287621956,6862,45.1373354,7.7710152,town,Settimo Torinese,1265,13850.29,1045440
1272,Torino,TO1A018003,SCUOLA MATERNA BRUNO CIARI,V.MORETTA 57,45.069959994904,7.648050034255,6862,45.1373354,7.7710152,town,Settimo Torinese,1265,14338.495,1083426
1272,Torino,TO1A003009,SACRO CUORE,V.S.M.Mazzarello 102,45.057810007156,7.628260025581,6862,45.1373354,7.7710152,town,Settimo Torinese,1265,17279.467,1292050
1272,Torino,TO1A12300B,SCUOLA MATERNA CAVORETTO,Str.RONCHI 27,45.029350009295,7.690690032994,6862,45.1373354,7.7710152,town,Settimo Torinese,1265,16850.134,1480359
1272,Torino,TO1A29400A,"""IL PAESE DEL SOLE"" COLLEGIO SACRA FAMIGLIA",VIA R.PILO 24,45.077479986976,7.648239968181,6862,45.1373354,7.7710152,town,Settimo Torinese,1265,13921.955,1032442
1272,Torino,TO1A5L500C,MOBY DICK,VIA ADA NEGRI8,45.05185764397,7.642577293833,6862,45.1373354,7.7710152,town,Settimo Torinese,1265,16080.46,1200883
1272,Torino,TO1A09400L,VITTORIO EMANUELE II,C.so R.MARGHER.107,45.06777,7.673545255,6862,45.1373354,7.7710152,town,Settimo Torinese,1265,11951.952,1024714
1272,Torino,TO1A07400B,CONIUGI VERNA,V.MUSINE' 8,45.08116999412,7.653029974388,6862,45.1373354,7.7710152,town,Settimo Torinese,1265,13927.336,1012273
1272,Torino,TO1A09300R,UMBERTO I,C.SO MATTEOTTI 48,45.069679997428,7.665799971514,6862,45.1373354,7.7710152,town,Settimo Torinese,1265,12837.122,939207
1272,Torino,TO1A07300G,CASA dei BIMBI,V.MEDICI 61,45.079060017634,7.648080041468,6862,45.1373354,7.7710152,town,Settimo Torinese,1265,13811.138,1003472
1272,Torino,TO1A12200G,S.PIO X,V.PIOPPI 15,45.126209983195,7.709939995646,6862,45.1373354,7.7710152,town,Settimo Torinese,1265,7331.996,654362
1272,Torino,TO1A00600R,DANILO DOLCI,V.REISS ROMOLI 49,45.107479991907,7.691819997361,6862,45.1373354,7.7710152,town,Settimo Torinese,1265,8151.166,644706
1272,Torino,TO1A097004,SCUOLA MATERNA M.CHAGALL,V.CECCHI 2,45.084549996576,7.683659963162,6862,45.1373354,7.7710152,town,Settimo Torinese,1265,10324.133,778831
1272,Torino,TO1ANB500N,SANTA MARIA,VIA SAN PIO V11,45.060480020503,7.682609962152,6862,45.1373354,7.7710152,town,Settimo Torinese,1265,12408.167,1012392
1272,Torino,TO1A092001,SCUOLA MATERNA ALDA MERINI,V.GIULIO 30,45.078026654701,7.676249187289,6862,45.1373354,7.7710152,town,Settimo Torinese,1265,11461.742,907115
1272,Torino,TO1A4G500E,LA CASA DI KALU',VIA PACCHIOTTI116,45.078310004938,7.622699973929,6862,45.1373354,7.7710152,town,Settimo Torinese,1265,15903.868,1152617
1272,Torino,TO1A290003,ENFANTS PARADISE,V.RUBINO 77/A,45.038330003171,7.620399979698,6862,45.1373354,7.7710152,town,Settimo Torinese,1265,18771.443,1434577
1272,Torino,TO1A02100V,SCUOLA MATERNA SILVANA ALLASIA,P.za GUALA 140,45.022750014915,7.640919968319,6862,45.1373354,7.7710152,town,Settimo Torinese,1265,17958.776,1497110
1272,Torino,TO1A03600L,CADORNA-IST.ADORAZIONE PERPETUA DEL SACRO CUORE,V.G.CURRENO 21,45.054180014438,7.694770008183,6862,45.1373354,7.7710152,town,Settimo Torinese,1265,13195.64,1035147
1272,Torino,TO1A005001,SCUOLA MATERNA MARGHERITA HACK,V.COPPINO 147,45.101352569229,7.671919263747,6862,45.1373354,7.7710152,town,Settimo Torinese,1265,10217.976,789063
1272,Torino,TO1A096008,SACRO CUORE,V.PIANEZZA 110,45.095130011949,7.647969987079,6862,45.1373354,7.7710152,town,Settimo Torinese,1265,12443.772,934034
1272,Torino,TO1A125003,BONACOSSA,V.NIZZA 22/F,45.056150013141,7.676290007157,6862,45.1373354,7.7710152,town,Settimo Torinese,1265,13084.166,1068459
1272,Torino,TO1A07900E,VIRGINIA AGNELLI,V.SARPI 123,45.031029994148,7.642649993134,6862,45.1373354,7.7710152,town,Settimo Torinese,1265,17841.109,1319355
1272,Torino,TO1A296002,ANCINA,V. ANCINA 29,45.079347827258,7.691381158226,6862,45.1373354,7.7710152,town,Settimo Torinese,1265,9864.332,795514
1272,Torino,TO1A01000C,BRUINO 14,V.BRUINO 14,45.074901200247,7.65496851966,6862,45.1373354,7.7710152,town,Settimo Torinese,1265,13252.489,982452
1272,Torino,TO1A00800C,REGINA PACIS,V.MESSEDAGLIA 7,45.097959993918,7.660279985359,6862,45.1373354,7.7710152,town,Settimo Torinese,1265,11473.931,854574
1272,Torino,TO1A124007,SCUOLA MATERNA BAY,V.PR.TOMMASO 25,45.057784893099,7.681702951304,6862,45.1373354,7.7710152,town,Settimo Torinese,1265,12513.229,1013358
1272,Torino,TO1A075007,COLLINO 12,V.COLLINO 12,45.039189986437,7.623879978258,6862,45.1373354,7.7710152,town,Settimo Torinese,1265,18749.723,1435807
1272,Torino,TO1A109005,BORGO SAN PAOLO,V.S.PAOLO 50,45.062110007304,7.649000039161,6862,45.1373354,7.7710152,town,Settimo Torinese,1265,15057.815,1109213
1272,Torino,TO1A059009,IMMACOLATA,VIA VESTIGNE' 7,45.093700017358,7.692969994477,6862,45.1373354,7.7710152,town,Settimo Torinese,1265,8947.236,693986
1272,Torino,TO1A009008,FRANCESCA DURIO,V.ZUBIENA 4,45.102409988224,7.667560003543,6862,45.1373354,7.7710152,town,Settimo Torinese,1265,10489.45,806594
1272,Torino,TO1A041004,CENTRO PEDAGOGICO PER BAMBINI LOGOPATICI,V.PAOLI 75,45.033370011967,7.651189979003,6862,45.1373354,7.7710152,town,Settimo Torinese,1265,16021.562,1330539
1272,Torino,TO1A040008,S.GIUSEPPE CAFASSO,V.R.BETTAZZI 6,45.105730018162,7.683150008173,6862,45.1373354,7.7710152,town,Settimo Torinese,1265,9166.855,714721
1272,Torino,TO1A00700L,VITTORIO VENETO,V.SOSPELLO 64,45.103010006763,7.671769982051,6862,45.1373354,7.7710152,town,Settimo Torinese,1265,10053.255,769296
1272,Torino,TO1A29900D,MARIA MONTESSORI S.R.L.,V.MIGLIARA 7,45.079210011791,7.659110039314,6862,45.1373354,7.7710152,town,Settimo Torinese,1265,12760.087,980039
1272,Torino,TO1A116008,MARGHERITA MIRAFIORI,Str. MIRAFIORI 46,45.012537926927,7.62791500309,6862,45.1373354,7.7710152,town,Settimo Torinese,1265,19257.499,1591205
1272,Torino,TO1A108009,SCUOLA MATERNA MALTA,V.BRACCINI 75,45.060240004705,7.648559989244,6862,45.1373354,7.7710152,town,Settimo Torinese,1265,14871.561,1079556
1272,Torino,TO1A012004,SCUOLA MATERNA DE PANIS,V.ALA DI STURA 23,45.103639990605,7.68475002967,6862,45.1373354,7.7710152,town,Settimo Torinese,1265,9209.259,724204
1272,Torino,TO1A10700D,NOSTRA SIGNORA DELLA SPERANZA,V.DESANA 18,45.096640011806,7.690379986395,6862,45.1373354,7.7710152,town,Settimo Torinese,1265,9047.043,706426
1272,Torino,TO1A038008,PROTETTE S.GIUSEPPE,V.BIDONE 33,45.052036636068,7.680669383928,6862,45.1373354,7.7710152,town,Settimo Torinese,1265,13453.504,1092485
1272,Torino,TO1A11500C,PAJETTA,V.ISLER 15,45.017070018229,7.636549979279,6862,45.1373354,7.7710152,town,Settimo Torinese,1265,18571.972,1553761
1272,Torino,TO1A145008,S.GIUSEPPE,V.S.F.da PAOLA 23,45.063529985521,7.685649994614,6862,45.1373354,7.7710152,town,Settimo Torinese,1265,12011.15,986695
1272,Torino,TO1ABP5007,SCUOLA DELL`INFANZIA NINA KIDS,VIA BOCCACCIO 59,45.069352425047,7.724872240509,6862,45.1373354,7.7710152,town,Settimo Torinese,1265,10672.996,811413
1272,Torino,TO1A29700T,IL MICINO,VIA S.MARINO 31,45.03680998694,7.646650004967,6862,45.1373354,7.7710152,town,Settimo Torinese,1265,17097.467,1249362
1272,Torino,TO1A111005,SCUOLA MATERNA A.LINDGREN,V.BARLETTA 109,45.049370017391,7.637569973076,6862,45.1373354,7.7710152,town,Settimo Torinese,1265,16707.475,1245675
1272,Torino,TO1A011008,PICCOLO TORINO,V.COLLEGNO 65,45.072819984086,7.658829999929,6862,45.1373354,7.7710152,town,Settimo Torinese,1265,13303.859,988370
1272,Torino,TO1A04400G,CAVAGLIA,V.CARRERA 23,45.079939991739,7.635099993849,6862,45.1373354,7.7710152,town,Settimo Torinese,1265,14831.452,1089958
1272,Torino,TO1A14400C,S.MASSIMO,V.DEI MILLE 19,45.06209999093,7.688839979325,6862,45.1373354,7.7710152,town,Settimo Torinese,1265,11910.577,967090
1272,Torino,TO1A02400A,S.TERESA GESU' BAMBINO,V.G.DA VERAZZANO 58,45.056330014512,7.655860040177,6862,45.1373354,7.7710152,town,Settimo Torinese,1265,14653.969,1056279
1272,Torino,TO1A11900Q,LUIGI GRASSI,Str.BERTOLLA 74,45.09962480342,7.745082754867,6862,45.1373354,7.7710152,town,Settimo Torinese,1265,5539.057,491569
1272,Torino,TO1A110009,MADRE MAZZARELLO,V.CUMIANA 2,45.066549985235,7.643730001358,6862,45.1373354,7.7710152,town,Settimo Torinese,1265,14867.857,1130455
1272,Torino,TO1A04200X,MADONNA DELLE ROSE,C.so U.SOVIET.223,45.040844208,7.65737,6862,45.1373354,7.7710152,town,Settimo Torinese,1265,15290.642,1266109
1272,Torino,TO1A02300E,SCUOLA MATERNA MILLE COLORI,V.GIOBERTI 33,45.059890018338,7.673019975272,6862,45.1373354,7.7710152,town,Settimo Torinese,1265,12631.68,1061650
1272,Torino,TO1A14700X,SCUOLA MATERNA VALLETTE B,VIA PRIMULE 36/C,45.102339999332,7.626479960804,6862,45.1373354,7.7710152,town,Settimo Torinese,1265,14291.427,1034581
1272,Torino,TO1A10000P,BARRIERA NIZZA,V.L.DA VINCI 8,45.043899987379,7.668549990127,6862,45.1373354,7.7710152,town,Settimo Torinese,1265,14510.345,1177684
1272,Torino,TO1ADM500O,SCUOLA DELL'INFANZIA DELLE LINGUE E DELLE ARTI,VIA DELLE ROSINE14,45.064700015385,7.691079959129,6862,45.1373354,7.7710152,town,Settimo Torinese,1265,11744.291,965220
1272,Torino,TO1A02800N,CINCINNATO 200,C.so CINCINNATO 200,45.102220012388,7.649119984195,6862,45.1373354,7.7710152,town,Settimo Torinese,1265,11832.359,906939
1272,Torino,TO1A12700P,ONORATO MORELLI,V.ASILO 3,45.028825427885,7.686472678411,6862,45.1373354,7.7710152,town,Settimo Torinese,1265,16837.846,1436491
1272,Torino,TO1A046007,CENTRO PEDAGOGICO,V.SERVAIS 62,45.083760002201,7.631650002502,6862,45.1373354,7.7710152,town,Settimo Torinese,1265,14578.896,1048289
1272,Torino,TO1A02700T,SANT'ANNA,V.MASSENA 36,45.060520002181,7.672510020282,6862,45.1373354,7.7710152,town,Settimo Torinese,1265,12758.159,1078224
1272,Torino,TO1A146004,SS.ANNUNZIATA,V.FERRARI 16,45.068933421312,7.694340184189,6862,45.1373354,7.7710152,town,Settimo Torinese,1265,10992.317,871710
1272,Torino,TO1A026002,SAN SECONDO,V.GIOBERTI9,45.062320015888,7.674659978447,6862,45.1373354,7.7710152,town,Settimo Torinese,1265,12330.867,1039425
1272,Torino,TO1A137009,PRINCIPESSA DI PIEMONTE,V.PAISIELLO 1,45.089279988357,7.698410017275,6862,45.1373354,7.7710152,town,Settimo Torinese,1265,8726.128,783857
1272,Torino,TO1ACM500D,PICCOLO PRINCIPE,VIA RUBIANA8,45.074402644693,7.639095236826,6862,45.1373354,7.7710152,town,Settimo Torinese,1265,14703.055,1080396
1272,Torino,TO1AB7500R,GIROTONDO,VIA AVIGLIANA45 bis,45.073434456572,7.657301125905,6862,45.1373354,7.7710152,town,Settimo Torinese,1265,13425.207,1002931
1272,Torino,TO1A08100E,COLLODI,C.so ORBASSANO 122,45.047860017534,7.648209960967,6862,45.1373354,7.7710152,town,Settimo Torinese,1265,15926.27,1155668
1272,Torino,TO1A28000C,BUON CONSIGLIO,V.SFORZESCA 10,45.057933753669,7.69678880687,6862,45.1373354,7.7710152,town,Settimo Torinese,1265,12754.939,1010182
1272,Torino,TO1A04500B,DEMURO,V.LESSONA 70,45.08339999946,7.642250008715,6862,45.1373354,7.7710152,town,Settimo Torinese,1265,13745.733,988302
1272,Torino,TO1A12600V,COLONNA FINZI,V.S.ANSELMO 7,45.060005629146,7.681748829765,6862,45.1373354,7.7710152,town,Settimo Torinese,1265,12362.344,1026985
1272,Torino,TO1A12100Q,SACRO CUORE,VIA VAL LAGARINA 23,45.072489988558,7.611629994405,6862,45.1373354,7.7710152,town,Settimo Torinese,1265,16962.824,1248000
1272,Torino,TO1A061009,FAA' DI BRUNO,V.S.DONATO 31,45.080030013379,7.66500997714,6862,45.1373354,7.7710152,town,Settimo Torinese,1265,12282.302,922219
1272,Torino,TO1A025006,PRINCIPESSA CLOTILDE DI SAVOIA,V.MAGENTA 29,45.064520014014,7.67100999489,6862,45.1373354,7.7710152,town,Settimo Torinese,1265,12345.301,1060436
1272,Torino,TO1A12000X,SCUOLA MATERNA C.MODIGLIANI,V.GERMONIO 35,45.071020012289,7.611269991664,6862,45.1373354,7.7710152,town,Settimo Torinese,1265,17240.072,1282269
1272,Torino,TO1A13400T,ASILO SUOR TARCISIA PONCHIA,VIA MONTEMAGNO 59,45.066970002403,7.717029996085,6862,45.1373354,7.7710152,town,Settimo Torinese,1265,11527.0,871010
1272,Torino,TO1A03100D,ARCOBALENO,P.za MANNO 22,45.105090017945,7.655449997473,6862,45.1373354,7.7710152,town,Settimo Torinese,1265,11222.183,832667
1272,Torino,TO1A06000D,THAON DI REVEL,V.LOMBARDORE 27,45.088999990881,7.692340010634,6862,45.1373354,7.7710152,town,Settimo Torinese,1265,9415.287,721903
1272,Torino,TO1A01400Q,NOSTRA SIGNORA DELLA SALUTE,VIA FONTANELLA 9/11,45.095360011372,7.679630027935,6862,45.1373354,7.7710152,town,Settimo Torinese,1265,10650.278,812897
1272,Torino,TO1A139001,MAMMA MARGHERITA,V.PAISIELLO 42,45.090839986266,7.700770025934,6862,45.1373354,7.7710152,town,Settimo Torinese,1265,8503.793,757177
1272,Torino,TO1A132006,SASSI,Str.MONGRENO 72,45.062396408453,7.754301077871,6862,45.1373354,7.7710152,town,Settimo Torinese,1265,12986.825,1044934
1272,Torino,TO1A301008,IL POLLICINO,CORSO GALILEO FERRARIS 24,45.066777678479,7.671347423886,6862,45.1373354,7.7710152,town,Settimo Torinese,1265,12149.333,1014800
1272,Torino,TO1A083006,PRINCIPE TOMMASO,VIA CAPRERA46,45.050470016455,7.646550008863,6862,45.1373354,7.7710152,town,Settimo Torinese,1265,15898.158,1155119
1272,Torino,TO1A03000N,SCUOLA MATERNA ANNA FRANK,V.SANSOVINO 111,45.103124796927,7.642895415259,6862,45.1373354,7.7710152,town,Settimo Torinese,1265,12794.048,939851
1272,Torino,TO1A06400R,SCUOLA MATERNA IL CILIEGIO,V GUIDO RENI 53,45.052249997413,7.630000024862,6862,45.1373354,7.7710152,town,Settimo Torinese,1265,17008.076,1270339
1272,Torino,TO1A01300X,VIBERTI,V.CAMBIANO 10,45.092240015553,7.675449972821,6862,45.1373354,7.7710152,town,Settimo Torinese,1265,10560.225,819149
1272,Torino,TO1A13600D,PARROCCHIA STIMMATE DI SAN FRANCESCO,V.ASCOLI 38,45.08395,7.664776644,6862,45.1373354,7.7710152,town,Settimo Torinese,1265,11957.85,901445
1272,Torino,TO1A138005,F.TEDESCHI-C.ASSANDRI,V.TOLLEGNO 21,45.085179980418,7.698930030548,6862,45.1373354,7.7710152,town,Settimo Torinese,1265,9006.255,741138
1272,Torino,TO1A08200A,PRINCIPE V.EMANUELE,C.so U.SOVIETICA 170,45.04126999762,7.655679996896,6862,45.1373354,7.7710152,town,Settimo Torinese,1265,15495.141,1292337
1272,Torino,TO1A063001,SCUOLA MATERNA B. FREINET,V.Forno Canavese 5,45.047177904528,7.630592141789,6862,45.1373354,7.7710152,town,Settimo Torinese,1265,17416.269,1321482
1272,Torino,TO1A033005,M.L.RUBATTO,C.SO MONCALIERI 48,45.05618999482,7.692289970672,6862,45.1373354,7.7710152,town,Settimo Torinese,1265,12754.674,999351
1272,Torino,TO1A062005,SACRA FAMIGLIA,V.S.DONATO 17,45.078919997941,7.666960026914,6862,45.1373354,7.7710152,town,Settimo Torinese,1265,12432.463,908340
1272,Torino,TO1A05000V,SCUOLA MATERNA GRAZIA DELEDDA,V.DELEDDA 9,45.075589993538,7.720869997386,6862,45.1373354,7.7710152,town,Settimo Torinese,1265,10425.376,776566
1272,Torino,TO1A141001,MIRAFIORI SUD,V.NEGARVILLE 30/8,45.01860998339,7.609690002915,6862,45.1373354,7.7710152,town,Settimo Torinese,1265,20524.446,1688667
1272,Torino,TO1AG2500B,SAINT DENIS SCHOOL,C.Moncalieri52a- Via S.Massimo21 bis,45.065099999805,7.690059965332,6862,45.1373354,7.7710152,town,Settimo Torinese,1265,11464.491,924928
1272,Torino,TO1A13500N,APORTI GASTALDI,V.LIVORNO 14,45.083929987198,7.66782001018,6862,45.1373354,7.7710152,town,Settimo Torinese,1265,11663.078,866073
1272,Torino,TO1A032009,D'AZEGLIO,V.LODOVICA 2,45.063249988045,7.701779961447,6862,45.1373354,7.7710152,town,Settimo Torinese,1265,11878.767,933422
1272,Torino,TO1A067008,S.MARIA GORETTI,VIA SERVAIS 135,45.083879989145,7.622869958925,6862,45.1373354,7.7710152,town,Settimo Torinese,1265,15264.459,1106414
1068,Castiglione Torinese,TOAA85005D,I.C. CASTIGLIONE - VIA CAUDANA,VIA CAUDANA 118,45.112250007276,7.815860010598,6862,45.1373354,7.7710152,town,Settimo Torinese,1265,5254.231,365489
1068,Castiglione Torinese,TOAA85002A,I.C.CASTIGLIONE - CASTIGLIONE T,VIA FERMI 5,45.122690002957,7.8197000119,6862,45.1373354,7.7710152,town,Settimo Torinese,1265,5405.714,363766
1068,Castiglione Torinese,TOAA85003B,I.C.CASTIGLIONE - LOC. PEDAGGIO,VIA DANTE ALIGHIERI 15,45.116060001364,7.798750031646,6862,45.1373354,7.7710152,town,Settimo Torinese,1265,3609.296,251787
1130,Leini,TOAA122035,LEINI' - VIA TORINO,VIA TORINO,45.1707454422,7.712941684595,6862,45.1373354,7.7710152,town,Settimo Torinese,1265,8091.405,716535
1130,Leini,TOAA86101Q,INFANZIA RODARI,VIA DOGLIOTTI 19,45.182410015344,7.711909994349,6862,45.1373354,7.7710152,town,Settimo Torinese,1265,9912.931,832984
1130,Leini,TO1A19400D,VITTORIO FERRERO,V.CAPIRONE 1,45.184560015418,7.716830003875,6862,45.1373354,7.7710152,town,Settimo Torinese,1265,10499.178,917148
1249,San Mauro Torinese,TOAA8AX01N,I.C. I SAN MAURO-E. MORANTE,VIA MEZZALUNA 34 FRAZ. SAMBUY,45.11458000872,7.776509992674,6862,45.1373354,7.7710152,town,Settimo Torinese,1265,4789.846,333714
1249,San Mauro Torinese,TOAA8AX03Q,I.C. I SAN MAURO - G. GARRONE,VIA DEL PORTO 12,45.101860009647,7.758900033198,6862,45.1373354,7.7710152,town,Settimo Torinese,1265,4728.908,409659
1249,San Mauro Torinese,TOAA8AX02P,I.C. I SAN MAURO - CAMPRA,VIA ASILO 7,45.102860372148,7.767066171077,6862,45.1373354,7.7710152,town,Settimo Torinese,1265,5398.177,461055
1249,San Mauro Torinese,TOAA8AW01T,I.C. SAN MAURO II - FREINET,VIA SPERANZA72,45.106320020327,7.754029979815,6862,45.1373354,7.7710152,town,Settimo Torinese,1265,4284.417,361414
1249,San Mauro Torinese,TO1A223008,S.BENEDETTO,V.PAPA GIOVANNI XXIII 24,45.104930007413,7.758940014876,6862,45.1373354,7.7710152,town,Settimo Torinese,1265,4512.646,388802
1249,San Mauro Torinese,TO1A29300E,BIMBOPORTO SOCIETA COOPERATIVA SOCIALE,CORSO LOMBARDIA 24,45.115739980301,7.751369982842,6862,45.1373354,7.7710152,town,Settimo Torinese,1265,3753.959,381653
1249,San Mauro Torinese,TO1A22200C,S.ANNA PESCATORI,V.MONGINEVRO 6,45.093620012092,7.753330007081,6862,45.1373354,7.7710152,town,Settimo Torinese,1265,6532.4,528554
1112,Gassino Torinese,TOAA851015,"I.C. GASSINO - ""COLLODI""",VIA REGIONE FIORE,45.131337464444,7.823428411968,6862,45.1373354,7.7710152,town,Settimo Torinese,1265,6387.276,424881
1112,Gassino Torinese,TO1A25700B,G.B.SCALA,V. BUSSOLINO CENTRO20,45.130760567395,7.853860676805,6862,45.1373354,7.7710152,town,Settimo Torinese,1265,9662.282,686615
1112,Gassino Torinese,TO1A258007,ASILO INFANTILE SAN GIUSEPPE,CORSO ITALIA 75,45.127189995315,7.826179977425,6862,45.1373354,7.7710152,town,Settimo Torinese,1265,6329.097,433976
1316,Mappano,TOAA86001X,I.C. MAPPANO - SCUOLA INFANZIA,V. DON MURIALDO 12,45.149429992377,7.703649964046,6862,45.1373354,7.7710152,town,Settimo Torinese,1265,7787.882,699493
1316,Mappano,TO1A26200V,S.MICHELE ARCANGELO,VIA PARROCCHIA 13,45.15400999,7.700499961013,6862,45.1373354,7.7710152,town,Settimo Torinese,1265,8131.37,726722
1034,Brandizzo,TOAA85302T,I.C. BRANDIZZO - M.MONTESSORI,VIA DON LUIGI MANASSERO 1,45.17138,7.831418333,6862,45.1373354,7.7710152,town,Settimo Torinese,1265,6837.475,441430
1034,Brandizzo,TOAA85301R,"I.C. BRANDIZZO - ""ANDERSEN""",VIA MORANDI 3,45.182950140403,7.839520379999,6862,45.1373354,7.7710152,town,Settimo Torinese,1265,8439.519,552346
1034,Brandizzo,TO1A23900T,ASILO INFANTILE,V.MATTEOTTI 10,45.176800007549,7.843769987972,6862,45.1373354,7.7710152,town,Settimo Torinese,1265,8210.745,524264
1034,Brandizzo,TO1A11800X,SCUOLA MATERNA BARCA,V.VITT.BOLOGNA 10,45.181959990962,7.83877001509,6862,45.1373354,7.7710152,town,Settimo Torinese,1265,8293.21,556442
1252,San Raffaele Cimena,TOAA850019,I.C.CASTIGLIONE - S.RAFFAELE C.,VIA PIEMONTE 19,45.14673998819,7.847519967634,6862,45.1373354,7.7710152,town,Settimo Torinese,1265,9060.683,587693
1265,Settimo Torinese,TOAA8BA02A,I.C. SETTIMO II - SALGARI,VIA NOBEL 3,45.134219981327,7.767119998004,6862,45.1373354,7.7710152,town,Settimo Torinese,1265,775.859,87903
1265,Settimo Torinese,TOAA8BC022,I.C. SETTIMO IV - MUNARI,VIA S. PELLICO,45.140211649903,7.779330987747,6862,45.1373354,7.7710152,town,Settimo Torinese,1265,1163.018,100305
1265,Settimo Torinese,TOAA8BB026,I.C. SETTIMO III CASCINA NUOVA,VIA CASCINA NUOVA 32,45.148889988264,7.770500000459,6862,45.1373354,7.7710152,town,Settimo Torinese,1265,2139.749,235071
1265,Settimo Torinese,TOAA8BC033,I.C. SETTIMO IV - PARA-COSTA,VIA REGINA PACIS 1,45.137570018478,7.767419986319,6862,45.1373354,7.7710152,town,Settimo Torinese,1265,705.247,84355
1265,Settimo Torinese,TOAA8A9019,I.C. SETTIMO I - COLLODI,VIA CREMONA,45.143874990821,7.778169986689,6862,45.1373354,7.7710152,town,Settimo Torinese,1265,1375.575,107625
1265,Settimo Torinese,TOAA8A904C,I.C. SETTIMO I - NOCE,VIA MOGLIA,45.142812136027,7.774243615579,6862,45.1373354,7.7710152,town,Settimo Torinese,1265,1449.898,187057
1265,Settimo Torinese,TOAA8BB015,I.C. SETTIMO III PEZZANI,VIA FIUME 19,45.140592695011,7.764631250669,6862,45.1373354,7.7710152,town,Settimo Torinese,1265,1379.288,165241
1265,Settimo Torinese,TOAA8BA03B,I.C. SETTIMO II - ARCIMBOLDO,VIA CONSOLATA 27,45.135670008667,7.757309986165,6862,45.1373354,7.7710152,town,Settimo Torinese,1265,1549.622,184457
1265,Settimo Torinese,TO1A22600Q,S.GIUSEPPE ARTIGIANO,V.CUNEO 2,45.131329984931,7.760599966981,6862,45.1373354,7.7710152,town,Settimo Torinese,1265,1745.454,203032
1265,Settimo Torinese,TO1A22500X,S.VINCENZO DE PAOLI,V.MILANO 59,45.144010002326,7.779179964112,6862,45.1373354,7.7710152,town,Settimo Torinese,1265,1389.491,106161
1314,Volpiano,TOAA8BH025,"I.C. VOLPIANO- ""ACQUERELLO""",VIA LOMBARDORE 10,45.205030005986,7.775120021671,6863,45.1244559,7.7308537,suburb,Settimo Torinese,1265,10722.914,726295
1314,Volpiano,TOAA8BH014,"I.C. VOLPIANO - ""ARCOBALENO""",VIA TRIESTE 7,45.199400007352,7.781000010567,6863,45.1244559,7.7308537,suburb,Settimo Torinese,1265,10549.775,698698
1314,Volpiano,TO1A23500E,IL GRILLO PARLANTE,C.XI FEBBRAIO 9,45.204063865917,7.776221906662,6863,45.1244559,7.7308537,suburb,Settimo Torinese,1265,10434.884,698991
1272,Torino,TOAA86602X,"I.C. CAIROLI - ""LA GIOSTRA""",VIA MONASTIR 17/9,45.015929995578,7.655050013054,6863,45.1244559,7.7308537,suburb,Settimo Torinese,1265,15864.471,1102083
1272,Torino,TOAA00401L,TO ALLIEVO SPINA 3,V.ORVIETO 1 INTERNO 5-7-9,45.092362884052,7.669523038932,6863,45.1244559,7.7308537,suburb,Settimo Torinese,1265,7999.569,513101
1272,Torino,TOAA8BV01L,"I.C. DUCA D'AOSTA ""ARCHIMEDE""",VIA VALGIOIE 72,45.076830012294,7.627770019522,6863,45.1244559,7.7308537,suburb,Settimo Torinese,1265,11926.536,793543
1272,Torino,TOAA8BD01R,I.C. ILARIA ALPI - PEREMPRUNER,VIA BERSEZIO 11,45.085090000688,7.694059977165,6863,45.1244559,7.7308537,suburb,Settimo Torinese,1265,6147.258,383880
1272,Torino,TOAA881011,"I.C. ""S.PERTINI"" - LINUS",VIA POIRINO9,45.033650009443,7.649330034689,6863,45.1244559,7.7308537,suburb,Settimo Torinese,1265,13228.71,985890
1272,Torino,TOAA8BW02D,"I.C. ALIGHIERI-KENNEDY ""M.POLO""",VIA PASSONI 9,45.083120001984,7.618389999316,6863,45.1244559,7.7308537,suburb,Settimo Torinese,1265,12184.377,802109
1272,Torino,TOAA8BW03E,I.C. ALIGHIERI-KENNEDY BELLARDI,VIA BELLARDI56,45.079099999312,7.624379958783,6863,45.1244559,7.7308537,suburb,Settimo Torinese,1265,12346.997,825946
1272,Torino,TOAA8BE01L,I.C. TORINO II - VIA BEINASCO,VIA BEINASCO 34,45.087810012087,7.677990024759,6863,45.1244559,7.7308537,suburb,Settimo Torinese,1265,7210.605,455461
1272,Torino,TOAA8B901X,IC MATTEOTTI - PELLICO - BORG.,CORSO SICILIA 24,45.041489980669,7.682169996054,6863,45.1244559,7.7308537,suburb,Settimo Torinese,1265,11766.996,807855
1272,Torino,TOAA88301L,I.C. R.L. MONTALCINI,VIA COLLEGNO 73,45.072370001614,7.658430015509,6863,45.1244559,7.7308537,suburb,Settimo Torinese,1265,9821.21,644280
1272,Torino,TOAA88302N,I.C. R.L. MONTALCINI V. CASALIS,VIA CASALIS 54,45.075110003853,7.658490029936,6863,45.1244559,7.7308537,suburb,Settimo Torinese,1265,9824.795,646647
1272,Torino,TOAA88401C,I.C. M. L. SPAZIANI- QUARANTA,VIA BARDONECCHIA 36/A,45.072769986034,7.644659973516,6863,45.1244559,7.7308537,suburb,Settimo Torinese,1265,10771.646,727458
1272,Torino,TOAA8BX03A,I.C. BOSSO - MONTALCINI,VIA MONTE NOVEGNO 31,45.040389981605,7.630060039288,6863,45.1244559,7.7308537,suburb,Settimo Torinese,1265,14188.484,966731
1272,Torino,TOAA81601T,I.C. KING MILA - VIA THURES,VIA THURES 11,45.072819984086,7.605810019935,6863,45.1244559,7.7308537,suburb,Settimo Torinese,1265,13829.568,920499
1272,Torino,TOAA8CD02C,I.C. BARICCO - VIA FATTORI,VIA FATTORI 113,45.071819981128,7.626790007403,6863,45.1244559,7.7308537,suburb,Settimo Torinese,1265,12406.168,822832
1272,Torino,TOAA81702P,I.C. PACINOTTI - INF. MANZONI,VIA BALME 46,45.081252852152,7.649488957343,6863,45.1244559,7.7308537,suburb,Settimo Torinese,1265,10027.303,636447
1272,Torino,TOAA8CD03D,"I.C. BARICCO- (""TOSCANINI"")",VIA MONTE ORTIGARA 50,45.067829985669,7.630439990959,6863,45.1244559,7.7308537,suburb,Settimo Torinese,1265,12673.519,822375
1272,Torino,TOAA8B002E,IC CEFALONIA-MAZZINI N. GREEN,CORSO ORBASSANO 224/26,45.041719980092,7.635899962688,6863,45.1244559,7.7308537,suburb,Settimo Torinese,1265,13609.566,904207
1272,Torino,TOAA8B003G,IC CEFALONIA-MAZZINI BALTIMORA,VIA BALTIMORA 64,45.044910006712,7.641850024295,6863,45.1244559,7.7308537,suburb,Settimo Torinese,1265,13033.006,860051
1272,Torino,TOAA8BW01C,"I.C. ALIGHIERI-KENNEDY ""CURIE""",VIA PIETRO COSSA 115/21,45.082740008404,7.622339971188,6863,45.1244559,7.7308537,suburb,Settimo Torinese,1265,11871.382,764550
1272,Torino,TOAA87602E,I.C. GINO STRADA -VANCHIGLIETTA,VIA MANIN 22,45.072610017412,7.705900002134,6863,45.1244559,7.7308537,suburb,Settimo Torinese,1265,8071.854,503438
1272,Torino,TOAA82001D,I.C. SALVEMINI - MARIELE VENTRE,VIA PLAVA 177/2,45.023210013762,7.607539960932,6863,45.1244559,7.7308537,suburb,Settimo Torinese,1265,17147.976,1200115
1272,Torino,TOAA8BX029,I.C. BOSSO - D'ARBOREA,VIA ELEONORA D'ARBOREA 9/4,45.035110011247,7.640299958941,6863,45.1244559,7.7308537,suburb,Settimo Torinese,1265,13948.222,944530
1272,Torino,TOAA8A001V,I.C. NIGRA TORINO - BOVETTI,VIA SAVIGLIANO 7,45.082720017565,7.671060034852,6863,45.1244559,7.7308537,suburb,Settimo Torinese,1265,8095.269,509747
1272,Torino,TOAA8BX018,I.C. BOSSO - V. GUIDOBONO,VIA GUIDOBONO 2,45.038110020123,7.618090011002,6863,45.1244559,7.7308537,suburb,Settimo Torinese,1265,15388.915,1064623
1272,Torino,TOAA8AZ03B,IC. ALBERTI - SALGARI - VIA BERTA,VIA BERTA 15,45.058849991792,7.65347999877,6863,45.1244559,7.7308537,suburb,Settimo Torinese,1265,11249.978,722852
1272,Torino,TOAA8A102Q,SC. INFANZIA DI VIA ALASSIO 22,VIA ALASSIO 22,45.039269991703,7.66916002504,6863,45.1244559,7.7308537,suburb,Settimo Torinese,1265,11915.959,824811
1272,Torino,TOAA81602V,I.C. KING MILA - VIA POSTUMIA,VIA POSTUMIA 28,45.068230011998,7.621210006821,6863,45.1244559,7.7308537,suburb,Settimo Torinese,1265,13284.421,881508
1272,Torino,TOAA81002X,"I.C. D.M. TUROLDO ""VALLETTE A""",VIA DELLE VERBENE 4,45.104190011092,7.633680015632,6863,45.1244559,7.7308537,suburb,Settimo Torinese,1265,9890.238,628908
1272,Torino,TOAA8AZ019,I.C. ALBERTI-SALGARI V.BRACC.63,VIA BRACCINI 63,45.060129992226,7.649430030794,6863,45.1244559,7.7308537,suburb,Settimo Torinese,1265,11260.842,722874
1272,Torino,TOAA8A101P,SC. INFANZIA MARIO LODI,VIA GARESSIO 24/5,45.030710014995,7.67014003716,6863,45.1244559,7.7308537,suburb,Settimo Torinese,1265,12987.046,974751
1272,Torino,TOAA8B501L,IC PACCHIOTTI-VIA REVEL CHIARA,VIA SANTA CHIARA 12,45.075279988849,7.681129969508,6863,45.1244559,7.7308537,suburb,Settimo Torinese,1265,7906.343,519635
1272,Torino,TOAA8CA01X,I.C. CACCIA - S. MARGHERITA,STRADA S.VINCENZO N. 144,45.052030014364,7.718649966511,6863,45.1244559,7.7308537,suburb,Settimo Torinese,1265,11221.839,761761
1272,Torino,TOAA8B7029,"I.C. CORSO VERCELLI ""PERRAULT"" FRANK",VIA BOCCHERINI 43,45.10179999522,7.692289970672,6863,45.1244559,7.7308537,suburb,Settimo Torinese,1265,4851.242,305814
1272,Torino,TOAA87601D,I.C. GINO STRADA - RODARI,CORSO REGINA MARGHERITA 43,45.071139999233,7.699729999388,6863,45.1244559,7.7308537,suburb,Settimo Torinese,1265,8262.156,533757
1272,Torino,TOAA8B8025,IC GABELLI A. DI ANZIO,VIA LEONCAVALLO 61/2,45.087999987923,7.702849995206,6863,45.1244559,7.7308537,suburb,Settimo Torinese,1265,5567.559,413592
1272,Torino,TOAA82002E,I.C. SALVEMINI - CASTELLO MIR.,STR. CASTELLO DI MIRAFIORI 45,45.012072769465,7.628855056888,6863,45.1244559,7.7308537,suburb,Settimo Torinese,1265,16974.049,1179143
1272,Torino,TOAA8AY01D,I.C. PALAZZESCHI - ANDERSEN,VIA STELVIO 45,45.065565155503,7.628611689628,6863,45.1244559,7.7308537,suburb,Settimo Torinese,1265,12804.57,842864
1272,Torino,TOAA86601V,IC CAIROLI V. ARTOM,VIA ARTOM 109/3,45.010132102562,7.649793574824,6863,45.1244559,7.7308537,suburb,Settimo Torinese,1265,16123.772,1221043
1272,Torino,TOAA80502C,I.C. CENA - VIA ANGLESIO,VIA ANGLESIO 17,45.104500015781,7.731019979218,6863,45.1244559,7.7308537,suburb,Settimo Torinese,1265,2940.835,248383
1272,Torino,TOAA8B7018,"IC C.SO VERCELLI ""E. LUZZATI""",VIA RONDISSONE 32,45.097300002862,7.690530022462,6863,45.1244559,7.7308537,suburb,Settimo Torinese,1265,5389.16,347802
1272,Torino,TOAA881022,"I.C.""S. PERTINI"" L.GO LA LOGGIA",LARGO LA LOGGIA 51,45.031799997684,7.653340020987,6863,45.1244559,7.7308537,suburb,Settimo Torinese,1265,13475.566,998635
1272,Torino,TOAA80503D,I.C. CENA - PIAZZA ABBA,PIAZZA ABBA 9,45.09067000127,7.714620031284,6863,45.1244559,7.7308537,suburb,Settimo Torinese,1265,4516.29,343040
1272,Torino,TOAA8B2015,I.C. FRASSATI - VIA GORRESIO,VIA GORRESIO 13,45.099890010944,7.65726996011,6863,45.1244559,7.7308537,suburb,Settimo Torinese,1265,7894.801,511893
1272,Torino,TOAA80801V,R. LUXEMBURG,VIA DEGLI ABETI 13,45.130880002459,7.709530036761,6863,45.1244559,7.7308537,suburb,Settimo Torinese,1265,4657.056,407196
1272,Torino,TOAA873023,I.C.PADRE GEMELLI -C.CINCINNATO,CORSO CINCINNATO 121,45.098070006398,7.639969963413,6863,45.1244559,7.7308537,suburb,Settimo Torinese,1265,9480.09,636987
1272,Torino,TOAA81701N,I.C. PACINOTTI - V.FOSSANO,VIA FOSSANO 8,45.085350007324,7.661919988534,6863,45.1244559,7.7308537,suburb,Settimo Torinese,1265,8856.56,603010
1272,Torino,TOAA873012,I.C. PADRE GEMELLI- V.TERRANEO,VIA TERRANEO 1,45.098259982233,7.644399966879,6863,45.1244559,7.7308537,suburb,Settimo Torinese,1265,8822.961,570164
1272,Torino,TOAA87702A,I.C. REGIO PARCO MARIA TERESA,VIA MAMELI 18,45.079329998735,7.683749984803,6863,45.1244559,7.7308537,suburb,Settimo Torinese,1265,7039.986,482833
1272,Torino,TOAA877019,JELLA LEPMAN,C.SO CIRIE' 3/A,45.084350004366,7.674710018409,6863,45.1244559,7.7308537,suburb,Settimo Torinese,1265,7620.11,474522
1272,Torino,TOAA819019,I.C. MANZONI - R. D'AZEGLIO,VIA GIACOSA 23,45.055059988543,7.68127003111,6863,45.1244559,7.7308537,suburb,Settimo Torinese,1265,9829.43,671436
1272,Torino,TOAA8B9021,IC MATTEOTTI - PELLICO- MONCAL.,C.SO MONCALIERI N.400,45.025069999986,7.676069982199,6863,45.1244559,7.7308537,suburb,Settimo Torinese,1265,13596.106,948248
1272,Torino,TOAA8B401R,SCUOLA DELL'INFANZIA,CORSO MATTEOTTI 6 BIS,45.065479993385,7.677600014805,6863,45.1244559,7.7308537,suburb,Settimo Torinese,1265,9070.184,646192
1272,Torino,TOAA8AZ02A,I.C. ALBERTI - SALGARI - VIA TOLMINO,VIA TOLMINO 30,45.057749992729,7.644889972939,6863,45.1244559,7.7308537,suburb,Settimo Torinese,1265,11914.872,778058
1272,Torino,TOAA81001V,"I.C. ""D.M.TUROLDO""-V.D.MAGNOLIE",VIA DELLE MAGNOLIE 15,45.101700150919,7.631877069919,6863,45.1244559,7.7308537,suburb,Settimo Torinese,1265,9772.241,646863
1272,Torino,TOAA8BR021,I.C. PARRI - VIA VENARIA,VIA VENARIA 79/15,45.110080016363,7.658260030513,6863,45.1244559,7.7308537,suburb,Settimo Torinese,1265,7561.329,487312
1272,Torino,TOAA8BR032,I.C. PARRI - MELANIA KLEIN,VIA LANZO 28,45.109089987869,7.661670040182,6863,45.1244559,7.7308537,suburb,Settimo Torinese,1265,7486.855,468963
1272,Torino,TOAA8BZ01X,I.C. ANTONELLI-CASALEGNO PARRA,VIA BOSTON 33,45.040449996032,7.64156998491,6863,45.1244559,7.7308537,suburb,Settimo Torinese,1265,13583.429,902117
1272,Torino,TOAA8BR01X,I.C. PARRI - STRADA LANZO,STRADA DI LANZO 146,45.117659980952,7.657259985645,6863,45.1244559,7.7308537,suburb,Settimo Torinese,1265,7990.193,505554
1272,Torino,TOAA80802X,WALT DISNEY,VIA CAVAGNOLO 35,45.11594001442,7.707210009781,6863,45.1244559,7.7308537,suburb,Settimo Torinese,1265,2624.257,200808
1272,Torino,TOAA8BR043,I.C. PARRI - VIA VENARIA 100,VIA VENARIA 100,45.112050015066,7.65735998175,6863,45.1244559,7.7308537,suburb,Settimo Torinese,1265,7396.049,460105
1272,Torino,TOAA8B001D,IC CEFALONIA-MAZZINI - BALTIM,VIA BALTIMORA,45.044886022997,7.641727149292,6863,45.1244559,7.7308537,suburb,Settimo Torinese,1265,13040.472,860947
1272,Torino,TOAA8CA021,I.C. CACCIA - VILLA GENERO,STRADA S. MARGHERITA 77,45.056289990924,7.708079967512,6863,45.1244559,7.7308537,suburb,Settimo Torinese,1265,10488.631,739092
1272,Torino,TOAA88201R,"I.C. SIDOLI - ""FANCIULLI""",VIA CAROLINA INVERNIZIO21,45.02218000359,7.654969965878,6863,45.1244559,7.7308537,suburb,Settimo Torinese,1265,14882.31,1121191
1272,Torino,TOAA81801D,IC OLIVETTI-REAGLIE,VIA VARALLO 33,45.071133882405,7.713380674802,6863,45.1244559,7.7308537,suburb,Settimo Torinese,1265,7476.28,653379
1272,Torino,TOAA8B8014,IC GABELLI -TOMMASO DI SAVOIA,VIA CERVINO 6,45.091219979846,7.688419962157,6863,45.1244559,7.7308537,suburb,Settimo Torinese,1265,5941.705,404857
1272,Torino,TOAA88202T,"I.C. SIDOLI - ""KELLER""",VIA PODGORA28,45.026879988158,7.643969975246,6863,45.1244559,7.7308537,suburb,Settimo Torinese,1265,14233.384,1072275
1272,Torino,TOAA81802E,IC OLIVETTI-BONCOMPAGNI,VIA BEATO CAFASSO 73,45.087665453722,7.730511233113,6863,45.1244559,7.7308537,suburb,Settimo Torinese,1265,6411.455,510309
1272,Torino,TOAA8CD01B,"I.C . BARICCO ""GIAN BURRASCA""",VIA POZZO STRADA 12/1,45.073929999524,7.628290032795,6863,45.1244559,7.7308537,suburb,Settimo Torinese,1265,12041.745,779102
