from_pro_com,from_comune,from_id_school,from_name,from_address,latitude_school,longitude_school,to,latitude_to,longitude_to,to_kind,to_comune,to_pro_com,distance,travel_time
80028,Cittanova,RCAA84701V,CITTANOVA FRAZ. SAN PIETRO,C.DA SAN PIETRO,38.412028891529,16.012034474596,11607,38.3084453,16.0318619,village,Molochio,80051,16397.239,1249824
80028,Cittanova,RCAA847031,CITTANOVA SCOPELLITI,VIA S. COSMA,38.351381854872,16.080675846307,11607,38.3084453,16.0318619,village,Molochio,80051,12835.339,847003
80028,Cittanova,RCAA847042,CITTANOVA S. ANTONIO,PROLUNG.TO CORSO ITALIA,38.352983669942,16.081934759644,11607,38.3084453,16.0318619,village,Molochio,80051,13013.916,860570
80028,Cittanova,RCAA84702X,CITTANOVA FALCONE E BORSELLINO,VIA GIOVANNI ALESSIO,38.349792009023,16.078664423527,11607,38.3084453,16.0318619,village,Molochio,80051,12583.44,875028
80028,Cittanova,RC1A16800A,SCUOLA INFANZIA PARITARIA PADRE VINCENZO IDA',VIA PIEMONTE 4,38.357309987004,16.080359963738,11607,38.3084453,16.0318619,village,Molochio,80051,13072.214,873741
80026,Ciminà,RCAA81512X,SCUOLA DELL'INFANZIA CIMINA',RIONE CACIA,38.244702143015,16.138977118961,11607,38.3084453,16.0318619,village,Molochio,80051,25687.364,1829437
80093,Taurianova,RCAA86403P,TAURIANOVA ZACCHERIA,VIA DELLA FIERA,38.352609455662,16.01516644884,11607,38.3084453,16.0318619,village,Molochio,80051,8138.265,601355
80093,Taurianova,RCAA86401L,TAURIANOVA CANORO V.DE GASPERI,PIAZZA ALDO MORO,38.355619963597,16.012464981961,11607,38.3084453,16.0318619,village,Molochio,80051,8677.684,663168
80093,Taurianova,RCAA874017,"SCUOLA MATERNA ST. ""S.MARTINO""",VIA GIOVANNI XXIII,38.361435607694,15.975194863079,11607,38.3084453,16.0318619,village,Molochio,80051,11095.034,815572
80093,Taurianova,RCAA86402N,TAURIANOVA S.GIOVANNI DE'ROSSI,PIAZZA ALDO MORO,38.355619963597,16.012464981961,11607,38.3084453,16.0318619,village,Molochio,80051,8677.684,663168
80093,Taurianova,RCAA874039,"SCUOLA MATERNA ST.""IATRINOLI""",VIA 8 SETTEMBRE,38.355042631241,16.012976277799,11607,38.3084453,16.0318619,village,Molochio,80051,8574.189,650748
80093,Taurianova,RCAA874028,"SCUOLA MATERNA ST. ""GIOVINAZZO""",VIA CORRADO ALVARO 1,38.354540019461,16.012460010132,11607,38.3084453,16.0318619,village,Molochio,80051,8345.137,666282
80093,Taurianova,RC1A19100B,"SCUOLA MATERNA ""INFANZIA 2000"" COOPERATIVA SOCIALE",VIA S.ANNA FONDO FALCONE 14/A,38.359222690008,16.021858622756,11607,38.3084453,16.0318619,village,Molochio,80051,9402.655,689200
80095,Varapodio,RCAA832026,VARAPODIO VIA OGNISSANTI,VIA OGNISSANTI,38.318847947849,15.986183914791,11607,38.3084453,16.0318619,village,Molochio,80051,8592.009,642688
80051,Molochio,RCAA832015,MOLOCHIO C.DA MICELI VPROV.LE,VIA PROVINCIALE,38.322511383551,16.021615399495,11607,38.3084453,16.0318619,village,Molochio,80051,2173.718,184823
80028,Cittanova,RCAA84701V,CITTANOVA FRAZ. SAN PIETRO,C.DA SAN PIETRO,38.412028891529,16.012034474596,11608,38.2814678,16.051178,village,Molochio,80051,26480.612,1977984
80028,Cittanova,RCAA847031,CITTANOVA SCOPELLITI,VIA S. COSMA,38.351381854872,16.080675846307,11608,38.2814678,16.051178,village,Molochio,80051,22918.712,1575163
80028,Cittanova,RCAA847042,CITTANOVA S. ANTONIO,PROLUNG.TO CORSO ITALIA,38.352983669942,16.081934759644,11608,38.2814678,16.051178,village,Molochio,80051,23097.29,1588730
80028,Cittanova,RCAA84702X,CITTANOVA FALCONE E BORSELLINO,VIA GIOVANNI ALESSIO,38.349792009023,16.078664423527,11608,38.2814678,16.051178,village,Molochio,80051,22666.813,1603188
80028,Cittanova,RC1A16800A,SCUOLA INFANZIA PARITARIA PADRE VINCENZO IDA',VIA PIEMONTE 4,38.357309987004,16.080359963738,11608,38.2814678,16.051178,village,Molochio,80051,23155.587,1601901
80026,Ciminà,RCAA81512X,SCUOLA DELL'INFANZIA CIMINA',RIONE CACIA,38.244702143015,16.138977118961,11608,38.2814678,16.051178,village,Molochio,80051,16070.122,1140749
80093,Taurianova,RCAA86403P,TAURIANOVA ZACCHERIA,VIA DELLA FIERA,38.352609455662,16.01516644884,11608,38.2814678,16.051178,village,Molochio,80051,18221.638,1329515
80093,Taurianova,RCAA86401L,TAURIANOVA CANORO V.DE GASPERI,PIAZZA ALDO MORO,38.355619963597,16.012464981961,11608,38.2814678,16.051178,village,Molochio,80051,18761.057,1391328
80093,Taurianova,RCAA874017,"SCUOLA MATERNA ST. ""S.MARTINO""",VIA GIOVANNI XXIII,38.361435607694,15.975194863079,11608,38.2814678,16.051178,village,Molochio,80051,21178.407,1543732
80093,Taurianova,RCAA86402N,TAURIANOVA S.GIOVANNI DE'ROSSI,PIAZZA ALDO MORO,38.355619963597,16.012464981961,11608,38.2814678,16.051178,village,Molochio,80051,18761.057,1391328
80093,Taurianova,RCAA874039,"SCUOLA MATERNA ST.""IATRINOLI""",VIA 8 SETTEMBRE,38.355042631241,16.012976277799,11608,38.2814678,16.051178,village,Molochio,80051,18657.563,1378908
80093,Taurianova,RCAA874028,"SCUOLA MATERNA ST. ""GIOVINAZZO""",VIA CORRADO ALVARO 1,38.354540019461,16.012460010132,11608,38.2814678,16.051178,village,Molochio,80051,18428.51,1394442
80093,Taurianova,RC1A19100B,"SCUOLA MATERNA ""INFANZIA 2000"" COOPERATIVA SOCIALE",VIA S.ANNA FONDO FALCONE 14/A,38.359222690008,16.021858622756,11608,38.2814678,16.051178,village,Molochio,80051,19486.028,1417360
80095,Varapodio,RCAA832026,VARAPODIO VIA OGNISSANTI,VIA OGNISSANTI,38.318847947849,15.986183914791,11608,38.2814678,16.051178,village,Molochio,80051,16884.769,1272542
80051,Molochio,RCAA832015,MOLOCHIO C.DA MICELI VPROV.LE,VIA PROVINCIALE,38.322511383551,16.021615399495,11608,38.2814678,16.051178,village,Molochio,80051,12257.091,912983
80063,Reggio di Calabria,RCAA875068,FRAZ CANNAVO',VIA VALLONE MANTI,38.104464334113,15.693442007424,11662,38.216069,15.659192,village,Campo Calabro,80018,17672.455,1192343
80063,Reggio di Calabria,RCAA875046,FRAZ.MOSORROFA VIA PROVINCIALE,VIA SCALEA,38.097048208244,15.722432108331,11662,38.216069,15.659192,village,Campo Calabro,80018,22039.682,1561578
80063,Reggio di Calabria,RCAA806158,CONDERA,RIONE CONDERA,38.10534,15.640221106,11662,38.216069,15.659192,village,Campo Calabro,80018,15126.025,982601
80063,Reggio di Calabria,RCAA85701D,SAN GIOVANNELLO,VALLONE MARIANNAZZO,38.110006990248,15.671302477611,11662,38.216069,15.659192,village,Campo Calabro,80018,14452.788,960344
80063,Reggio di Calabria,RCAA87105X,TRAPEZI CROCE VALANIDI,VIA TRAPEZI -,38.060310344119,15.66181615956,11662,38.216069,15.659192,village,Campo Calabro,80018,19535.435,1207747
80063,Reggio di Calabria,RCAA804077,INFANZIA GALLICO MARINA,RIONE COMI,38.165971674701,15.647062930216,11662,38.216069,15.659192,village,Campo Calabro,80018,7248.0,603203
80063,Reggio di Calabria,RCAA868021,CATONA MARINA VIA BARACCAMENTO,VIA BARACCAMENTO 11/A,38.183200004596,15.641459960324,11662,38.216069,15.659192,village,Campo Calabro,80018,5025.981,500546
80063,Reggio di Calabria,RCAA86901Q,SCUOLA MATERNA RAVAGNESE,VIA II TRAV SCAGLIOLA N.7,38.074725,15.694628302,11662,38.216069,15.659192,village,Campo Calabro,80018,21423.859,1524720
80063,Reggio di Calabria,RCAA80707P,MALARA DI TRUNCA,VIA S.ANNA AL SOCCORSO,38.104141339364,15.664880574938,11662,38.216069,15.659192,village,Campo Calabro,80018,14937.736,952439
80063,Reggio di Calabria,RCAA80710V,SANTA VENERE,VIA R. VALANIDI - SANTA VENERE 54 -56,38.058733681324,15.752646031645,11662,38.216069,15.659192,village,Campo Calabro,80018,32068.81,2179565
80063,Reggio di Calabria,RCAA875024,CATAFORIO VIA BORELLI,VIA BORELLI,38.087888986914,15.717327381802,11662,38.216069,15.659192,village,Campo Calabro,80018,22663.086,1724830
80063,Reggio di Calabria,RCAA80706N,FRAZ.OLIVETO,VIA PROVINCIALE 172 - OLIVETO,38.130081913563,15.654662529274,11662,38.216069,15.659192,village,Campo Calabro,80018,11235.479,790751
80063,Reggio di Calabria,RCAA809036,PLESSO RC DE AMICIS,Non Disponibile,38.10534,15.640221106,11662,38.216069,15.659192,village,Campo Calabro,80018,15126.025,982601
80063,Reggio di Calabria,RCAA875079,S SPERATO VIA COMUNALE,VIA COMUNALE,38.147983741859,15.660514819439,11662,38.216069,15.659192,village,Campo Calabro,80018,9109.423,667163
80063,Reggio di Calabria,RCAA868054,LOC.VILLA S.GIUSEPPE,VIA DEI MONTI,38.186941695081,15.691067346646,11662,38.216069,15.659192,village,Campo Calabro,80018,8246.688,911724
80063,Reggio di Calabria,RCAA86801X,"SCUOLA MATERNA ""CATONA CENTRO""",VIA FIGURELLA,38.18867296368,15.646861519075,11662,38.216069,15.659192,village,Campo Calabro,80018,4628.471,439785
80063,Reggio di Calabria,RCAA806125,SPIRITO SANTO,VIA MURO ROTTO,38.103235,15.661651684,11662,38.216069,15.659192,village,Campo Calabro,80018,14976.169,964517
80063,Reggio di Calabria,RCAA87001X,TRAVERSA SOCCORSO,VIA S. ANNA 9,38.103040008854,15.649220010102,11662,38.216069,15.659192,village,Campo Calabro,80018,15535.54,1036257
80063,Reggio di Calabria,RCAA80709R,TERRETI,VIA REGGIO CAMPI 65 - TERRETI,38.119507422117,15.713415732355,11662,38.216069,15.659192,village,Campo Calabro,80018,20101.407,1326242
80063,Reggio di Calabria,RCAA80708Q,SCUOLA INFANZIA ARANGEA,VIA ARANGEA TRAV. GENOESE,38.089021284815,15.670576215271,11662,38.216069,15.659192,village,Campo Calabro,80018,17833.501,1126019
80063,Reggio di Calabria,RCAA804044,LOC.PIETRA DELLA ZITA,VIA A GARIBALDI TRAV ITRIA1 GALLICO,38.170560010788,15.662830041564,11662,38.216069,15.659192,village,Campo Calabro,80018,7742.936,614728
80063,Reggio di Calabria,RCAA809047,VICO GRAZIELLA,Non Disponibile,38.08826,15.649901982,11662,38.216069,15.659192,village,Campo Calabro,80018,17613.04,1148589
80063,Reggio di Calabria,RCAA871061,POLO LUME,VIA SOTTOLUME PELLARO,38.022156283942,15.648056818682,11662,38.216069,15.659192,village,Campo Calabro,80018,24528.561,1470877
80063,Reggio di Calabria,RCAA87301B,PRINCIPE DI PIEMONTE,VIA POSSIDONEA 65,38.106119981085,15.645810000433,11662,38.216069,15.659192,village,Campo Calabro,80018,14943.476,965211
80063,Reggio di Calabria,RCAA804099,GALLICO SUPERIORE V.S.DOMENICA,VIA S.DOMENICA DI GALLICO,38.181073125618,15.673414016641,11662,38.216069,15.659192,village,Campo Calabro,80018,9321.862,783635
80063,Reggio di Calabria,RCAA804088,GALLICO PASSO CARACCIOLO,PIAZZA POSTA,38.198922651989,15.683235001113,11662,38.216069,15.659192,village,Campo Calabro,80018,4091.996,497404
80063,Reggio di Calabria,RCAA86903T,LOC. SARACINELLO,VIA LAGANI 1,38.060774435306,15.666633932537,11662,38.216069,15.659192,village,Campo Calabro,80018,19833.079,1296138
80063,Reggio di Calabria,RCAA80702D,SCUOLA DELL'INFANZIA,VIA BARACCONE 18,38.087409980636,15.680029958338,11662,38.216069,15.659192,village,Campo Calabro,80018,19685.906,1275784
80063,Reggio di Calabria,RCAA867025,CARDUCCI,VIA MICELI,38.119457607064,15.654266596604,11662,38.216069,15.659192,village,Campo Calabro,80018,12843.503,818792
80063,Reggio di Calabria,RCAA805062,"""SANTA CATERINA""",VIA MONTELLO N. 7,38.125790002814,15.65575001559,11662,38.216069,15.659192,village,Campo Calabro,80018,11995.127,755360
80063,Reggio di Calabria,RCAA867014,TREMULINI MELISSARI,VIA MELISSARI,38.119429982323,15.662944999367,11662,38.216069,15.659192,village,Campo Calabro,80018,12804.44,823139
80063,Reggio di Calabria,RCAA868032,SALICE VIA CARCARA,VIA CARCARA,38.18415,15.668681663,11662,38.216069,15.659192,village,Campo Calabro,80018,7560.518,689507
80063,Reggio di Calabria,RCAA84203T,RIONE S.GIORGIO EXTRA,VIA PIO UNDICESIMO 164,38.098180013755,15.650500010536,11662,38.216069,15.659192,village,Campo Calabro,80018,16014.499,1066918
80063,Reggio di Calabria,RCAA84202R,RIONE MODENA CENTRO,VIA MODENA PIAZZETTA,38.094670108694,15.646229472662,11662,38.216069,15.659192,village,Campo Calabro,80018,16717.191,1080949
80063,Reggio di Calabria,RCAA87103T,PELLARO C.DA PANTANELLO SS 106,VIA FOSSE DI COMI,38.035390177893,15.664080034785,11662,38.216069,15.659192,village,Campo Calabro,80018,22812.401,1436122
80063,Reggio di Calabria,RCAA80410B,LOC.SAMBATELLO,VIA PRETE MAIO,38.178449486845,15.69096565333,11662,38.216069,15.659192,village,Campo Calabro,80018,12052.122,924255
80063,Reggio di Calabria,RCAA87202L,GEBBIONE - COLLODI,VIALE A.MORO TRAV. II^ INA CASA,38.08598206897,15.636290983418,11662,38.216069,15.659192,village,Campo Calabro,80018,17689.095,1117827
80063,Reggio di Calabria,RCAA87201G,BOTTEGHELLE VIA BERGAMO,VIA BERGAMO,38.093584308805,15.642059768324,11662,38.216069,15.659192,village,Campo Calabro,80018,16882.786,1070023
80063,Reggio di Calabria,RC1A05900P,"SCUOLA MATERNA NON STATALE VILLA ROSA ""LA SCUOLA NEL SOLE""",VIA NAZIONALE - PELLARO N. 373,38.023329995583,15.648279979661,11662,38.216069,15.659192,village,Campo Calabro,80018,24132.062,1491131
80063,Reggio di Calabria,RC1A056007,"SCUOLA MATERNA NON STATALE COMUNALE ""TRAVERSA SOCCORSO""",VIALE ALDO MORO,38.08493297818,15.635278836803,11662,38.216069,15.659192,village,Campo Calabro,80018,17679.065,1117106
80063,Reggio di Calabria,RC1A0B500V,IL TRENINO DEI SOGNI,VIA RAVAGNESE ii TRAV. SCAGLIOLA 19,38.074186468554,15.65394567929,11662,38.216069,15.659192,village,Campo Calabro,80018,19040.211,1216985
80063,Reggio di Calabria,RC1A09100E,"SCUOLA MATERNA NON STATALE COMUNALE ""FRANGIPANE""",VIA FRANGIPANE,38.097761256304,15.637579654662,11662,38.216069,15.659192,village,Campo Calabro,80018,16408.04,1040668
80063,Reggio di Calabria,RC1A2E5005,Giardini d'infanzia,Via Modena 1 traversa 16,38.095446386079,15.641936305174,11662,38.216069,15.659192,village,Campo Calabro,80018,16500.926,1064728
80063,Reggio di Calabria,RC1A16100G,"SCUOLA MATERNA ""SCARABOCCHIANDO""",VIA NAZIONALE PENTIMELE 104,38.139622819417,15.657876263212,11662,38.216069,15.659192,village,Campo Calabro,80018,10071.538,720450
80063,Reggio di Calabria,RC1AHE500I,ANDARE A PICCOLI PASSI,via La Corte Baraccamento Marina 11/A,38.183200004596,15.641459960324,11662,38.216069,15.659192,village,Campo Calabro,80018,5025.981,500546
80063,Reggio di Calabria,RC1A09000P,"SCUOLA MATERNA ""SAN FRANCESCO DA PAOLA""",VIA EMILIA N.6 - Rosalì,38.202300015,15.674049973336,11662,38.216069,15.659192,village,Campo Calabro,80018,3197.808,390102
80063,Reggio di Calabria,RC1A10200Q,"SCUOLA MATERNA NON STATALE ""GREEN ISLAND""",VIA RAVAGNESE 1 TRAV PRIVATA,38.073668012392,15.654227138001,11662,38.216069,15.659192,village,Campo Calabro,80018,18980.857,1206301
80063,Reggio di Calabria,RC1A01407C,SCUOLA MATERNA M. M. GRATIAE PIA ASS. F. M. CORREDENTRICE,PARCO FIAMMA N. 7,38.108964994153,15.654397221416,11662,38.216069,15.659192,village,Campo Calabro,80018,14340.069,969888
80063,Reggio di Calabria,RC1A00800T,"SCUOLA MATERNA ""BIANCANEVE""",VIALE ALDO MORO II^ TRAV. NICOLO' 29,38.084306077061,15.637220629955,11662,38.216069,15.659192,village,Campo Calabro,80018,17931.738,1142658
80063,Reggio di Calabria,RC1AGT500N,CIF - Casa dell'amiciza,Via Ravagnese superiore 128,38.07617999058,15.654240015733,11662,38.216069,15.659192,village,Campo Calabro,80018,18559.394,1171637
80063,Reggio di Calabria,RC1ABU500M,BABY HOUSE,contrada Gagliardi località Arangea 58,38.085320944405,15.668239918607,11662,38.216069,15.659192,village,Campo Calabro,80018,17578.121,1128825
80063,Reggio di Calabria,RC1A03700T,"SCUOLA MATERNA NON STATALE ""SAN ROCCO""",VIA DELLE MIMOSE3,38.082419982218,15.687550034229,11662,38.216069,15.659192,village,Campo Calabro,80018,20543.342,1339634
80063,Reggio di Calabria,RC1A7P500C,SCUOLA MATERNA BAFFY - IMPARARE GIOCANDO,VIA DEL GELSOMINO 5,38.101409980143,15.659000014727,11662,38.216069,15.659192,village,Campo Calabro,80018,16135.532,1042378
80063,Reggio di Calabria,RC1A118009,"SCUOLA MATERNA NON STATALE ""SUOR EMMA PIA""",VIA MADONNA DI FATIMA 4,38.113325668736,15.668170265151,11662,38.216069,15.659192,village,Campo Calabro,80018,13867.559,913659
80063,Reggio di Calabria,RC1A07000D,"SCUOLA MATERNA ""L'ALBERO AZZURRO""",VIA GAGLIARDI N 37,38.085180017206,15.666669959047,11662,38.216069,15.659192,village,Campo Calabro,80018,17293.564,1094677
80063,Reggio di Calabria,RC1A148005,"SCUOLA MATERNA ""SACRO CUORE""",VIA LORETO PESCATORI16,38.096160016999,15.635290041396,11662,38.216069,15.659192,village,Campo Calabro,80018,16398.819,1025402
80063,Reggio di Calabria,RC1A021019,"Scuola materna non statale ""Valle Verde""",VIA CARRUBARA SAN CRISTOFORO 32,38.101639979566,15.674130020511,11662,38.216069,15.659192,village,Campo Calabro,80018,15834.798,1063872
80063,Reggio di Calabria,RC1A06200E,"SCUOLA MATERNA NON STATALE ""MONSIGNOR MONTALBETTI""",VIA LONGITUDINALE - PELLARO N. 36,38.025718101948,15.651971022618,11662,38.216069,15.659192,village,Campo Calabro,80018,23882.366,1475069
80063,Reggio di Calabria,RC1AN8500O,"Scuola Infanzia paritaria ""N. e F. Giunta""",Via Olmo snc - Gallina,38.087260007433,15.679604995847,11662,38.216069,15.659192,village,Campo Calabro,80018,19626.43,1268647
80063,Reggio di Calabria,RC1A06100P,SCUOLA MATERNA CIPRIANI,VIA CROCEVIA - PELLARO N. 30/A,38.03356018489,15.664894313163,11662,38.216069,15.659192,village,Campo Calabro,80018,23176.312,1480616
80063,Reggio di Calabria,RC1A164003,"SCUOLA MATERNA NON STATALE ""MARIA PIA DI SAVOIA""",VIA S. GIOVANNI N. 113 PELLARO,38.096762707381,15.745702617215,11662,38.216069,15.659192,village,Campo Calabro,80018,26850.234,1917070
80063,Reggio di Calabria,RC1A073001,"SCUOLA MATERNA ""LA NUVOLETTA""",VIA CICCARELLO34/C,38.084820014464,15.652539998131,11662,38.216069,15.659192,village,Campo Calabro,80018,18327.66,1209849
80063,Reggio di Calabria,RC1A072005,"SCUOLA MATERNA ""LA SIRENETTA""",VIA CICCARELLO IV TRAVERSA16,38.085346289732,15.653517055169,11662,38.216069,15.659192,village,Campo Calabro,80018,18423.162,1220389
80063,Reggio di Calabria,RC1A050008,"SCUOLA MATERNA ""CAPPUCCETTO ROSSO""",VIA TEMESA 41,38.0872200048,15.642959985716,11662,38.216069,15.659192,village,Campo Calabro,80018,17586.329,1112984
80063,Reggio di Calabria,RC1A080004,"ASSOCIAZIONE ""BIMBOLANDIA"" SCUOLA DELL'INFANZIA PARITARIA",VIA PALMI 13,38.091609984679,15.642069995237,11662,38.216069,15.659192,village,Campo Calabro,80018,17082.556,1085199
80063,Reggio di Calabria,RC1A06800D,"SCUOLA MATERNA NON STATALE ""TOPOLINO""",VICO S. ANNA ANGOLO VIA POLISTENA,38.0881719395,15.643252973487,11662,38.216069,15.659192,village,Campo Calabro,80018,17515.784,1107107
80063,Reggio di Calabria,RC1A155008,"SCUOLA MATERNA NON STATALE ""HANSEL E GRETHEL""",VIA SAN SPERATO II° TRATTO,38.094594332775,15.656797788704,11662,38.216069,15.659192,village,Campo Calabro,80018,17260.834,1135742
80063,Reggio di Calabria,RC1A077008,"SCUOLA MATERNA NON STATALE ""CATERINA TROIANI""",SBARRE CENTRALI71,38.099799984181,15.642769967971,11662,38.216069,15.659192,village,Campo Calabro,80018,15894.073,1014891
80063,Reggio di Calabria,RC1A150005,"SCUOLA MATERNA ""FANTASILANDIA""",VIA ENOTRIA 81,38.12383999495,15.655869960625,11662,38.216069,15.659192,village,Campo Calabro,80018,12181.409,767555
80063,Reggio di Calabria,RC1A08200Q,"SCUOLA MATERNA ""KINDERGARTEN""",VIA SALITA ENEL TRAV COSTANTINO,38.069472136505,15.664152535249,11662,38.216069,15.659192,village,Campo Calabro,80018,18562.3,1150851
80063,Reggio di Calabria,RC1A80502B,"SCUOLA MATERNA ""IL TUO NIDO""",Via Statale 18 n. 1/a,38.118194999,15.653456117,11662,38.216069,15.659192,village,Campo Calabro,80018,12979.107,831354
80063,Reggio di Calabria,RC1A022026,"SCUOLA MATERNA NON STATALE COMUNALE ""PIO XI""",VIA PIO XI INA CASA,38.087892381903,15.650996864363,11662,38.216069,15.659192,village,Campo Calabro,80018,17613.701,1116275
80063,Reggio di Calabria,RC1A178001,"Scuola Materna ""NUMBER ONE""",VIA MANFROCE N 93/F,38.123720008006,15.662519994966,11662,38.216069,15.659192,village,Campo Calabro,80018,12665.267,818684
80063,Reggio di Calabria,RC1A05400G,SCUOLA MATERNA MADRE LINDA LUCOTTI,VIA MARIA AUSILIATRICE 3,38.093520010865,15.661909960053,11662,38.216069,15.659192,village,Campo Calabro,80018,16420.488,1038809
80063,Reggio di Calabria,RC1A02106E,"SCUOLA DELL'INFANZIA ""ARCHIMEDE""",VIA S.ANNA II^ TRONCO 2/B,38.102929996374,15.649069974036,11662,38.216069,15.659192,village,Campo Calabro,80018,15519.958,1034387
80063,Reggio di Calabria,RC1A15700X,"SCUOLA MATERNA NON STATALE COMUNALE ""GENOESE""",VIA ASCHENEZ,38.115573403764,15.655067150356,11662,38.216069,15.659192,village,Campo Calabro,80018,13252.246,877140
80063,Reggio di Calabria,RC1A149001,"SCUOLA MATERNA NON STATALE ""NUOVI ORIZZONTI""",CONTRADA MARIANNAZZO 18,38.113310019538,15.664259994246,11662,38.216069,15.659192,village,Campo Calabro,80018,13545.746,891913
80063,Reggio di Calabria,RC1A08100X,"SCUOLA MATERNA ""PARADISO""",VIALE CALABRIA TRAV. VIII 49,38.088932280245,15.641425375481,11662,38.216069,15.659192,village,Campo Calabro,80018,17273.952,1086400
80063,Reggio di Calabria,RC1A17400N,"SCUOLA INFANZIA PARITARIA ""TOPOLINO & COMPANY""",VIA QUARNARO 14/L,38.169289984819,15.649670034484,11662,38.216069,15.659192,village,Campo Calabro,80018,6679.355,544676
80063,Reggio di Calabria,RC1A02102A,"SCUOLA MATERNA NON STATALE ""VOLTO SANTO""",VIA P. ANDILORO 19,38.104379981805,15.652990022513,11662,38.216069,15.659192,village,Campo Calabro,80018,15399.984,983503
80063,Reggio di Calabria,RC1A156004,"SCUOLA MATERNA ""INSIEME PER FARE""",VIA DALMAZIA N. 106,38.11241998715,15.65450002237,11662,38.216069,15.659192,village,Campo Calabro,80018,14042.104,936454
80063,Reggio di Calabria,RC1AR3500V,"Scuola dell'Infanzia ""La casa di Alice""",Via Cardinale Portanova 58,38.11668000562,15.657299997125,11662,38.216069,15.659192,village,Campo Calabro,80018,13197.143,862423
80063,Reggio di Calabria,RC1A11100E,"ASSOCIAZIONE SOCIO-CULTURALE ""SCUOLA ATTIVA""",VIA ROMA 7/A -ANG. VIA B. BUOZZI,38.116639982032,15.651029998274,11662,38.216069,15.659192,village,Campo Calabro,80018,13248.57,844111
80063,Reggio di Calabria,RC1A15800Q,"SCUOLA INFANZIA COMUNALE ""PARCO CASERTA""",VIA ROSSELLI 34,38.114840010235,15.654770003471,11662,38.216069,15.659192,village,Campo Calabro,80018,13489.129,872243
80063,Reggio di Calabria,RC1A006006,"SCUOLA MATERNA ""DISNEYLAND""",VIA SBARRE INFERIORI VICO CIECO 11/B,38.099360018084,15.637500013987,11662,38.216069,15.659192,village,Campo Calabro,80018,16354.698,1034267
80063,Reggio di Calabria,RC1A114002,"SCUOLA MATERNA ""FANTASY'S SCHOOL""",CONTRADA SARACINELLO 69/C,38.067019995333,15.663950031467,11662,38.216069,15.659192,village,Campo Calabro,80018,18804.407,1166730
80063,Reggio di Calabria,RC1A8F500F,Scuola materna non statale E.T. Educational Technology,Via Cardinale Portanova 128,38.115669986287,15.660519989049,11662,38.216069,15.659192,village,Campo Calabro,80018,13435.133,871727
80063,Reggio di Calabria,RC1A07900X,"SCUOLA DELL'INFANZIA ""ALICE""",VIA SBARRE SUPERIORI TR.PRIVATA4,38.087389989797,15.646780038088,11662,38.216069,15.659192,village,Campo Calabro,80018,17422.901,1129580
80063,Reggio di Calabria,RC1A00200V,"SCUOLA MATERNA NON STATALE ""WALT DISNEY""",C.SO GARIBALDI 404,38.105060005609,15.640000000428,11662,38.216069,15.659192,village,Campo Calabro,80018,15126.025,982601
80063,Reggio di Calabria,RC1A08300G,"SCUOLA MATERNA ""L'ISOLA CHE NON C'E'""",LORETO 12 TR.BASILE,38.096219989516,15.637140011246,11662,38.216069,15.659192,village,Campo Calabro,80018,16560.748,1044833
80063,Reggio di Calabria,RC1A49500H,CRESCERE INSIEME,Via Dante 5 B,38.117749997469,15.656839998279,11662,38.216069,15.659192,village,Campo Calabro,80018,13158.459,862897
80063,Reggio di Calabria,RC1A11700D,"SCUOLA MATERNA NON STATALE ""S. VINCENZO DE' PAOLI""",VIA ARCOVITO 1,38.104780008134,15.644209978936,11662,38.216069,15.659192,village,Campo Calabro,80018,15148.684,989836
80063,Reggio di Calabria,RC1A08900E,"SCUOLA INFANZIA PARITARIA ""SACRO CUORE""",Via Regina Elena 29 - Catona,38.186015745696,15.646668704901,11662,38.216069,15.659192,village,Campo Calabro,80018,4748.272,438863
80063,Reggio di Calabria,RC1A75500C,Children & Family size,Via argine destro Annunziata 97,38.121140016299,15.652500016453,11662,38.216069,15.659192,village,Campo Calabro,80018,13030.816,832378
80063,Reggio di Calabria,RC1A19600E,"SCUOLA DELL'INFANZIA ""S. FRANCESCO DA PAOLA"" DON ORIONE",VIA ARCHIMEDE 9,38.118309992421,15.65924996308,11662,38.216069,15.659192,village,Campo Calabro,80018,13171.549,873478
80063,Reggio di Calabria,RC1A176009,"SCUOLA INFANZIA ""WINNIE THE POOH""",VIA SPIRITO SANTO 293,38.105450015564,15.66534000247,11662,38.216069,15.659192,village,Campo Calabro,80018,15027.073,967266
80063,Reggio di Calabria,RC1A11600N,"SCUOLA per l'infanzia ""MONTESSORI""",VIA FATA MORGANA 81,38.108019990897,15.647370040253,11662,38.216069,15.659192,village,Campo Calabro,80018,14602.93,938020
80063,Reggio di Calabria,RC1A10100X,"SCUOLA MATERNA ""PIANETA BABY""",VIA PROLUNGAMENTO TRAV MARRA 3,38.169386804825,15.649932941143,11662,38.216069,15.659192,village,Campo Calabro,80018,6670.83,543652
80096,Villa San Giovanni,RCAA85503X,INFANZIA ACCIARELLO,VIA CORIGLIANO,38.211335654326,15.63854738293,11662,38.216069,15.659192,village,Campo Calabro,80018,3143.098,248509
80096,Villa San Giovanni,RCAA85501T,INFANZIA FERRITO,VIA NAZIONALE,38.216207828122,15.638309876658,11662,38.216069,15.659192,village,Campo Calabro,80018,2479.904,201169
80096,Villa San Giovanni,RCAA85502V,INFANZIA CENTRO,VIALE ROCCO LARUSSA,38.226754857826,15.638518653344,11662,38.216069,15.659192,village,Campo Calabro,80018,3851.301,306836
80096,Villa San Giovanni,RCAA855041,INFANZIA PEZZO,VIA LAZZARO FELICE,38.22974046705,15.63944055262,11662,38.216069,15.659192,village,Campo Calabro,80018,3818.923,314562
80096,Villa San Giovanni,RC1A18800G,"SCUOLA DELL'INFANZIA NON STATALE "" LA BACCHETTA MAGICA""",VIA TORRENTE ZAGARELLA 18/A,38.236779534674,15.660537692745,11662,38.216069,15.659192,village,Campo Calabro,80018,4675.876,427093
80096,Villa San Giovanni,RC1A172002,"SCUOLA MATERNA NON STATALE ""GENOVA-FIRENZE""",VIA ASILO 18,38.220382708425,15.637162899826,11662,38.216069,15.659192,village,Campo Calabro,80018,2872.462,243196
80096,Villa San Giovanni,RC1A80504D,"SCUOLA MATERNA ""HEIDI"" GALLICO",VIA ANITA GARIBALDI TRAV. ESPOSITO 23,38.217367391549,15.637124530538,11662,38.216069,15.659192,village,Campo Calabro,80018,2899.307,238179
80096,Villa San Giovanni,RC1A014038,"SCUOLA MATERNA ""FIGLIE DI MARIA IMMACOLATA""",VIA ROCCO LA RUSSA N. 18,38.222950006939,15.636619997973,11662,38.216069,15.659192,village,Campo Calabro,80018,2907.705,250514
80096,Villa San Giovanni,RC1A08400B,"SCUOLA MATERNA NON STATALE ""MARIA SS. DI PORTO SALVO""",VIA VITTORIO EMANUELE II 194,38.236062242851,15.658440921547,11662,38.216069,15.659192,village,Campo Calabro,80018,4355.65,434414
80018,Campo Calabro,RCAA834062,CAMPO CALABRO FRAZ. CAMPO PIALE,VIA LOFARO,38.222374098219,15.653757659726,11662,38.216069,15.659192,village,Campo Calabro,80018,1028.198,86907
80018,Campo Calabro,RCAA83403V,CAMPO CAL. CAP.V. TEN.GALIMI,VIA TENENTE GALIMI,38.214469006454,15.659015371725,11662,38.216069,15.659192,village,Campo Calabro,80018,237.412,21567
80018,Campo Calabro,RC1A169006,"SCUOLA MATERNA ""OLIMPIA BABIES GARDEN""CALABRESE""",VIA SAC.SCOPELLITI I TRAV.PRIV.I VICO N.4,38.218893978202,15.656955443911,11662,38.216069,15.659192,village,Campo Calabro,80018,476.131,38754
80018,Campo Calabro,RC1AUF5002,"Scuola dell'infanzia ""Baby School""",Via Abbadessa 1,38.217805,15.665801775,11662,38.216069,15.659192,village,Campo Calabro,80018,1128.218,85704
80064,Riace,RCAA82905D,RIACE LOC.MARINA,VIA NAZIONALE,38.38901,16.52832,11666,38.4322567,16.4819579,village,Camini,80017,10027.099,756553
80064,Riace,RC1A14000E,"SCUOLA MATERNA NON STATALE ""LUIGI PAPARO""",VIA DON BOSCO 6,38.417751639345,16.480576645807,11666,38.4322567,16.4819579,village,Camini,80017,3077.108,254077
80092,Stilo,RCAA82911R,STILO - A. SCOPELLITI,CONTRADA LOCO,38.499510143,16.373378329,11666,38.4322567,16.4819579,village,Camini,80017,27512.499,2319942
80017,Camini,RCAA82910Q,DON TEODORO RIGITANO CAMINI,VIA NUOVA,38.430558165817,16.484975581503,11666,38.4322567,16.4819579,village,Camini,80017,540.164,64819
80042,Laureana di Borrello,RCAA84801P,LAUREANA B.BELLANTONE V.SARDEGN,VIA SARDEGNA,38.496845310384,16.08944852183,1403,38.52435775,16.134996529304054,village,San Pietro di Caridà,80075,10139.604,713172
80042,Laureana di Borrello,RC1A68500T,L'Arcobaleno,Via Provinciale S. Anna snc,38.497591487882,16.108866374433,1403,38.52435775,16.134996529304054,village,San Pietro di Caridà,80075,11830.342,907913
80042,Laureana di Borrello,RC1A043005,"SCUOLA MATERNA NON STATALE ""D.CO LACQUANITI ARGIRO'""",VIA SOLFERINO 7,38.490679980484,16.081869963595,1403,38.52435775,16.134996529304054,village,San Pietro di Caridà,80075,11007.997,678528
80035,Galatro,RCAA84803R,GALATRO VIA A. MORO,VIA A.MORO,38.461815256898,16.109230881024,1403,38.52435775,16.134996529304054,village,San Pietro di Caridà,80075,19596.21,1365874
80087,Serrata,RC1A04500R,"SCUOLA MATERNA NON STATALE ""VOLTO SANTO"" S. PANTALEONE",VIA OBERDAN,38.512018739889,16.098160736526,1403,38.52435775,16.134996529304054,village,San Pietro di Caridà,80075,4837.703,307484
80065,Rizziconi,RCAA85106Q,INFANZIA PLESSO CIRELLO,C.DA CIRELLO,38.374244993727,15.932070014967,11634,38.2935931,15.9841395,village,Oppido Mamertina,80055,13790.798,916300
80065,Rizziconi,RCAA85105P,INFANZIA PLESSO CAPOLUOGO,VIA ARCIPRETE CATANANTI,38.408106589429,15.96534172862,11634,38.2935931,15.9841395,village,Oppido Mamertina,80055,18026.693,1393062
80065,Rizziconi,RCAA80501R,"""ARCHI CENTRO""",VIA BARACCAMENTO ARCHI CARMINE,38.410475882414,15.957980530375,11634,38.2935931,15.9841395,village,Oppido Mamertina,80055,17809.354,1376170
80065,Rizziconi,RCAA85103L,INFANZIA PLESSO DROSI,VIA A.VOLTA 5,38.426829994855,15.953990032875,11634,38.2935931,15.9841395,village,Oppido Mamertina,80055,20038.148,1580820
80065,Rizziconi,RCAA85107R,INFANZIA PLESSO SPINA,C.DA SPINA,38.416289823274,15.980939962638,11634,38.2935931,15.9841395,village,Oppido Mamertina,80055,22947.463,1469424
80065,Rizziconi,RC1A15300L,"SCUOLA MATERNA ""DISNEYLANDIA""",VIA ANTONIO GRAMSCI 24,38.425929988001,15.958379970844,11634,38.2935931,15.9841395,village,Oppido Mamertina,80055,20023.707,1590045
80086,Seminara,RCAA821082,INFANZIA BARRITTERI,VIA CHIESA,38.330351052694,15.847554049315,11634,38.2935931,15.9841395,village,Oppido Mamertina,80055,26993.868,1741770
80086,Seminara,RCAA861037,PALMI SAN LEONARDO V. NAZIONALE,VIA NAZIONALE,38.33079448571,15.863255168897,11634,38.2935931,15.9841395,village,Oppido Mamertina,80055,19900.1,1855179
80086,Seminara,RCAA82104T,SEMINARA CAPOLUOGO,VIA SCOPELLITI,38.334312869465,15.871955517484,11634,38.2935931,15.9841395,village,Oppido Mamertina,80055,18686.003,1776904
80060,Platì,RCAA83703A,PLATI'CONTRADA CIRELLA -LACCHI,VIA V. EMANUELE,38.234035232563,16.097071457124,11634,38.2935931,15.9841395,village,Oppido Mamertina,80055,36196.981,2655298
80060,Platì,RCAA83705C,PLATI' VIA ROMA 20,VIA GIARDINELLO SNC,38.22012885353,16.048779900393,11634,38.2935931,15.9841395,village,Oppido Mamertina,80055,21204.32,2291206
80060,Platì,RC1A09500T,"SCUOLA MATERNA ""CASA DEL BAMBINO""",VIA S. PASQUALE 51,38.218962902492,16.046297486307,11634,38.2935931,15.9841395,village,Oppido Mamertina,80055,20942.466,2285306
80093,Taurianova,RCAA86403P,TAURIANOVA ZACCHERIA,VIA DELLA FIERA,38.352609455662,16.01516644884,11634,38.2935931,15.9841395,village,Oppido Mamertina,80055,14150.828,887817
80093,Taurianova,RCAA86401L,TAURIANOVA CANORO V.DE GASPERI,PIAZZA ALDO MORO,38.355619963597,16.012464981961,11634,38.2935931,15.9841395,village,Oppido Mamertina,80055,14690.247,949630
80093,Taurianova,RCAA874017,"SCUOLA MATERNA ST. ""S.MARTINO""",VIA GIOVANNI XXIII,38.361435607694,15.975194863079,11634,38.2935931,15.9841395,village,Oppido Mamertina,80055,13700.034,922363
80093,Taurianova,RCAA86402N,TAURIANOVA S.GIOVANNI DE'ROSSI,PIAZZA ALDO MORO,38.355619963597,16.012464981961,11634,38.2935931,15.9841395,village,Oppido Mamertina,80055,14690.247,949630
80093,Taurianova,RCAA874039,"SCUOLA MATERNA ST.""IATRINOLI""",VIA 8 SETTEMBRE,38.355042631241,16.012976277799,11634,38.2935931,15.9841395,village,Oppido Mamertina,80055,14586.752,937210
80093,Taurianova,RCAA874028,"SCUOLA MATERNA ST. ""GIOVINAZZO""",VIA CORRADO ALVARO 1,38.354540019461,16.012460010132,11634,38.2935931,15.9841395,village,Oppido Mamertina,80055,14357.7,952744
80093,Taurianova,RC1A19100B,"SCUOLA MATERNA ""INFANZIA 2000"" COOPERATIVA SOCIALE",VIA S.ANNA FONDO FALCONE 14/A,38.359222690008,16.021858622756,11634,38.2935931,15.9841395,village,Oppido Mamertina,80055,15415.218,975662
80078,Santa Cristina d'Aspromonte,RCAA832059,INFANZIA SANTA CRISTINA,Non Disponibile,38.234813128,15.975185,11634,38.2935931,15.9841395,village,Oppido Mamertina,80055,15280.657,1191045
80095,Varapodio,RCAA832026,VARAPODIO VIA OGNISSANTI,VIA OGNISSANTI,38.318847947849,15.986183914791,11634,38.2935931,15.9841395,village,Oppido Mamertina,80055,4740.708,315440
80089,Sinopoli,RCAA81902Q,SINOPOLI CAP.VIA TRIESTE,VIA TRIESTE,38.264557592028,15.876913270745,11634,38.2935931,15.9841395,village,Oppido Mamertina,80055,25434.447,1564014
80030,Cosoleto,RC1A19400V,SCUOLA MATERNA SANTA DOMENICA V.M.,VIALE REGINA MARGHERITA,38.280744174335,15.938991156984,11634,38.2935931,15.9841395,village,Oppido Mamertina,80055,14486.742,913381
80055,Oppido Mamertina,RCAA832048,OPPIDO MAM.NA FRAZ.MESSIGNADI,PIAZZA TORRICELLI,38.297264098314,15.99755542215,11634,38.2935931,15.9841395,village,Oppido Mamertina,80055,2957.3,353124
80055,Oppido Mamertina,RCAA832037,OPPIDO MAMERTINA V.F.M. COPPOLA,VIA F M COPPOLA,38.289834936395,15.983755949499,11634,38.2935931,15.9841395,village,Oppido Mamertina,80055,478.99,57480
80055,Oppido Mamertina,RC1ABP500I,Happy Children,via Reggio Calabria,38.291358088989,15.981782016216,11634,38.2935931,15.9841395,village,Oppido Mamertina,80055,403.897,48468
80055,Oppido Mamertina,RC1A13900A,"SCUOLA MATERNA ""MARIA SS. DELLE GRAZIE""",VIA MARSALA,38.270761838447,16.007953529172,11634,38.2935931,15.9841395,village,Oppido Mamertina,80055,5520.634,573763
80055,Oppido Mamertina,RC1A13700P,"SCUOLA MATERNA NON STATALE ""VERGINE IMMACOLATA""",PIAZZA ASSUNTA - CASTELLACE,38.316294188059,15.940044215368,11634,38.2935931,15.9841395,village,Oppido Mamertina,80055,8578.537,575685
80055,Oppido Mamertina,RC1A13800E,"SCUOLA MATERNA ""DIVINA PASTORA""",VIA D. GRIMALDI - PIMINORO,38.27074728346,16.008681647089,11634,38.2935931,15.9841395,village,Oppido Mamertina,80055,5564.569,579035
80025,Caulonia,RCAA82615D,INFANZIA VASI',VIA PITAGORA 27,38.338407609956,16.449529320904,11624,38.411878,16.452507,village,Placanica,80059,12514.93,815841
80025,Caulonia,RCAA826108,S.VITO,VIA S. VITO,38.383503001022,16.411702432949,11624,38.411878,16.452507,village,Placanica,80059,11695.834,1126733
80025,Caulonia,RCAA82616E,SCUOLA INFANZIA,VIALE MAGNA GRECIA,38.344571884905,16.46265065648,11624,38.411878,16.452507,village,Placanica,80059,11163.669,726652
80058,Pazzano,RC1A02300X,"SCUOLA MATERNA NON STATALE ""SANTA MARIA ASSUNTA""",VIA NOCETO 2,38.477449984512,16.452600032302,11624,38.411878,16.452507,village,Placanica,80059,13939.954,1075718
80039,Gioiosa Ionica,RCAA839065,VIA GRAMSCI,PIAZZA ALDO MORO,38.33711032211,16.300049819457,11627,38.321976,16.400907,village,Roccella Ionica,80067,11965.818,850071
80039,Gioiosa Ionica,RCAA839076,C.DA ELISABETTA,C.DA ELISABETTA,38.357301289,16.31571,11627,38.321976,16.400907,village,Roccella Ionica,80067,16284.533,1190033
80039,Gioiosa Ionica,RCAA839087,VIA LIMINA,C.DA LIMINA,38.357301289,16.31571,11627,38.321976,16.400907,village,Roccella Ionica,80067,16284.533,1190033
80025,Caulonia,RCAA82615D,INFANZIA VASI',VIA PITAGORA 27,38.338407609956,16.449529320904,11627,38.321976,16.400907,village,Roccella Ionica,80067,5114.931,361093
80025,Caulonia,RCAA826108,S.VITO,VIA S. VITO,38.383503001022,16.411702432949,11627,38.321976,16.400907,village,Roccella Ionica,80067,13762.835,930566
80025,Caulonia,RCAA82616E,SCUOLA INFANZIA,VIALE MAGNA GRECIA,38.344571884905,16.46265065648,11627,38.321976,16.400907,village,Roccella Ionica,80067,6623.187,467840
80045,Marina di Gioiosa Ionica,RCAA81301Q,MARINA G.J. FRATELLI ROSSELLI,VIA FRATELLI ROSSELLI22,38.301229983708,16.329930041139,11627,38.321976,16.400907,village,Roccella Ionica,80067,7071.496,468174
80045,Marina di Gioiosa Ionica,RCAA81304V,MARINA G.J. FRAZ.SPILINGA,Non Disponibile,38.31255427,16.32622,11627,38.321976,16.400907,village,Roccella Ionica,80067,8171.681,580569
80047,Martone,RC1A08700V,"SCUOLA MATERNA NON STATALE ""MADONNA DEL RIPOSO""",PIAZZA MATTEOTTI 2,38.352347198907,16.287760857122,11627,38.321976,16.400907,village,Roccella Ionica,80067,14908.401,1090172
80067,Roccella Ionica,RCAA854012,ROCCELLA JONICA VIA GIARDINI,VIA GIARDINI,38.32016085142,16.393865608732,11627,38.321976,16.400907,village,Roccella Ionica,80067,1179.443,128172
80067,Roccella Ionica,RCAA854023,ROCCELLA JONICA CANNOLARO,VIA CANNOLARO,38.32309374105,16.396911681136,11627,38.321976,16.400907,village,Roccella Ionica,80067,868.619,102892
80067,Roccella Ionica,RC1A192007,SCUOLA DELL'INFANZIA NON STATALE SACRA FAMIGLIA,VIA ARMANDO DIAZ,38.324449606617,16.403619292953,11627,38.321976,16.400907,village,Roccella Ionica,80067,701.405,91919
80067,Roccella Ionica,RC1AV1500C,Baby Parking Senza Pensieri,Via I Maggio snc,38.320192514329,16.39635883936,11627,38.321976,16.400907,village,Roccella Ionica,80067,876.909,94547
80063,Reggio di Calabria,RCAA875068,FRAZ CANNAVO',VIA VALLONE MANTI,38.104464334113,15.693442007424,11665,38.183669,15.723094,village,Calanna,80016,22984.059,1511976
80063,Reggio di Calabria,RCAA875046,FRAZ.MOSORROFA VIA PROVINCIALE,VIA SCALEA,38.097048208244,15.722432108331,11665,38.183669,15.723094,village,Calanna,80016,27351.287,1881211
80063,Reggio di Calabria,RCAA806158,CONDERA,RIONE CONDERA,38.10534,15.640221106,11665,38.183669,15.723094,village,Calanna,80016,19583.822,1270727
80063,Reggio di Calabria,RCAA85701D,SAN GIOVANNELLO,VALLONE MARIANNAZZO,38.110006990248,15.671302477611,11665,38.183669,15.723094,village,Calanna,80016,19776.901,1293158
80063,Reggio di Calabria,RCAA87105X,TRAPEZI CROCE VALANIDI,VIA TRAPEZI -,38.060310344119,15.66181615956,11665,38.183669,15.723094,village,Calanna,80016,24545.885,1542400
80063,Reggio di Calabria,RCAA804077,INFANZIA GALLICO MARINA,RIONE COMI,38.165971674701,15.647062930216,11665,38.183669,15.723094,village,Calanna,80016,12135.888,816682
80063,Reggio di Calabria,RCAA868021,CATONA MARINA VIA BARACCAMENTO,VIA BARACCAMENTO 11/A,38.183200004596,15.641459960324,11665,38.183669,15.723094,village,Calanna,80016,13501.269,895970
80063,Reggio di Calabria,RCAA86901Q,SCUOLA MATERNA RAVAGNESE,VIA II TRAV SCAGLIOLA N.7,38.074725,15.694628302,11665,38.183669,15.723094,village,Calanna,80016,26434.309,1859373
80063,Reggio di Calabria,RCAA80707P,MALARA DI TRUNCA,VIA S.ANNA AL SOCCORSO,38.104141339364,15.664880574938,11665,38.183669,15.723094,village,Calanna,80016,19948.186,1287092
80063,Reggio di Calabria,RCAA80710V,SANTA VENERE,VIA R. VALANIDI - SANTA VENERE 54 -56,38.058733681324,15.752646031645,11665,38.183669,15.723094,village,Calanna,80016,37079.26,2514218
80063,Reggio di Calabria,RCAA875024,CATAFORIO VIA BORELLI,VIA BORELLI,38.087888986914,15.717327381802,11665,38.183669,15.723094,village,Calanna,80016,27673.537,2059483
80063,Reggio di Calabria,RCAA80706N,FRAZ.OLIVETO,VIA PROVINCIALE 172 - OLIVETO,38.130081913563,15.654662529274,11665,38.183669,15.723094,village,Calanna,80016,16123.367,1004230
80063,Reggio di Calabria,RCAA809036,PLESSO RC DE AMICIS,Non Disponibile,38.10534,15.640221106,11665,38.183669,15.723094,village,Calanna,80016,19583.822,1270727
80063,Reggio di Calabria,RCAA875079,S SPERATO VIA COMUNALE,VIA COMUNALE,38.147983741859,15.660514819439,11665,38.183669,15.723094,village,Calanna,80016,13997.311,880642
80063,Reggio di Calabria,RCAA868054,LOC.VILLA S.GIUSEPPE,VIA DEI MONTI,38.186941695081,15.691067346646,11665,38.183669,15.723094,village,Calanna,80016,7028.839,511948
80063,Reggio di Calabria,RCAA86801X,"SCUOLA MATERNA ""CATONA CENTRO""",VIA FIGURELLA,38.18867296368,15.646861519075,11665,38.183669,15.723094,village,Calanna,80016,10103.147,1098206
80063,Reggio di Calabria,RCAA806125,SPIRITO SANTO,VIA MURO ROTTO,38.103235,15.661651684,11665,38.183669,15.723094,village,Calanna,80016,19986.619,1299170
80063,Reggio di Calabria,RCAA87001X,TRAVERSA SOCCORSO,VIA S. ANNA 9,38.103040008854,15.649220010102,11665,38.183669,15.723094,village,Calanna,80016,19993.337,1324383
80063,Reggio di Calabria,RCAA80709R,TERRETI,VIA REGGIO CAMPI 65 - TERRETI,38.119507422117,15.713415732355,11665,38.183669,15.723094,village,Calanna,80016,25425.521,1659056
80063,Reggio di Calabria,RCAA80708Q,SCUOLA INFANZIA ARANGEA,VIA ARANGEA TRAV. GENOESE,38.089021284815,15.670576215271,11665,38.183669,15.723094,village,Calanna,80016,22843.951,1460672
80063,Reggio di Calabria,RCAA804044,LOC.PIETRA DELLA ZITA,VIA A GARIBALDI TRAV ITRIA1 GALLICO,38.170560010788,15.662830041564,11665,38.183669,15.723094,village,Calanna,80016,10774.922,795854
80063,Reggio di Calabria,RCAA809047,VICO GRAZIELLA,Non Disponibile,38.08826,15.649901982,11665,38.183669,15.723094,village,Calanna,80016,22121.541,1435036
80063,Reggio di Calabria,RCAA871061,POLO LUME,VIA SOTTOLUME PELLARO,38.022156283942,15.648056818682,11665,38.183669,15.723094,village,Calanna,80016,29539.011,1805530
80063,Reggio di Calabria,RCAA87301B,PRINCIPE DI PIEMONTE,VIA POSSIDONEA 65,38.106119981085,15.645810000433,11665,38.183669,15.723094,village,Calanna,80016,19401.274,1253337
80063,Reggio di Calabria,RCAA804099,GALLICO SUPERIORE V.S.DOMENICA,VIA S.DOMENICA DI GALLICO,38.181073125618,15.673414016641,11665,38.183669,15.723094,village,Calanna,80016,10296.071,738394
80063,Reggio di Calabria,RCAA804088,GALLICO PASSO CARACCIOLO,PIAZZA POSTA,38.198922651989,15.683235001113,11665,38.183669,15.723094,village,Calanna,80016,6106.429,618600
80063,Reggio di Calabria,RCAA86903T,LOC. SARACINELLO,VIA LAGANI 1,38.060774435306,15.666633932537,11665,38.183669,15.723094,village,Calanna,80016,24843.529,1630791
80063,Reggio di Calabria,RCAA80702D,SCUOLA DELL'INFANZIA,VIA BARACCONE 18,38.087409980636,15.680029958338,11665,38.183669,15.723094,village,Calanna,80016,24696.356,1610437
80063,Reggio di Calabria,RCAA867025,CARDUCCI,VIA MICELI,38.119457607064,15.654266596604,11665,38.183669,15.723094,village,Calanna,80016,17336.874,1105977
80063,Reggio di Calabria,RCAA805062,"""SANTA CATERINA""",VIA MONTELLO N. 7,38.125790002814,15.65575001559,11665,38.183669,15.723094,village,Calanna,80016,16687.225,1062720
80063,Reggio di Calabria,RCAA867014,TREMULINI MELISSARI,VIA MELISSARI,38.119429982323,15.662944999367,11665,38.183669,15.723094,village,Calanna,80016,18115.138,1186903
80063,Reggio di Calabria,RCAA868032,SALICE VIA CARCARA,VIA CARCARA,38.18415,15.668681663,11665,38.183669,15.723094,village,Calanna,80016,9472.673,637374
80063,Reggio di Calabria,RCAA84203T,RIONE S.GIORGIO EXTRA,VIA PIO UNDICESIMO 164,38.098180013755,15.650500010536,11665,38.183669,15.723094,village,Calanna,80016,20472.297,1355044
80063,Reggio di Calabria,RCAA84202R,RIONE MODENA CENTRO,VIA MODENA PIAZZETTA,38.094670108694,15.646229472662,11665,38.183669,15.723094,village,Calanna,80016,21174.988,1369075
80063,Reggio di Calabria,RCAA87103T,PELLARO C.DA PANTANELLO SS 106,VIA FOSSE DI COMI,38.035390177893,15.664080034785,11665,38.183669,15.723094,village,Calanna,80016,27822.852,1770775
80063,Reggio di Calabria,RCAA80410B,LOC.SAMBATELLO,VIA PRETE MAIO,38.178449486845,15.69096565333,11665,38.183669,15.723094,village,Calanna,80016,8270.179,607646
80063,Reggio di Calabria,RCAA87202L,GEBBIONE - COLLODI,VIALE A.MORO TRAV. II^ INA CASA,38.08598206897,15.636290983418,11665,38.183669,15.723094,village,Calanna,80016,22146.892,1405953
80063,Reggio di Calabria,RCAA87201G,BOTTEGHELLE VIA BERGAMO,VIA BERGAMO,38.093584308805,15.642059768324,11665,38.183669,15.723094,village,Calanna,80016,21340.583,1358149
80063,Reggio di Calabria,RC1A05900P,"SCUOLA MATERNA NON STATALE VILLA ROSA ""LA SCUOLA NEL SOLE""",VIA NAZIONALE - PELLARO N. 373,38.023329995583,15.648279979661,11665,38.183669,15.723094,village,Calanna,80016,29142.512,1825784
80063,Reggio di Calabria,RC1A056007,"SCUOLA MATERNA NON STATALE COMUNALE ""TRAVERSA SOCCORSO""",VIALE ALDO MORO,38.08493297818,15.635278836803,11665,38.183669,15.723094,village,Calanna,80016,22136.862,1405232
80063,Reggio di Calabria,RC1A0B500V,IL TRENINO DEI SOGNI,VIA RAVAGNESE ii TRAV. SCAGLIOLA 19,38.074186468554,15.65394567929,11665,38.183669,15.723094,village,Calanna,80016,23744.971,1557868
80063,Reggio di Calabria,RC1A09100E,"SCUOLA MATERNA NON STATALE COMUNALE ""FRANGIPANE""",VIA FRANGIPANE,38.097761256304,15.637579654662,11665,38.183669,15.723094,village,Calanna,80016,20865.837,1328794
80063,Reggio di Calabria,RC1A2E5005,Giardini d'infanzia,Via Modena 1 traversa 16,38.095446386079,15.641936305174,11665,38.183669,15.723094,village,Calanna,80016,20958.723,1352854
80063,Reggio di Calabria,RC1A16100G,"SCUOLA MATERNA ""SCARABOCCHIANDO""",VIA NAZIONALE PENTIMELE 104,38.139622819417,15.657876263212,11665,38.183669,15.723094,village,Calanna,80016,14959.426,933929
80063,Reggio di Calabria,RC1AHE500I,ANDARE A PICCOLI PASSI,via La Corte Baraccamento Marina 11/A,38.183200004596,15.641459960324,11665,38.183669,15.723094,village,Calanna,80016,13501.269,895970
80063,Reggio di Calabria,RC1A09000P,"SCUOLA MATERNA ""SAN FRANCESCO DA PAOLA""",VIA EMILIA N.6 - Rosalì,38.202300015,15.674049973336,11665,38.183669,15.723094,village,Calanna,80016,7000.61,725902
80063,Reggio di Calabria,RC1A10200Q,"SCUOLA MATERNA NON STATALE ""GREEN ISLAND""",VIA RAVAGNESE 1 TRAV PRIVATA,38.073668012392,15.654227138001,11665,38.183669,15.723094,village,Calanna,80016,23685.617,1547184
80063,Reggio di Calabria,RC1A01407C,SCUOLA MATERNA M. M. GRATIAE PIA ASS. F. M. CORREDENTRICE,PARCO FIAMMA N. 7,38.108964994153,15.654397221416,11665,38.183669,15.723094,village,Calanna,80016,18833.441,1257073
80063,Reggio di Calabria,RC1A00800T,"SCUOLA MATERNA ""BIANCANEVE""",VIALE ALDO MORO II^ TRAV. NICOLO' 29,38.084306077061,15.637220629955,11665,38.183669,15.723094,village,Calanna,80016,22389.536,1430784
80063,Reggio di Calabria,RC1AGT500N,CIF - Casa dell'amiciza,Via Ravagnese superiore 128,38.07617999058,15.654240015733,11665,38.183669,15.723094,village,Calanna,80016,23264.154,1512520
80063,Reggio di Calabria,RC1ABU500M,BABY HOUSE,contrada Gagliardi località Arangea 58,38.085320944405,15.668239918607,11665,38.183669,15.723094,village,Calanna,80016,22588.571,1463478
80063,Reggio di Calabria,RC1A03700T,"SCUOLA MATERNA NON STATALE ""SAN ROCCO""",VIA DELLE MIMOSE3,38.082419982218,15.687550034229,11665,38.183669,15.723094,village,Calanna,80016,25553.792,1674287
80063,Reggio di Calabria,RC1A7P500C,SCUOLA MATERNA BAFFY - IMPARARE GIOCANDO,VIA DEL GELSOMINO 5,38.101409980143,15.659000014727,11665,38.183669,15.723094,village,Calanna,80016,21145.982,1377031
80063,Reggio di Calabria,RC1A118009,"SCUOLA MATERNA NON STATALE ""SUOR EMMA PIA""",VIA MADONNA DI FATIMA 4,38.113325668736,15.668170265151,11665,38.183669,15.723094,village,Calanna,80016,19191.672,1246473
80063,Reggio di Calabria,RC1A07000D,"SCUOLA MATERNA ""L'ALBERO AZZURRO""",VIA GAGLIARDI N 37,38.085180017206,15.666669959047,11665,38.183669,15.723094,village,Calanna,80016,22304.015,1429330
80063,Reggio di Calabria,RC1A148005,"SCUOLA MATERNA ""SACRO CUORE""",VIA LORETO PESCATORI16,38.096160016999,15.635290041396,11665,38.183669,15.723094,village,Calanna,80016,20856.616,1313528
80063,Reggio di Calabria,RC1A021019,"Scuola materna non statale ""Valle Verde""",VIA CARRUBARA SAN CRISTOFORO 32,38.101639979566,15.674130020511,11665,38.183669,15.723094,village,Calanna,80016,20845.248,1398525
80063,Reggio di Calabria,RC1A06200E,"SCUOLA MATERNA NON STATALE ""MONSIGNOR MONTALBETTI""",VIA LONGITUDINALE - PELLARO N. 36,38.025718101948,15.651971022618,11665,38.183669,15.723094,village,Calanna,80016,28892.816,1809722
80063,Reggio di Calabria,RC1AN8500O,"Scuola Infanzia paritaria ""N. e F. Giunta""",Via Olmo snc - Gallina,38.087260007433,15.679604995847,11665,38.183669,15.723094,village,Calanna,80016,24636.88,1603300
80063,Reggio di Calabria,RC1A06100P,SCUOLA MATERNA CIPRIANI,VIA CROCEVIA - PELLARO N. 30/A,38.03356018489,15.664894313163,11665,38.183669,15.723094,village,Calanna,80016,28186.762,1815269
80063,Reggio di Calabria,RC1A164003,"SCUOLA MATERNA NON STATALE ""MARIA PIA DI SAVOIA""",VIA S. GIOVANNI N. 113 PELLARO,38.096762707381,15.745702617215,11665,38.183669,15.723094,village,Calanna,80016,32161.838,2236703
80063,Reggio di Calabria,RC1A073001,"SCUOLA MATERNA ""LA NUVOLETTA""",VIA CICCARELLO34/C,38.084820014464,15.652539998131,11665,38.183669,15.723094,village,Calanna,80016,22785.457,1497975
80063,Reggio di Calabria,RC1A072005,"SCUOLA MATERNA ""LA SIRENETTA""",VIA CICCARELLO IV TRAVERSA16,38.085346289732,15.653517055169,11665,38.183669,15.723094,village,Calanna,80016,22880.959,1508515
80063,Reggio di Calabria,RC1A050008,"SCUOLA MATERNA ""CAPPUCCETTO ROSSO""",VIA TEMESA 41,38.0872200048,15.642959985716,11665,38.183669,15.723094,village,Calanna,80016,22044.126,1401110
80063,Reggio di Calabria,RC1A080004,"ASSOCIAZIONE ""BIMBOLANDIA"" SCUOLA DELL'INFANZIA PARITARIA",VIA PALMI 13,38.091609984679,15.642069995237,11665,38.183669,15.723094,village,Calanna,80016,21540.353,1373325
80063,Reggio di Calabria,RC1A06800D,"SCUOLA MATERNA NON STATALE ""TOPOLINO""",VICO S. ANNA ANGOLO VIA POLISTENA,38.0881719395,15.643252973487,11665,38.183669,15.723094,village,Calanna,80016,21973.581,1395233
80063,Reggio di Calabria,RC1A155008,"SCUOLA MATERNA NON STATALE ""HANSEL E GRETHEL""",VIA SAN SPERATO II° TRATTO,38.094594332775,15.656797788704,11665,38.183669,15.723094,village,Calanna,80016,21411.048,1478047
80063,Reggio di Calabria,RC1A077008,"SCUOLA MATERNA NON STATALE ""CATERINA TROIANI""",SBARRE CENTRALI71,38.099799984181,15.642769967971,11665,38.183669,15.723094,village,Calanna,80016,20351.87,1303017
80063,Reggio di Calabria,RC1A150005,"SCUOLA MATERNA ""FANTASILANDIA""",VIA ENOTRIA 81,38.12383999495,15.655869960625,11665,38.183669,15.723094,village,Calanna,80016,16872.045,1074781
80063,Reggio di Calabria,RC1A08200Q,"SCUOLA MATERNA ""KINDERGARTEN""",VIA SALITA ENEL TRAV COSTANTINO,38.069472136505,15.664152535249,11665,38.183669,15.723094,village,Calanna,80016,23572.75,1485504
80063,Reggio di Calabria,RC1A80502B,"SCUOLA MATERNA ""IL TUO NIDO""",Via Statale 18 n. 1/a,38.118194999,15.653456117,11665,38.183669,15.723094,village,Calanna,80016,17472.478,1118539
80063,Reggio di Calabria,RC1A022026,"SCUOLA MATERNA NON STATALE COMUNALE ""PIO XI""",VIA PIO XI INA CASA,38.087892381903,15.650996864363,11665,38.183669,15.723094,village,Calanna,80016,22354.483,1451819
80063,Reggio di Calabria,RC1A178001,"Scuola Materna ""NUMBER ONE""",VIA MANFROCE N 93/F,38.123720008006,15.662519994966,11665,38.183669,15.723094,village,Calanna,80016,17535.606,1150727
80063,Reggio di Calabria,RC1A05400G,SCUOLA MATERNA MADRE LINDA LUCOTTI,VIA MARIA AUSILIATRICE 3,38.093520010865,15.661909960053,11665,38.183669,15.723094,village,Calanna,80016,21430.938,1373462
80063,Reggio di Calabria,RC1A02106E,"SCUOLA DELL'INFANZIA ""ARCHIMEDE""",VIA S.ANNA II^ TRONCO 2/B,38.102929996374,15.649069974036,11665,38.183669,15.723094,village,Calanna,80016,19977.756,1322513
80063,Reggio di Calabria,RC1A15700X,"SCUOLA MATERNA NON STATALE COMUNALE ""GENOESE""",VIA ASCHENEZ,38.115573403764,15.655067150356,11665,38.183669,15.723094,village,Calanna,80016,17943.036,1154159
80063,Reggio di Calabria,RC1A149001,"SCUOLA MATERNA NON STATALE ""NUOVI ORIZZONTI""",CONTRADA MARIANNAZZO 18,38.113310019538,15.664259994246,11665,38.183669,15.723094,village,Calanna,80016,18869.86,1224727
80063,Reggio di Calabria,RC1A08100X,"SCUOLA MATERNA ""PARADISO""",VIALE CALABRIA TRAV. VIII 49,38.088932280245,15.641425375481,11665,38.183669,15.723094,village,Calanna,80016,21731.749,1374526
80063,Reggio di Calabria,RC1A17400N,"SCUOLA INFANZIA PARITARIA ""TOPOLINO & COMPANY""",VIA QUARNARO 14/L,38.169289984819,15.649670034484,11665,38.183669,15.723094,village,Calanna,80016,11567.244,758155
80063,Reggio di Calabria,RC1A02102A,"SCUOLA MATERNA NON STATALE ""VOLTO SANTO""",VIA P. ANDILORO 19,38.104379981805,15.652990022513,11665,38.183669,15.723094,village,Calanna,80016,19657.328,1288835
80063,Reggio di Calabria,RC1A156004,"SCUOLA MATERNA ""INSIEME PER FARE""",VIA DALMAZIA N. 106,38.11241998715,15.65450002237,11665,38.183669,15.723094,village,Calanna,80016,18535.475,1223639
80063,Reggio di Calabria,RC1AR3500V,"Scuola dell'Infanzia ""La casa di Alice""",Via Cardinale Portanova 58,38.11668000562,15.657299997125,11665,38.183669,15.723094,village,Calanna,80016,17912.314,1143563
80063,Reggio di Calabria,RC1A11100E,"ASSOCIAZIONE SOCIO-CULTURALE ""SCUOLA ATTIVA""",VIA ROMA 7/A -ANG. VIA B. BUOZZI,38.116639982032,15.651029998274,11665,38.183669,15.723094,village,Calanna,80016,17741.941,1131296
80063,Reggio di Calabria,RC1A15800Q,"SCUOLA INFANZIA COMUNALE ""PARCO CASERTA""",VIA ROSSELLI 34,38.114840010235,15.654770003471,11665,38.183669,15.723094,village,Calanna,80016,17982.5,1159428
80063,Reggio di Calabria,RC1A006006,"SCUOLA MATERNA ""DISNEYLAND""",VIA SBARRE INFERIORI VICO CIECO 11/B,38.099360018084,15.637500013987,11665,38.183669,15.723094,village,Calanna,80016,20812.495,1322393
80063,Reggio di Calabria,RC1A114002,"SCUOLA MATERNA ""FANTASY'S SCHOOL""",CONTRADA SARACINELLO 69/C,38.067019995333,15.663950031467,11665,38.183669,15.723094,village,Calanna,80016,23814.858,1501383
80063,Reggio di Calabria,RC1A8F500F,Scuola materna non statale E.T. Educational Technology,Via Cardinale Portanova 128,38.115669986287,15.660519989049,11665,38.183669,15.723094,village,Calanna,80016,18214.407,1165315
80063,Reggio di Calabria,RC1A07900X,"SCUOLA DELL'INFANZIA ""ALICE""",VIA SBARRE SUPERIORI TR.PRIVATA4,38.087389989797,15.646780038088,11665,38.183669,15.723094,village,Calanna,80016,21880.699,1417706
80063,Reggio di Calabria,RC1A00200V,"SCUOLA MATERNA NON STATALE ""WALT DISNEY""",C.SO GARIBALDI 404,38.105060005609,15.640000000428,11665,38.183669,15.723094,village,Calanna,80016,19583.822,1270727
80063,Reggio di Calabria,RC1A08300G,"SCUOLA MATERNA ""L'ISOLA CHE NON C'E'""",LORETO 12 TR.BASILE,38.096219989516,15.637140011246,11665,38.183669,15.723094,village,Calanna,80016,21018.545,1332959
80063,Reggio di Calabria,RC1A49500H,CRESCERE INSIEME,Via Dante 5 B,38.117749997469,15.656839998279,11665,38.183669,15.723094,village,Calanna,80016,17873.63,1144037
80063,Reggio di Calabria,RC1A11700D,"SCUOLA MATERNA NON STATALE ""S. VINCENZO DE' PAOLI""",VIA ARCOVITO 1,38.104780008134,15.644209978936,11665,38.183669,15.723094,village,Calanna,80016,19606.481,1277962
80063,Reggio di Calabria,RC1A08900E,"SCUOLA INFANZIA PARITARIA ""SACRO CUORE""",Via Regina Elena 29 - Catona,38.186015745696,15.646668704901,11665,38.183669,15.723094,village,Calanna,80016,13206.408,856501
80063,Reggio di Calabria,RC1A75500C,Children & Family size,Via argine destro Annunziata 97,38.121140016299,15.652500016453,11665,38.183669,15.723094,village,Calanna,80016,17524.187,1119563
80063,Reggio di Calabria,RC1A19600E,"SCUOLA DELL'INFANZIA ""S. FRANCESCO DA PAOLA"" DON ORIONE",VIA ARCHIMEDE 9,38.118309992421,15.65924996308,11665,38.183669,15.723094,village,Calanna,80016,17861.221,1171906
80063,Reggio di Calabria,RC1A176009,"SCUOLA INFANZIA ""WINNIE THE POOH""",VIA SPIRITO SANTO 293,38.105450015564,15.66534000247,11665,38.183669,15.723094,village,Calanna,80016,20037.523,1301919
80063,Reggio di Calabria,RC1A11600N,"SCUOLA per l'infanzia ""MONTESSORI""",VIA FATA MORGANA 81,38.108019990897,15.647370040253,11665,38.183669,15.723094,village,Calanna,80016,19060.728,1226146
80063,Reggio di Calabria,RC1A10100X,"SCUOLA MATERNA ""PIANETA BABY""",VIA PROLUNGAMENTO TRAV MARRA 3,38.169386804825,15.649932941143,11665,38.183669,15.723094,village,Calanna,80016,11558.718,757131
80077,San Roberto,RCAA83404X,S. ROBERTO CAPOLUOGO,S. ROBERTO LOCALITA' CAPOLUOGO,38.206292114386,15.728094760026,11665,38.183669,15.723094,village,Calanna,80016,7634.164,555531
80016,Calanna,RCAA868043,ROSALI',VIA PROVINCIALE,38.176737540571,15.721536185345,11665,38.183669,15.723094,village,Calanna,80016,2334.861,173981
80001,Africo,RCAA81004B,VIA FRATELLI BANDIERA,VIA FRATELLI BANDIERA 53,38.051391660784,16.132310756695,11669,38.013268,16.082604,village,Bruzzano Zeffirio,80015,9530.906,632680
80001,Africo,RC1A105007,"SCUOLA MATERNA NON STATALE ""ABIGAIL""",VIA G. MATTEOTTI 45,38.051839991497,16.136089980666,11669,38.013268,16.082604,village,Bruzzano Zeffirio,80015,9857.725,649346
80001,Africo,RC1A1D500G,ANTONIA,Via Trieste snc,38.049955438443,16.129155157051,11669,38.013268,16.082604,village,Bruzzano Zeffirio,80015,9121.939,597127
80033,Ferruzzano,RCAA81006D,INFANZIA CANALELLO,VIA CANALELLO,38.017360006001,16.133639992277,11669,38.013268,16.082604,village,Bruzzano Zeffirio,80015,6140.996,428454
80033,Ferruzzano,RC1A027007,"SCUOLA MATERNA NON STATALE ""SANTINA""",G. Cidoni,38.017605009031,16.132044999922,11669,38.013268,16.082604,village,Bruzzano Zeffirio,80015,6047.708,423043
80014,Brancaleone,RCAA810018,BRANCALEONE CAP.V.MILITE IGNOTO,VIA MILITE IGNOTO,37.970190809243,16.101662192605,11669,38.013268,16.082604,village,Bruzzano Zeffirio,80015,6058.949,443282
80014,Brancaleone,RC1A03100V,"SCUOLA MATERNA NON STATALE ""SAN GIUSEPPE""",VIA MILITE IGNOTO,37.970190809243,16.101662192605,11669,38.013268,16.082604,village,Bruzzano Zeffirio,80015,6058.949,443282
80014,Brancaleone,RC1A030003,"SCUOLA MATERNA NON STATALE ""LA COCCINELLA""",VIA ZELANTE,37.962274860338,16.0929518132,11669,38.013268,16.082604,village,Bruzzano Zeffirio,80015,6912.038,566072
80079,Sant'Agata del Bianco,RCAA84404E,INFANZIA SANT'AGATA DEL BIANCO,VIA VENEZIA,38.092567522829,16.083837693874,11669,38.013268,16.082604,village,Bruzzano Zeffirio,80015,18168.313,1708463
80015,Bruzzano Zeffirio,RC1ATT500P,"Scuola dell'Infanzia ""Casa del bambino""",Via Roma 29,38.013000012381,16.082519980186,11669,38.013268,16.082604,village,Bruzzano Zeffirio,80015,86.47,10376
80001,Africo,RCAA81004B,VIA FRATELLI BANDIERA,VIA FRATELLI BANDIERA 53,38.051391660784,16.132310756695,11670,37.9899474,16.1187617,village,Bruzzano Zeffirio,80015,8462.15,516504
80001,Africo,RC1A105007,"SCUOLA MATERNA NON STATALE ""ABIGAIL""",VIA G. MATTEOTTI 45,38.051839991497,16.136089980666,11670,37.9899474,16.1187617,village,Bruzzano Zeffirio,80015,8158.696,482473
80001,Africo,RC1A1D500G,ANTONIA,Via Trieste snc,38.049955438443,16.129155157051,11670,37.9899474,16.1187617,village,Bruzzano Zeffirio,80015,8864.714,516963
80033,Ferruzzano,RCAA81006D,INFANZIA CANALELLO,VIA CANALELLO,38.017360006001,16.133639992277,11670,37.9899474,16.1187617,village,Bruzzano Zeffirio,80015,3514.26,202127
80033,Ferruzzano,RC1A027007,"SCUOLA MATERNA NON STATALE ""SANTINA""",G. Cidoni,38.017605009031,16.132044999922,11670,37.9899474,16.1187617,village,Bruzzano Zeffirio,80015,3661.957,214068
80014,Brancaleone,RCAA810018,BRANCALEONE CAP.V.MILITE IGNOTO,VIA MILITE IGNOTO,37.970190809243,16.101662192605,11670,37.9899474,16.1187617,village,Bruzzano Zeffirio,80015,3189.595,183661
80014,Brancaleone,RC1A03100V,"SCUOLA MATERNA NON STATALE ""SAN GIUSEPPE""",VIA MILITE IGNOTO,37.970190809243,16.101662192605,11670,37.9899474,16.1187617,village,Bruzzano Zeffirio,80015,3189.595,183661
80014,Brancaleone,RC1A030003,"SCUOLA MATERNA NON STATALE ""LA COCCINELLA""",VIA ZELANTE,37.962274860338,16.0929518132,11670,37.9899474,16.1187617,village,Bruzzano Zeffirio,80015,4527.508,300383
80079,Sant'Agata del Bianco,RCAA84404E,INFANZIA SANT'AGATA DEL BIANCO,VIA VENEZIA,38.092567522829,16.083837693874,11670,37.9899474,16.1187617,village,Bruzzano Zeffirio,80015,18356.899,1394495
80015,Bruzzano Zeffirio,RC1ATT500P,"Scuola dell'Infanzia ""Casa del bambino""",Via Roma 29,38.013000012381,16.082519980186,11670,37.9899474,16.1187617,village,Bruzzano Zeffirio,80015,5433.122,499819
80001,Africo,RCAA81004B,VIA FRATELLI BANDIERA,VIA FRATELLI BANDIERA 53,38.051391660784,16.132310756695,11671,38.0271632,16.0541214,village,Bruzzano Zeffirio,80015,13936.725,1161378
80001,Africo,RC1A105007,"SCUOLA MATERNA NON STATALE ""ABIGAIL""",VIA G. MATTEOTTI 45,38.051839991497,16.136089980666,11671,38.0271632,16.0541214,village,Bruzzano Zeffirio,80015,14263.543,1178044
80001,Africo,RC1A1D500G,ANTONIA,Via Trieste snc,38.049955438443,16.129155157051,11671,38.0271632,16.0541214,village,Bruzzano Zeffirio,80015,13527.757,1125825
80033,Ferruzzano,RCAA81006D,INFANZIA CANALELLO,VIA CANALELLO,38.017360006001,16.133639992277,11671,38.0271632,16.0541214,village,Bruzzano Zeffirio,80015,10546.814,957152
80033,Ferruzzano,RC1A027007,"SCUOLA MATERNA NON STATALE ""SANTINA""",G. Cidoni,38.017605009031,16.132044999922,11671,38.0271632,16.0541214,village,Bruzzano Zeffirio,80015,10453.526,951741
80014,Brancaleone,RCAA810018,BRANCALEONE CAP.V.MILITE IGNOTO,VIA MILITE IGNOTO,37.970190809243,16.101662192605,11671,38.0271632,16.0541214,village,Bruzzano Zeffirio,80015,10240.899,945116
80014,Brancaleone,RC1A03100V,"SCUOLA MATERNA NON STATALE ""SAN GIUSEPPE""",VIA MILITE IGNOTO,37.970190809243,16.101662192605,11671,38.0271632,16.0541214,village,Bruzzano Zeffirio,80015,10240.899,945116
80014,Brancaleone,RC1A030003,"SCUOLA MATERNA NON STATALE ""LA COCCINELLA""",VIA ZELANTE,37.962274860338,16.0929518132,11671,38.0271632,16.0541214,village,Bruzzano Zeffirio,80015,11093.987,1067906
80079,Sant'Agata del Bianco,RCAA84404E,INFANZIA SANT'AGATA DEL BIANCO,VIA VENEZIA,38.092567522829,16.083837693874,11671,38.0271632,16.0541214,village,Bruzzano Zeffirio,80015,13485.092,1505932
80015,Bruzzano Zeffirio,RC1ATT500P,"Scuola dell'Infanzia ""Casa del bambino""",Via Roma 29,38.013000012381,16.082519980186,11671,38.0271632,16.0541214,village,Bruzzano Zeffirio,80015,4395.861,527503
80061,Polistena,RCAA85001P,POLISTENA CATENA VIA DIAZ,VIA DIAZ,38.404839285732,16.070488756163,11532,38.415957,16.0974291,village,Cinquefrondi,80027,3727.808,271802
80061,Polistena,RCAA85003R,POLISTENA VIA P. NENNI,VIA P.NENNI,38.407770384612,16.081038292805,11532,38.415957,16.0974291,village,Cinquefrondi,80027,2634.464,197644
80061,Polistena,RCAA85002Q,POLISTENA VIA RISORGIMENTO,VIA RISORGIMENTO,38.408600785486,16.071093447346,11532,38.415957,16.0974291,village,Cinquefrondi,80027,3356.879,217725
80061,Polistena,RCAA86301R,POLISTENA CAPOLUOGO VIA TRIESTE,VIA TRIESTESNC,38.41321,16.056846376,11532,38.415957,16.0974291,village,Cinquefrondi,80027,4436.833,385466
80061,Polistena,RCAA86302T,POLISTENA RIONE VILLA MARIA,RIONE VILLA MARIA SNC,38.40779849264,16.066243724086,11532,38.415957,16.0974291,village,Cinquefrondi,80027,3785.193,242441
80061,Polistena,RC1AEM500A,Scuola Infanzia Disneyland,VIA PERUGIA 14A,38.401407494306,16.070136175366,11532,38.415957,16.0974291,village,Cinquefrondi,80027,3979.899,286638
80071,San Giorgio Morgeto,RCAA80204C,"SC. DELL'INFANZIA ""VILLOTTA""",CONTRADA VILLOTTA,38.39043,16.0934,11532,38.415957,16.0974291,village,Cinquefrondi,80027,6101.98,453488
80071,San Giorgio Morgeto,RCAA80202A,"SC. DELL'INFANZIA ""FERRARO""",FRAZ. FERRARO,38.390159542162,16.07646775822,11532,38.415957,16.0974291,village,Cinquefrondi,80027,4932.157,414115
80071,San Giorgio Morgeto,RCAA802019,S. MATERNA SAN GIORGIO MORGETO,CONTRADA MELIA SNC,38.383709854668,16.107247053535,11532,38.415957,16.0974291,village,Cinquefrondi,80027,7787.725,586813
80044,Mammola,RCAA81305X,MAMMOLA PIAZZA MAGENTA,PIAZZA MAGENTA,38.362336550587,16.238970134461,11532,38.415957,16.0974291,village,Cinquefrondi,80027,16899.12,899801
80003,Anoia,RCAA846046,SCUOLA DELL'INFANZIA ANOIA SUP.,VIA DOTT S. GEMELLI,38.430529653366,16.09635393712,11532,38.415957,16.0974291,village,Cinquefrondi,80027,2668.936,185588
80003,Anoia,RCAA846068,SCUOLA DELL'INFANZIA ANOIA INFERIORE,Non Disponibile,38.43618,16.0794,11532,38.415957,16.0974291,village,Cinquefrondi,80027,4520.11,297893
80037,Giffone,RCAA846057,SCUOLA DELL'INFANZIA GIFFONE,VIA A. COSTA,38.438182982498,16.148353041128,11532,38.415957,16.0974291,village,Cinquefrondi,80027,12776.182,862714
80027,Cinquefrondi,RCAA846035,"CINQUEFRONDI ""ALVARO""V.GARIBALD",VIA GARIBALDI,38.414576008497,16.097883766902,11532,38.415957,16.0974291,village,Cinquefrondi,80027,269.179,32302
80027,Cinquefrondi,RCAA846024,CINQUEFRONDI VIA BRUNO BUOZZI,VIA BRUNO BUOZZI,38.418446942748,16.093061812449,11532,38.415957,16.0974291,village,Cinquefrondi,80027,737.507,55406
80027,Cinquefrondi,RC1A18900B,LA BANDA DEI BIRICCHINI SOCIETÀ COOPERATIVA SOCIALE,VIA FRANCESCO PEPE SN,38.413274603998,16.087645374821,11532,38.415957,16.0974291,village,Cinquefrondi,80027,1620.076,108488
80067,Roccella Ionica,RCAA854012,ROCCELLA JONICA VIA GIARDINI,VIA GIARDINI,38.32016085142,16.393865608732,11678,38.381377,16.409007,village,Caulonia,80025,10354.532,1266308
80067,Roccella Ionica,RCAA854023,ROCCELLA JONICA CANNOLARO,VIA CANNOLARO,38.32309374105,16.396911681136,11678,38.381377,16.409007,village,Caulonia,80025,9807.158,1204706
80067,Roccella Ionica,RC1A192007,SCUOLA DELL'INFANZIA NON STATALE SACRA FAMIGLIA,VIA ARMANDO DIAZ,38.324449606617,16.403619292953,11678,38.381377,16.409007,village,Caulonia,80025,9242.124,1145995
80067,Roccella Ionica,RC1AV1500C,Baby Parking Senza Pensieri,Via I Maggio snc,38.320192514329,16.39635883936,11678,38.381377,16.409007,village,Caulonia,80025,10152.539,1236225
80058,Pazzano,RC1A02300X,"SCUOLA MATERNA NON STATALE ""SANTA MARIA ASSUNTA""",VIA NOCETO 2,38.477449984512,16.452600032302,11678,38.381377,16.409007,village,Caulonia,80025,23149.353,2197969
80025,Caulonia,RCAA82615D,INFANZIA VASI',VIA PITAGORA 27,38.338407609956,16.449529320904,11678,38.381377,16.409007,village,Caulonia,80025,9617.287,668635
80025,Caulonia,RCAA826108,S.VITO,VIA S. VITO,38.383503001022,16.411702432949,11678,38.381377,16.409007,village,Caulonia,80025,686.988,55895
80025,Caulonia,RCAA82616E,SCUOLA INFANZIA,VIALE MAGNA GRECIA,38.344571884905,16.46265065648,11678,38.381377,16.409007,village,Caulonia,80025,7946.939,552527
80067,Roccella Ionica,RCAA854012,ROCCELLA JONICA VIA GIARDINI,VIA GIARDINI,38.32016085142,16.393865608732,11679,38.4133895,16.4002152,village,Caulonia,80025,22151.619,1439395
80067,Roccella Ionica,RCAA854023,ROCCELLA JONICA CANNOLARO,VIA CANNOLARO,38.32309374105,16.396911681136,11679,38.4133895,16.4002152,village,Caulonia,80025,21787.508,1417141
80067,Roccella Ionica,RC1A192007,SCUOLA DELL'INFANZIA NON STATALE SACRA FAMIGLIA,VIA ARMANDO DIAZ,38.324449606617,16.403619292953,11679,38.4133895,16.4002152,village,Caulonia,80025,21265.289,1369305
80067,Roccella Ionica,RC1AV1500C,Baby Parking Senza Pensieri,Via I Maggio snc,38.320192514329,16.39635883936,11679,38.4133895,16.4002152,village,Caulonia,80025,21849.084,1405770
80058,Pazzano,RC1A02300X,"SCUOLA MATERNA NON STATALE ""SANTA MARIA ASSUNTA""",VIA NOCETO 2,38.477449984512,16.452600032302,11679,38.4133895,16.4002152,village,Caulonia,80025,18949.963,1397697
80025,Caulonia,RCAA82615D,INFANZIA VASI',VIA PITAGORA 27,38.338407609956,16.449529320904,11679,38.4133895,16.4002152,village,Caulonia,80025,16727.081,1080988
80025,Caulonia,RCAA826108,S.VITO,VIA S. VITO,38.383503001022,16.411702432949,11679,38.4133895,16.4002152,village,Caulonia,80025,8626.277,565464
80025,Caulonia,RCAA82616E,SCUOLA INFANZIA,VIALE MAGNA GRECIA,38.344571884905,16.46265065648,11679,38.4133895,16.4002152,village,Caulonia,80025,15056.733,964880
80067,Roccella Ionica,RCAA854012,ROCCELLA JONICA VIA GIARDINI,VIA GIARDINI,38.32016085142,16.393865608732,11680,38.4196455,16.4131773,village,Caulonia,80025,19793.374,1793425
80067,Roccella Ionica,RCAA854023,ROCCELLA JONICA CANNOLARO,VIA CANNOLARO,38.32309374105,16.396911681136,11680,38.4196455,16.4131773,village,Caulonia,80025,19429.264,1771171
80067,Roccella Ionica,RC1A192007,SCUOLA DELL'INFANZIA NON STATALE SACRA FAMIGLIA,VIA ARMANDO DIAZ,38.324449606617,16.403619292953,11680,38.4196455,16.4131773,village,Caulonia,80025,18907.044,1723335
80067,Roccella Ionica,RC1AV1500C,Baby Parking Senza Pensieri,Via I Maggio snc,38.320192514329,16.39635883936,11680,38.4196455,16.4131773,village,Caulonia,80025,19490.839,1759800
80058,Pazzano,RC1A02300X,"SCUOLA MATERNA NON STATALE ""SANTA MARIA ASSUNTA""",VIA NOCETO 2,38.477449984512,16.452600032302,11680,38.4196455,16.4131773,village,Caulonia,80025,17824.595,1408432
80025,Caulonia,RCAA82615D,INFANZIA VASI',VIA PITAGORA 27,38.338407609956,16.449529320904,11680,38.4196455,16.4131773,village,Caulonia,80025,14368.837,1435018
80025,Caulonia,RCAA826108,S.VITO,VIA S. VITO,38.383503001022,16.411702432949,11680,38.4196455,16.4131773,village,Caulonia,80025,7719.013,953511
80025,Caulonia,RCAA82616E,SCUOLA INFANZIA,VIALE MAGNA GRECIA,38.344571884905,16.46265065648,11680,38.4196455,16.4131773,village,Caulonia,80025,12012.992,1410222
80067,Roccella Ionica,RCAA854012,ROCCELLA JONICA VIA GIARDINI,VIA GIARDINI,38.32016085142,16.393865608732,11681,38.3448169,16.467436,village,Caulonia,80025,7564.134,533670
80067,Roccella Ionica,RCAA854023,ROCCELLA JONICA CANNOLARO,VIA CANNOLARO,38.32309374105,16.396911681136,11681,38.3448169,16.467436,village,Caulonia,80025,7200.023,511416
80067,Roccella Ionica,RC1A192007,SCUOLA DELL'INFANZIA NON STATALE SACRA FAMIGLIA,VIA ARMANDO DIAZ,38.324449606617,16.403619292953,11681,38.3448169,16.467436,village,Caulonia,80025,6677.804,463580
80067,Roccella Ionica,RC1AV1500C,Baby Parking Senza Pensieri,Via I Maggio snc,38.320192514329,16.39635883936,11681,38.3448169,16.467436,village,Caulonia,80025,7261.599,500045
80058,Pazzano,RC1A02300X,"SCUOLA MATERNA NON STATALE ""SANTA MARIA ASSUNTA""",VIA NOCETO 2,38.477449984512,16.452600032302,11681,38.3448169,16.467436,village,Caulonia,80025,22879.535,1465531
80025,Caulonia,RCAA82615D,INFANZIA VASI',VIA PITAGORA 27,38.338407609956,16.449529320904,11681,38.3448169,16.467436,village,Caulonia,80025,2139.596,175263
80025,Caulonia,RCAA826108,S.VITO,VIA S. VITO,38.383503001022,16.411702432949,11681,38.3448169,16.467436,village,Caulonia,80025,7022.205,471133
80025,Caulonia,RCAA82616E,SCUOLA INFANZIA,VIALE MAGNA GRECIA,38.344571884905,16.46265065648,11681,38.3448169,16.467436,village,Caulonia,80025,490.26,60415
80008,Benestare,RCAA81509Q,INFANZIA BENESTARE BELLORO,FRAZIONE DI BELLORO,38.14698502982,16.130434651764,11572,38.148371,16.066002,village,San Luca,80074,8572.748,703609
80008,Benestare,RCAA81510T,INFANZIA RUSSELLINA,CONTRADA RUSSELLINA,38.160553975364,16.131837664953,11572,38.148371,16.066002,village,San Luca,80074,14146.242,1063200
80008,Benestare,RCAA81508P,INFANZIA BENESTARE CAPOLUOGO,VIA VITTORIO EMANUELE,38.185756372415,16.140202705892,11572,38.148371,16.066002,village,San Luca,80074,18113.242,1399214
80023,Careri,RCAA81511V,INFANZIA CARERI CENTRO,VIA FRA' DIEGO DA CARERI,38.179485947743,16.117462713295,11572,38.148371,16.066002,village,San Luca,80074,14678.186,1191897
80023,Careri,RCAA81506L,INFANZIA NATILE NUOVO,VIALE ASPROMONTE,38.186217459937,16.086379073323,11572,38.148371,16.066002,village,San Luca,80074,15907.02,1137190
80023,Careri,RCAA815131,SCUOLA INFANZIA NATILE SUPERIOR,VIA CARIATI,38.189594355896,16.052528145793,11572,38.148371,16.066002,village,San Luca,80074,19808.194,1453110
80031,Delianuova,RCAA817013,DELIANUOVA LARGO DELIA,VIA CARMELIA 2-4,38.236190019285,15.917750036306,11572,38.148371,16.066002,village,San Luca,80074,33908.575,4300772
80084,Scido,RCAA817024,SCIDO ZONA P.E.E.P.,ZONA P.E.E.P.,38.253989527111,15.936275156585,11572,38.148371,16.066002,village,San Luca,80074,38327.541,4587219
80084,Scido,RC1A14500N,"SCUOLA MATERNA ""S. BIAGIO""",VIA VICO CHIESA 2,38.244389993252,15.933259993761,11572,38.148371,16.066002,village,San Luca,80074,36976.304,4486324
80012,Bovalino,RCAA84504A,BOVALINO BORGO,VIA XXIV MAGGIO,38.149299800822,16.177351890268,11572,38.148371,16.066002,village,San Luca,80074,11801.976,979453
80012,Bovalino,RCAA84505B,BOVALINO SANT'ELENA,VIA SANT'ELENA,38.154077638399,16.186417930261,11572,38.148371,16.066002,village,San Luca,80074,12617.341,1077301
80012,Bovalino,RCAA84506C,BOVALINO CAPOLUOGO,VIA EUCLIDE,38.151708884914,16.172815862646,11572,38.148371,16.066002,village,San Luca,80074,11999.373,899843
80012,Bovalino,RCAA81402L,BOVALINO BOSCO,BOSCO S. IPPOLITO,38.134420761734,16.141957541751,11572,38.148371,16.066002,village,San Luca,80074,7611.669,606392
80012,Bovalino,RC1A185004,"SC. DELL'INFANZIA ""GIAMBURRASCA""",VIA FONDACO VECCHIO SNC,38.150694984082,16.177104979836,11572,38.148371,16.066002,village,San Luca,80074,12014.386,1006636
80012,Bovalino,RC1A16700E,"SCUOLA MATERNA ""IL NUOVO ANGOLO AZZURRO""",VIA PORTICATO SNC,38.151954579,16.158135,11572,38.148371,16.066002,village,San Luca,80074,13088.968,1033680
80079,Sant'Agata del Bianco,RCAA84404E,INFANZIA SANT'AGATA DEL BIANCO,VIA VENEZIA,38.092567522829,16.083837693874,11572,38.148371,16.066002,village,San Luca,80074,11989.988,932194
80078,Santa Cristina d'Aspromonte,RCAA832059,INFANZIA SANTA CRISTINA,Non Disponibile,38.234813128,15.975185,11572,38.148371,16.066002,village,San Luca,80074,32567.936,3908153
80070,Samo,RCAA84406L,INFANZIA SAMO,VIA LA VERDE,38.071316306622,16.060609251561,11572,38.148371,16.066002,village,San Luca,80074,17184.319,1535915
80024,Casignana,RC1A12900Q,SCUOLA MATERNA M.SS.IMMACOLATA -IST. SALES. OBLATE S. CUORE,VIA V. EMANUELE 11,38.099499995867,16.090350018856,11572,38.148371,16.066002,village,San Luca,80074,10002.924,796615
80030,Cosoleto,RC1A19400V,SCUOLA MATERNA SANTA DOMENICA V.M.,VIALE REGINA MARGHERITA,38.280744174335,15.938991156984,11572,38.148371,16.066002,village,San Luca,80074,42234.247,4857981
80074,San Luca,RCAA81401G,S.LUCA VIA MATTEOTTI,CORSO MATTEOTTI,38.145420981574,16.067721954217,11572,38.148371,16.066002,village,San Luca,80074,597.687,71724
80074,San Luca,RC1A04700C,"SCUOLA MATERNA NON STATALE ""SANTA MARIA DEGLI ANGELI""",VIA GIOVANNI XXIII,38.146583563065,16.064686216126,11572,38.148371,16.066002,village,San Luca,80074,313.702,37646
80001,Africo,RCAA81004B,VIA FRATELLI BANDIERA,VIA FRATELLI BANDIERA 53,38.051391660784,16.132310756695,11651,38.073769,16.058302,village,Samo,80070,12916.014,954325
80001,Africo,RC1A105007,"SCUOLA MATERNA NON STATALE ""ABIGAIL""",VIA G. MATTEOTTI 45,38.051839991497,16.136089980666,11651,38.073769,16.058302,village,Samo,80070,12533.897,908471
80001,Africo,RC1A1D500G,ANTONIA,Via Trieste snc,38.049955438443,16.129155157051,11651,38.073769,16.058302,village,Samo,80070,13355.458,953307
80074,San Luca,RCAA81401G,S.LUCA VIA MATTEOTTI,CORSO MATTEOTTI,38.145420981574,16.067721954217,11651,38.073769,16.058302,village,Samo,80070,17056.612,1462731
80074,San Luca,RC1A04700C,"SCUOLA MATERNA NON STATALE ""SANTA MARIA DEGLI ANGELI""",VIA GIOVANNI XXIII,38.146583563065,16.064686216126,11651,38.073769,16.058302,village,Samo,80070,17264.663,1474568
80079,Sant'Agata del Bianco,RCAA84404E,INFANZIA SANT'AGATA DEL BIANCO,VIA VENEZIA,38.092567522829,16.083837693874,11651,38.073769,16.058302,village,Samo,80070,6730.334,685253
80030,Cosoleto,RC1A19400V,SCUOLA MATERNA SANTA DOMENICA V.M.,VIALE REGINA MARGHERITA,38.280744174335,15.938991156984,11651,38.073769,16.058302,village,Samo,80070,63878.815,4906779
80070,Samo,RCAA84406L,INFANZIA SAMO,VIA LA VERDE,38.071316306622,16.060609251561,11651,38.073769,16.058302,village,Samo,80070,343.973,40837
80028,Cittanova,RCAA84701V,CITTANOVA FRAZ. SAN PIETRO,C.DA SAN PIETRO,38.412028891529,16.012034474596,11658,38.4065094,16.0774549,town,Polistena,80061,8015.119,650081
80028,Cittanova,RCAA847031,CITTANOVA SCOPELLITI,VIA S. COSMA,38.351381854872,16.080675846307,11658,38.4065094,16.0774549,town,Polistena,80061,7456.217,600251
80028,Cittanova,RCAA847042,CITTANOVA S. ANTONIO,PROLUNG.TO CORSO ITALIA,38.352983669942,16.081934759644,11658,38.4065094,16.0774549,town,Polistena,80061,7634.795,613818
80028,Cittanova,RCAA84702X,CITTANOVA FALCONE E BORSELLINO,VIA GIOVANNI ALESSIO,38.349792009023,16.078664423527,11658,38.4065094,16.0774549,town,Polistena,80061,7711.781,623056
80028,Cittanova,RC1A16800A,SCUOLA INFANZIA PARITARIA PADRE VINCENZO IDA',VIA PIEMONTE 4,38.357309987004,16.080359963738,11658,38.4065094,16.0774549,town,Polistena,80061,6921.25,571415
80071,San Giorgio Morgeto,RCAA80204C,"SC. DELL'INFANZIA ""VILLOTTA""",CONTRADA VILLOTTA,38.39043,16.0934,11658,38.4065094,16.0774549,town,Polistena,80061,3378.56,260733
80071,San Giorgio Morgeto,RCAA80202A,"SC. DELL'INFANZIA ""FERRARO""",FRAZ. FERRARO,38.390159542162,16.07646775822,11658,38.4065094,16.0774549,town,Polistena,80061,2208.737,221360
80071,San Giorgio Morgeto,RCAA802019,S. MATERNA SAN GIORGIO MORGETO,CONTRADA MELIA SNC,38.383709854668,16.107247053535,11658,38.4065094,16.0774549,town,Polistena,80061,5064.306,394058
80003,Anoia,RCAA846046,SCUOLA DELL'INFANZIA ANOIA SUP.,VIA DOTT S. GEMELLI,38.430529653366,16.09635393712,11658,38.4065094,16.0774549,town,Polistena,80061,4750.15,322286
80003,Anoia,RCAA846068,SCUOLA DELL'INFANZIA ANOIA INFERIORE,Non Disponibile,38.43618,16.0794,11658,38.4065094,16.0774549,town,Polistena,80061,5427.947,403738
80027,Cinquefrondi,RCAA846035,"CINQUEFRONDI ""ALVARO""V.GARIBALD",VIA GARIBALDI,38.414576008497,16.097883766902,11658,38.4065094,16.0774549,town,Polistena,80061,2951.508,221123
80027,Cinquefrondi,RCAA846024,CINQUEFRONDI VIA BRUNO BUOZZI,VIA BRUNO BUOZZI,38.418446942748,16.093061812449,11658,38.4065094,16.0774549,town,Polistena,80061,2177.297,164472
80027,Cinquefrondi,RC1A18900B,LA BANDA DEI BIRICCHINI SOCIETÀ COOPERATIVA SOCIALE,VIA FRANCESCO PEPE SN,38.413274603998,16.087645374821,11658,38.4065094,16.0774549,town,Polistena,80061,1402.934,119369
80049,Melicucco,RCAA84901E,MELICUCCO M. TERESA DI CALCUTTA,CONTRADA SIGNORE IDDIO,38.440191399978,16.045326216775,11658,38.4065094,16.0774549,town,Polistena,80061,5651.576,377434
80049,Melicucco,RC1A01800C,"SCUOLA MATERNA ""DISNEYLAND""",VIA A. GRAMSCI 482,38.435757434199,16.053711378972,11658,38.4065094,16.0774549,town,Polistena,80061,4579.196,296172
80061,Polistena,RCAA85001P,POLISTENA CATENA VIA DIAZ,VIA DIAZ,38.404839285732,16.070488756163,11658,38.4065094,16.0774549,town,Polistena,80061,1011.736,112043
80061,Polistena,RCAA85003R,POLISTENA VIA P. NENNI,VIA P.NENNI,38.407770384612,16.081038292805,11658,38.4065094,16.0774549,town,Polistena,80061,438.343,52600
80061,Polistena,RCAA85002Q,POLISTENA VIA RISORGIMENTO,VIA RISORGIMENTO,38.408600785486,16.071093447346,11658,38.4065094,16.0774549,town,Polistena,80061,1045.3,125434
80061,Polistena,RCAA86301R,POLISTENA CAPOLUOGO VIA TRIESTE,VIA TRIESTESNC,38.41321,16.056846376,11658,38.4065094,16.0774549,town,Polistena,80061,2781.936,244085
80061,Polistena,RCAA86302T,POLISTENA RIONE VILLA MARIA,RIONE VILLA MARIA SNC,38.40779849264,16.066243724086,11658,38.4065094,16.0774549,town,Polistena,80061,1403.785,128901
80061,Polistena,RC1AEM500A,Scuola Infanzia Disneyland,VIA PERUGIA 14A,38.401407494306,16.070136175366,11658,38.4065094,16.0774549,town,Polistena,80061,1263.827,126879
80028,Cittanova,RCAA84701V,CITTANOVA FRAZ. SAN PIETRO,C.DA SAN PIETRO,38.412028891529,16.012034474596,11659,38.4256882,16.0676184,suburb,Polistena,80061,6556.046,523153
80028,Cittanova,RCAA847031,CITTANOVA SCOPELLITI,VIA S. COSMA,38.351381854872,16.080675846307,11659,38.4256882,16.0676184,suburb,Polistena,80061,9980.948,754176
80028,Cittanova,RCAA847042,CITTANOVA S. ANTONIO,PROLUNG.TO CORSO ITALIA,38.352983669942,16.081934759644,11659,38.4256882,16.0676184,suburb,Polistena,80061,10159.526,767743
80028,Cittanova,RCAA84702X,CITTANOVA FALCONE E BORSELLINO,VIA GIOVANNI ALESSIO,38.349792009023,16.078664423527,11659,38.4256882,16.0676184,suburb,Polistena,80061,10236.512,776981
80028,Cittanova,RC1A16800A,SCUOLA INFANZIA PARITARIA PADRE VINCENZO IDA',VIA PIEMONTE 4,38.357309987004,16.080359963738,11659,38.4256882,16.0676184,suburb,Polistena,80061,9445.982,725340
80071,San Giorgio Morgeto,RCAA80204C,"SC. DELL'INFANZIA ""VILLOTTA""",CONTRADA VILLOTTA,38.39043,16.0934,11659,38.4256882,16.0676184,suburb,Polistena,80061,5989.69,413558
80071,San Giorgio Morgeto,RCAA80202A,"SC. DELL'INFANZIA ""FERRARO""",FRAZ. FERRARO,38.390159542162,16.07646775822,11659,38.4256882,16.0676184,suburb,Polistena,80061,4733.468,375285
80071,San Giorgio Morgeto,RCAA802019,S. MATERNA SAN GIORGIO MORGETO,CONTRADA MELIA SNC,38.383709854668,16.107247053535,11659,38.4256882,16.0676184,suburb,Polistena,80061,7675.436,546883
80003,Anoia,RCAA846046,SCUOLA DELL'INFANZIA ANOIA SUP.,VIA DOTT S. GEMELLI,38.430529653366,16.09635393712,11659,38.4256882,16.0676184,suburb,Polistena,80061,4101.395,400383
80003,Anoia,RCAA846068,SCUOLA DELL'INFANZIA ANOIA INFERIORE,Non Disponibile,38.43618,16.0794,11659,38.4256882,16.0676184,suburb,Polistena,80061,3090.207,227643
80027,Cinquefrondi,RCAA846035,"CINQUEFRONDI ""ALVARO""V.GARIBALD",VIA GARIBALDI,38.414576008497,16.097883766902,11659,38.4256882,16.0676184,suburb,Polistena,80061,3885.258,267777
80027,Cinquefrondi,RCAA846024,CINQUEFRONDI VIA BRUNO BUOZZI,VIA BRUNO BUOZZI,38.418446942748,16.093061812449,11659,38.4256882,16.0676184,suburb,Polistena,80061,3111.047,211126
80027,Cinquefrondi,RC1A18900B,LA BANDA DEI BIRICCHINI SOCIETÀ COOPERATIVA SOCIALE,VIA FRANCESCO PEPE SN,38.413274603998,16.087645374821,11659,38.4256882,16.0676184,suburb,Polistena,80061,2740.436,202618
80049,Melicucco,RCAA84901E,MELICUCCO M. TERESA DI CALCUTTA,CONTRADA SIGNORE IDDIO,38.440191399978,16.045326216775,11659,38.4256882,16.0676184,suburb,Polistena,80061,2916.027,197824
80049,Melicucco,RC1A01800C,"SCUOLA MATERNA ""DISNEYLAND""",VIA A. GRAMSCI 482,38.435757434199,16.053711378972,11659,38.4256882,16.0676184,suburb,Polistena,80061,1843.647,116562
80061,Polistena,RCAA85001P,POLISTENA CATENA VIA DIAZ,VIA DIAZ,38.404839285732,16.070488756163,11659,38.4256882,16.0676184,suburb,Polistena,80061,3147.028,240658
80061,Polistena,RCAA85003R,POLISTENA VIA P. NENNI,VIA P.NENNI,38.407770384612,16.081038292805,11659,38.4256882,16.0676184,suburb,Polistena,80061,2976.934,207200
80061,Polistena,RCAA85002Q,POLISTENA VIA RISORGIMENTO,VIA RISORGIMENTO,38.408600785486,16.071093447346,11659,38.4256882,16.0676184,suburb,Polistena,80061,2091.873,194033
80061,Polistena,RCAA86301R,POLISTENA CAPOLUOGO VIA TRIESTE,VIA TRIESTESNC,38.41321,16.056846376,11659,38.4256882,16.0676184,suburb,Polistena,80061,2591.111,258320
80061,Polistena,RCAA86302T,POLISTENA RIONE VILLA MARIA,RIONE VILLA MARIA SNC,38.40779849264,16.066243724086,11659,38.4256882,16.0676184,suburb,Polistena,80061,3204.413,211297
80061,Polistena,RC1AEM500A,Scuola Infanzia Disneyland,VIA PERUGIA 14A,38.401407494306,16.070136175366,11659,38.4256882,16.0676184,suburb,Polistena,80061,3399.119,255494
80010,Bivongi,RCAA82912T,BIVONGI,VIA B. CROCE,38.485470932138,16.453291348327,11623,38.4757633,16.4525008,village,Pazzano,80058,1790.384,169212
80092,Stilo,RCAA82911R,STILO - A. SCOPELLITI,CONTRADA LOCO,38.499510143,16.373378329,11623,38.4757633,16.4525008,village,Pazzano,80058,20107.108,1362689
80025,Caulonia,RCAA82615D,INFANZIA VASI',VIA PITAGORA 27,38.338407609956,16.449529320904,11623,38.4757633,16.4525008,village,Pazzano,80058,24566.053,1569564
80025,Caulonia,RCAA826108,S.VITO,VIA S. VITO,38.383503001022,16.411702432949,11623,38.4757633,16.4525008,village,Pazzano,80058,23679.347,2057061
80025,Caulonia,RCAA82616E,SCUOLA INFANZIA,VIALE MAGNA GRECIA,38.344571884905,16.46265065648,11623,38.4757633,16.4525008,village,Pazzano,80058,23214.792,1480375
80058,Pazzano,RC1A02300X,"SCUOLA MATERNA NON STATALE ""SANTA MARIA ASSUNTA""",VIA NOCETO 2,38.477449984512,16.452600032302,11623,38.4757633,16.4525008,village,Pazzano,80058,250.725,29948
80053,Montebello Jonico,RCAA81201X,MONTEBELLO IONICO FRAZ. SALINE,VIA NAZIONALE TRAV. I,38.015122171557,15.766719923505,11635,38.003165,15.695096,village,Motta San Giovanni,80054,12643.229,1227218
80053,Montebello Jonico,RCAA812021,MONTEBELLO IONICO FRAZ.FOSSATO,VIA IOVANI,38.013006151907,15.765204638656,11635,38.003165,15.695096,village,Motta San Giovanni,80054,12073.323,1197827
80053,Montebello Jonico,RCAA812032,MONTEBELLO IONICO MASELLA,VIA ANGELUCCI,37.967777292829,15.749520632984,11635,38.003165,15.695096,village,Motta San Giovanni,80054,16354.271,1756477
80053,Montebello Jonico,RC1A03300E,"SCUOLA MATERNA NON STATALE ""ANTONIETTA ROGNETTA""",PIAZZA CHIESA - SALINE IONICHE,37.940604077414,15.718461665683,11635,38.003165,15.695096,village,Motta San Giovanni,80054,15860.398,1071794
80053,Montebello Jonico,RC1A16000Q,"Soc. Coop. Sociale ""Piccoli Eroi""",Via Ficarella,37.95865131389,15.719020632104,11635,38.003165,15.695096,village,Motta San Giovanni,80054,16047.196,1111559
80063,Reggio di Calabria,RCAA875068,FRAZ CANNAVO',VIA VALLONE MANTI,38.104464334113,15.693442007424,11635,38.003165,15.695096,village,Motta San Giovanni,80054,21135.682,1607833
80063,Reggio di Calabria,RCAA875046,FRAZ.MOSORROFA VIA PROVINCIALE,VIA SCALEA,38.097048208244,15.722432108331,11635,38.003165,15.695096,village,Motta San Giovanni,80054,24479.72,1849079
80063,Reggio di Calabria,RCAA806158,CONDERA,RIONE CONDERA,38.10534,15.640221106,11635,38.003165,15.695096,village,Motta San Giovanni,80054,19969.519,1493023
80063,Reggio di Calabria,RCAA85701D,SAN GIOVANNELLO,VALLONE MARIANNAZZO,38.110006990248,15.671302477611,11635,38.003165,15.695096,village,Motta San Giovanni,80054,20579.09,1524882
80063,Reggio di Calabria,RCAA87105X,TRAPEZI CROCE VALANIDI,VIA TRAPEZI -,38.060310344119,15.66181615956,11635,38.003165,15.695096,village,Motta San Giovanni,80054,13090.269,1101810
80063,Reggio di Calabria,RCAA804077,INFANZIA GALLICO MARINA,RIONE COMI,38.165971674701,15.647062930216,11635,38.003165,15.695096,village,Motta San Giovanni,80054,26161.353,1877312
80063,Reggio di Calabria,RCAA868021,CATONA MARINA VIA BARACCAMENTO,VIA BARACCAMENTO 11/A,38.183200004596,15.641459960324,11635,38.003165,15.695096,village,Motta San Giovanni,80054,28606.301,1891337
80063,Reggio di Calabria,RCAA86901Q,SCUOLA MATERNA RAVAGNESE,VIA II TRAV SCAGLIOLA N.7,38.074725,15.694628302,11635,38.003165,15.695096,village,Motta San Giovanni,80054,18031.202,1609505
80063,Reggio di Calabria,RCAA80707P,MALARA DI TRUNCA,VIA S.ANNA AL SOCCORSO,38.104141339364,15.664880574938,11635,38.003165,15.695096,village,Motta San Giovanni,80054,18702.668,1369645
80063,Reggio di Calabria,RCAA80710V,SANTA VENERE,VIA R. VALANIDI - SANTA VENERE 54 -56,38.058733681324,15.752646031645,11635,38.003165,15.695096,village,Motta San Giovanni,80054,17446.341,1461887
80063,Reggio di Calabria,RCAA875024,CATAFORIO VIA BORELLI,VIA BORELLI,38.087888986914,15.717327381802,11635,38.003165,15.695096,village,Motta San Giovanni,80054,23922.154,2043166
80063,Reggio di Calabria,RCAA80706N,FRAZ.OLIVETO,VIA PROVINCIALE 172 - OLIVETO,38.130081913563,15.654662529274,11635,38.003165,15.695096,village,Motta San Giovanni,80054,21272.491,1544070
80063,Reggio di Calabria,RCAA809036,PLESSO RC DE AMICIS,Non Disponibile,38.10534,15.640221106,11635,38.003165,15.695096,village,Motta San Giovanni,80054,19969.519,1493023
80063,Reggio di Calabria,RCAA875079,S SPERATO VIA COMUNALE,VIA COMUNALE,38.147983741859,15.660514819439,11635,38.003165,15.695096,village,Motta San Giovanni,80054,23364.115,1675052
80063,Reggio di Calabria,RCAA868054,LOC.VILLA S.GIUSEPPE,VIA DEI MONTI,38.186941695081,15.691067346646,11635,38.003165,15.695096,village,Motta San Giovanni,80054,31678.139,2106522
80063,Reggio di Calabria,RCAA86801X,"SCUOLA MATERNA ""CATONA CENTRO""",VIA FIGURELLA,38.18867296368,15.646861519075,11635,38.003165,15.695096,village,Motta San Giovanni,80054,28531.562,1882368
80063,Reggio di Calabria,RCAA806125,SPIRITO SANTO,VIA MURO ROTTO,38.103235,15.661651684,11635,38.003165,15.695096,village,Motta San Giovanni,80054,18741.101,1381723
80063,Reggio di Calabria,RCAA87001X,TRAVERSA SOCCORSO,VIA S. ANNA 9,38.103040008854,15.649220010102,11635,38.003165,15.695096,village,Motta San Giovanni,80054,19235.656,1411446
80063,Reggio di Calabria,RCAA80709R,TERRETI,VIA REGGIO CAMPI 65 - TERRETI,38.119507422117,15.713415732355,11635,38.003165,15.695096,village,Motta San Giovanni,80054,26815.191,1867267
80063,Reggio di Calabria,RCAA80708Q,SCUOLA INFANZIA ARANGEA,VIA ARANGEA TRAV. GENOESE,38.089021284815,15.670576215271,11635,38.003165,15.695096,village,Motta San Giovanni,80054,16700.849,1315979
80063,Reggio di Calabria,RCAA804044,LOC.PIETRA DELLA ZITA,VIA A GARIBALDI TRAV ITRIA1 GALLICO,38.170560010788,15.662830041564,11635,38.003165,15.695096,village,Motta San Giovanni,80054,26583.203,1918847
80063,Reggio di Calabria,RCAA809047,VICO GRAZIELLA,Non Disponibile,38.08826,15.649901982,11635,38.003165,15.695096,village,Motta San Giovanni,80054,17116.182,1362520
80063,Reggio di Calabria,RCAA871061,POLO LUME,VIA SOTTOLUME PELLARO,38.022156283942,15.648056818682,11635,38.003165,15.695096,village,Motta San Giovanni,80054,8219.567,847495
80063,Reggio di Calabria,RCAA87301B,PRINCIPE DI PIEMONTE,VIA POSSIDONEA 65,38.106119981085,15.645810000433,11635,38.003165,15.695096,village,Motta San Giovanni,80054,19785.046,1466290
80063,Reggio di Calabria,RCAA804099,GALLICO SUPERIORE V.S.DOMENICA,VIA S.DOMENICA DI GALLICO,38.181073125618,15.673414016641,11635,38.003165,15.695096,village,Motta San Giovanni,80054,29566.701,2009192
80063,Reggio di Calabria,RCAA804088,GALLICO PASSO CARACCIOLO,PIAZZA POSTA,38.198922651989,15.683235001113,11635,38.003165,15.695096,village,Motta San Giovanni,80054,32527.655,2292706
80063,Reggio di Calabria,RCAA86903T,LOC. SARACINELLO,VIA LAGANI 1,38.060774435306,15.666633932537,11635,38.003165,15.695096,village,Motta San Giovanni,80054,13770.032,1224591
80063,Reggio di Calabria,RCAA80702D,SCUOLA DELL'INFANZIA,VIA BARACCONE 18,38.087409980636,15.680029958338,11635,38.003165,15.695096,village,Motta San Giovanni,80054,18553.255,1465744
80063,Reggio di Calabria,RCAA867025,CARDUCCI,VIA MICELI,38.119457607064,15.654266596604,11635,38.003165,15.695096,village,Motta San Giovanni,80054,19978.904,1450721
80063,Reggio di Calabria,RCAA805062,"""SANTA CATERINA""",VIA MONTELLO N. 7,38.125790002814,15.65575001559,11635,38.003165,15.695096,village,Motta San Giovanni,80054,20920.038,1519500
80063,Reggio di Calabria,RCAA867014,TREMULINI MELISSARI,VIA MELISSARI,38.119429982323,15.662944999367,11635,38.003165,15.695096,village,Motta San Giovanni,80054,21440.74,1480840
80063,Reggio di Calabria,RCAA868032,SALICE VIA CARCARA,VIA CARCARA,38.18415,15.668681663,11635,38.003165,15.695096,village,Motta San Giovanni,80054,28915.126,1893876
80063,Reggio di Calabria,RCAA84203T,RIONE S.GIORGIO EXTRA,VIA PIO UNDICESIMO 164,38.098180013755,15.650500010536,11635,38.003165,15.695096,village,Motta San Giovanni,80054,17805.994,1378134
80063,Reggio di Calabria,RCAA84202R,RIONE MODENA CENTRO,VIA MODENA PIAZZETTA,38.094670108694,15.646229472662,11635,38.003165,15.695096,village,Motta San Giovanni,80054,17518.346,1388790
80063,Reggio di Calabria,RCAA87103T,PELLARO C.DA PANTANELLO SS 106,VIA FOSSE DI COMI,38.035390177893,15.664080034785,11635,38.003165,15.695096,village,Motta San Giovanni,80054,10528.921,1009825
80063,Reggio di Calabria,RCAA80410B,LOC.SAMBATELLO,VIA PRETE MAIO,38.178449486845,15.69096565333,11635,38.003165,15.695096,village,Motta San Giovanni,80054,31240.898,2205414
80063,Reggio di Calabria,RCAA87202L,GEBBIONE - COLLODI,VIALE A.MORO TRAV. II^ INA CASA,38.08598206897,15.636290983418,11635,38.003165,15.695096,village,Motta San Giovanni,80054,17407.468,1402828
80063,Reggio di Calabria,RCAA87201G,BOTTEGHELLE VIA BERGAMO,VIA BERGAMO,38.093584308805,15.642059768324,11635,38.003165,15.695096,village,Motta San Giovanni,80054,17685.795,1419376
80063,Reggio di Calabria,RC1A05900P,"SCUOLA MATERNA NON STATALE VILLA ROSA ""LA SCUOLA NEL SOLE""",VIA NAZIONALE - PELLARO N. 373,38.023329995583,15.648279979661,11635,38.003165,15.695096,village,Motta San Giovanni,80054,8464.733,870317
80063,Reggio di Calabria,RC1A056007,"SCUOLA MATERNA NON STATALE COMUNALE ""TRAVERSA SOCCORSO""",VIALE ALDO MORO,38.08493297818,15.635278836803,11635,38.003165,15.695096,village,Motta San Giovanni,80054,17593.313,1416209
80063,Reggio di Calabria,RC1A0B500V,IL TRENINO DEI SOGNI,VIA RAVAGNESE ii TRAV. SCAGLIOLA 19,38.074186468554,15.65394567929,11635,38.003165,15.695096,village,Motta San Giovanni,80054,15119.906,1230760
80063,Reggio di Calabria,RC1A09100E,"SCUOLA MATERNA NON STATALE COMUNALE ""FRANGIPANE""",VIA FRANGIPANE,38.097761256304,15.637579654662,11635,38.003165,15.695096,village,Motta San Giovanni,80054,18367.745,1479098
80063,Reggio di Calabria,RC1A2E5005,Giardini d'infanzia,Via Modena 1 traversa 16,38.095446386079,15.641936305174,11635,38.003165,15.695096,village,Motta San Giovanni,80054,17964.166,1432262
80063,Reggio di Calabria,RC1A16100G,"SCUOLA MATERNA ""SCARABOCCHIANDO""",VIA NAZIONALE PENTIMELE 104,38.139622819417,15.657876263212,11635,38.003165,15.695096,village,Motta San Giovanni,80054,22402.0,1621765
80063,Reggio di Calabria,RC1AHE500I,ANDARE A PICCOLI PASSI,via La Corte Baraccamento Marina 11/A,38.183200004596,15.641459960324,11635,38.003165,15.695096,village,Motta San Giovanni,80054,28606.301,1891337
80063,Reggio di Calabria,RC1A09000P,"SCUOLA MATERNA ""SAN FRANCESCO DA PAOLA""",VIA EMILIA N.6 - Rosalì,38.202300015,15.674049973336,11635,38.003165,15.695096,village,Motta San Giovanni,80054,31634.099,2254673
80063,Reggio di Calabria,RC1A10200Q,"SCUOLA MATERNA NON STATALE ""GREEN ISLAND""",VIA RAVAGNESE 1 TRAV PRIVATA,38.073668012392,15.654227138001,11635,38.003165,15.695096,village,Motta San Giovanni,80054,15060.552,1220076
80063,Reggio di Calabria,RC1A01407C,SCUOLA MATERNA M. M. GRATIAE PIA ASS. F. M. CORREDENTRICE,PARCO FIAMMA N. 7,38.108964994153,15.654397221416,11635,38.003165,15.695096,village,Motta San Giovanni,80054,19620.105,1448671
80063,Reggio di Calabria,RC1A00800T,"SCUOLA MATERNA ""BIANCANEVE""",VIALE ALDO MORO II^ TRAV. NICOLO' 29,38.084306077061,15.637220629955,11635,38.003165,15.695096,village,Motta San Giovanni,80054,17365.686,1384660
80063,Reggio di Calabria,RC1AGT500N,CIF - Casa dell'amiciza,Via Ravagnese superiore 128,38.07617999058,15.654240015733,11635,38.003165,15.695096,village,Motta San Giovanni,80054,15160.957,1217726
80063,Reggio di Calabria,RC1ABU500M,BABY HOUSE,contrada Gagliardi località Arangea 58,38.085320944405,15.668239918607,11635,38.003165,15.695096,village,Motta San Giovanni,80054,16445.469,1318785
80063,Reggio di Calabria,RC1A03700T,"SCUOLA MATERNA NON STATALE ""SAN ROCCO""",VIA DELLE MIMOSE3,38.082419982218,15.687550034229,11635,38.003165,15.695096,village,Motta San Giovanni,80054,19410.69,1529594
80063,Reggio di Calabria,RC1A7P500C,SCUOLA MATERNA BAFFY - IMPARARE GIOCANDO,VIA DEL GELSOMINO 5,38.101409980143,15.659000014727,11635,38.003165,15.695096,village,Motta San Giovanni,80054,19421.361,1425087
80063,Reggio di Calabria,RC1A118009,"SCUOLA MATERNA NON STATALE ""SUOR EMMA PIA""",VIA MADONNA DI FATIMA 4,38.113325668736,15.668170265151,11635,38.003165,15.695096,village,Motta San Giovanni,80054,20330.934,1480038
80063,Reggio di Calabria,RC1A07000D,"SCUOLA MATERNA ""L'ALBERO AZZURRO""",VIA GAGLIARDI N 37,38.085180017206,15.666669959047,11635,38.003165,15.695096,village,Motta San Giovanni,80054,16160.913,1284637
80063,Reggio di Calabria,RC1A148005,"SCUOLA MATERNA ""SACRO CUORE""",VIA LORETO PESCATORI16,38.096160016999,15.635290041396,11635,38.003165,15.695096,village,Motta San Giovanni,80054,18385.905,1481277
80063,Reggio di Calabria,RC1A021019,"Scuola materna non statale ""Valle Verde""",VIA CARRUBARA SAN CRISTOFORO 32,38.101639979566,15.674130020511,11635,38.003165,15.695096,village,Motta San Giovanni,80054,19599.73,1481078
80063,Reggio di Calabria,RC1A06200E,"SCUOLA MATERNA NON STATALE ""MONSIGNOR MONTALBETTI""",VIA LONGITUDINALE - PELLARO N. 36,38.025718101948,15.651971022618,11635,38.003165,15.695096,village,Motta San Giovanni,80054,8673.184,897799
80063,Reggio di Calabria,RC1AN8500O,"Scuola Infanzia paritaria ""N. e F. Giunta""",Via Olmo snc - Gallina,38.087260007433,15.679604995847,11635,38.003165,15.695096,village,Motta San Giovanni,80054,18493.778,1458607
80063,Reggio di Calabria,RC1A06100P,SCUOLA MATERNA CIPRIANI,VIA CROCEVIA - PELLARO N. 30/A,38.03356018489,15.664894313163,11635,38.003165,15.695096,village,Motta San Giovanni,80054,10432.726,1016806
80063,Reggio di Calabria,RC1A164003,"SCUOLA MATERNA NON STATALE ""MARIA PIA DI SAVOIA""",VIA S. GIOVANNI N. 113 PELLARO,38.096762707381,15.745702617215,11635,38.003165,15.695096,village,Motta San Giovanni,80054,29290.271,2204571
80063,Reggio di Calabria,RC1A073001,"SCUOLA MATERNA ""LA NUVOLETTA""",VIA CICCARELLO34/C,38.084820014464,15.652539998131,11635,38.003165,15.695096,village,Motta San Giovanni,80054,16435.508,1329419
80063,Reggio di Calabria,RC1A072005,"SCUOLA MATERNA ""LA SIRENETTA""",VIA CICCARELLO IV TRAVERSA16,38.085346289732,15.653517055169,11635,38.003165,15.695096,village,Motta San Giovanni,80054,16531.01,1339959
80063,Reggio di Calabria,RC1A050008,"SCUOLA MATERNA ""CAPPUCCETTO ROSSO""",VIA TEMESA 41,38.0872200048,15.642959985716,11635,38.003165,15.695096,village,Motta San Giovanni,80054,17235.652,1399354
80063,Reggio di Calabria,RC1A080004,"ASSOCIAZIONE ""BIMBOLANDIA"" SCUOLA DELL'INFANZIA PARITARIA",VIA PALMI 13,38.091609984679,15.642069995237,11635,38.003165,15.695096,village,Motta San Giovanni,80054,17505.252,1394904
80063,Reggio di Calabria,RC1A06800D,"SCUOLA MATERNA NON STATALE ""TOPOLINO""",VICO S. ANNA ANGOLO VIA POLISTENA,38.0881719395,15.643252973487,11635,38.003165,15.695096,village,Motta San Giovanni,80054,16972.734,1363345
80063,Reggio di Calabria,RC1A155008,"SCUOLA MATERNA NON STATALE ""HANSEL E GRETHEL""",VIA SAN SPERATO II° TRATTO,38.094594332775,15.656797788704,11635,38.003165,15.695096,village,Motta San Giovanni,80054,17692.288,1404423
80063,Reggio di Calabria,RC1A077008,"SCUOLA MATERNA NON STATALE ""CATERINA TROIANI""",SBARRE CENTRALI71,38.099799984181,15.642769967971,11635,38.003165,15.695096,village,Motta San Giovanni,80054,19125.488,1410615
80063,Reggio di Calabria,RC1A150005,"SCUOLA MATERNA ""FANTASILANDIA""",VIA ENOTRIA 81,38.12383999495,15.655869960625,11635,38.003165,15.695096,village,Motta San Giovanni,80054,20848.726,1516130
80063,Reggio di Calabria,RC1A08200Q,"SCUOLA MATERNA ""KINDERGARTEN""",VIA SALITA ENEL TRAV COSTANTINO,38.069472136505,15.664152535249,11635,38.003165,15.695096,village,Motta San Giovanni,80054,14376.186,1188587
80063,Reggio di Calabria,RC1A80502B,"SCUOLA MATERNA ""IL TUO NIDO""",Via Statale 18 n. 1/a,38.118194999,15.653456117,11635,38.003165,15.695096,village,Motta San Giovanni,80054,19868.42,1437464
80063,Reggio di Calabria,RC1A022026,"SCUOLA MATERNA NON STATALE COMUNALE ""PIO XI""",VIA PIO XI INA CASA,38.087892381903,15.650996864363,11635,38.003165,15.695096,village,Motta San Giovanni,80054,17366.974,1330763
80063,Reggio di Calabria,RC1A178001,"Scuola Materna ""NUMBER ONE""",VIA MANFROCE N 93/F,38.123720008006,15.662519994966,11635,38.003165,15.695096,village,Motta San Giovanni,80054,21164.093,1466472
80063,Reggio di Calabria,RC1A05400G,SCUOLA MATERNA MADRE LINDA LUCOTTI,VIA MARIA AUSILIATRICE 3,38.093520010865,15.661909960053,11635,38.003165,15.695096,village,Motta San Giovanni,80054,17679.555,1357145
80063,Reggio di Calabria,RC1A02106E,"SCUOLA DELL'INFANZIA ""ARCHIMEDE""",VIA S.ANNA II^ TRONCO 2/B,38.102929996374,15.649069974036,11635,38.003165,15.695096,village,Motta San Giovanni,80054,19220.075,1409576
80063,Reggio di Calabria,RC1A15700X,"SCUOLA MATERNA NON STATALE COMUNALE ""GENOESE""",VIA ASCHENEZ,38.115573403764,15.655067150356,11635,38.003165,15.695096,village,Motta San Giovanni,80054,19745.437,1430741
80063,Reggio di Calabria,RC1A149001,"SCUOLA MATERNA NON STATALE ""NUOVI ORIZZONTI""",CONTRADA MARIANNAZZO 18,38.113310019538,15.664259994246,11635,38.003165,15.695096,village,Motta San Giovanni,80054,20009.122,1458292
80063,Reggio di Calabria,RC1A08100X,"SCUOLA MATERNA ""PARADISO""",VIALE CALABRIA TRAV. VIII 49,38.088932280245,15.641425375481,11635,38.003165,15.695096,village,Motta San Giovanni,80054,17446.804,1381026
80063,Reggio di Calabria,RC1A17400N,"SCUOLA INFANZIA PARITARIA ""TOPOLINO & COMPANY""",VIA QUARNARO 14/L,38.169289984819,15.649670034484,11635,38.003165,15.695096,village,Motta San Giovanni,80054,26924.195,1770233
80063,Reggio di Calabria,RC1A02102A,"SCUOLA MATERNA NON STATALE ""VOLTO SANTO""",VIA P. ANDILORO 19,38.104379981805,15.652990022513,11635,38.003165,15.695096,village,Motta San Giovanni,80054,18683.524,1366047
80063,Reggio di Calabria,RC1A156004,"SCUOLA MATERNA ""INSIEME PER FARE""",VIA DALMAZIA N. 106,38.11241998715,15.65450002237,11635,38.003165,15.695096,village,Motta San Giovanni,80054,20047.693,1482164
80063,Reggio di Calabria,RC1AR3500V,"Scuola dell'Infanzia ""La casa di Alice""",Via Cardinale Portanova 58,38.11668000562,15.657299997125,11635,38.003165,15.695096,village,Motta San Giovanni,80054,19465.555,1399991
