from_pro_com,from_comune,from_id_school,from_name,from_address,latitude_school,longitude_school,to,latitude_to,longitude_to,to_kind,to_comune,to_pro_com,distance,travel_time
85012,Mussomeli,CLAA81801A,VIA MADONNA DI FATIMA,VIA MADONNA DI FATIMA SNC,37.580294114535,13.754867037092,10514,37.6541424,13.8434233,village,Villalba,85022,13333.396,1393229
85012,Mussomeli,CLAA81805E,"""MADRE TERESA DI CALCUTTA"" MUSS",VIA LEONARDO DA VINCI SNC,37.574733853815,13.75207473182,10514,37.6541424,13.8434233,village,Villalba,85022,15407.743,1278119
85012,Mussomeli,CL1A004002,"""AVV. G. LA RIZZA""",VIA V. E. ORLANDO 3,37.580079993969,13.756700015514,10514,37.6541424,13.8434233,village,Villalba,85022,13293.381,1388426
85012,Mussomeli,CL1A00700D,"""SORELLE SOLA - S. ENRICO""",VIA VANELLE 34,37.576419994038,13.756229958383,10514,37.6541424,13.8434233,village,Villalba,85022,14986.188,1264062
85021,Vallelunga Pratameno,CLAA80401C,GIOVANNI XXIII,VIA NICOLO' AUDINO SNC,37.69427479583,13.809808869705,10514,37.6541424,13.8434233,village,Villalba,85022,7125.201,708327
85021,Vallelunga Pratameno,CL1A00200A,"""SS. ANGELI CUSTODI""",VIA GARIBALDI 5,37.684609996008,13.832859999422,10514,37.6541424,13.8434233,village,Villalba,85022,4252.982,504064
85008,Marianopoli,CLAA80403E,MARIANOPOLI-VIALE DELLA REGIONE,VIA PIAZZA ARMERINA,37.599525637969,13.91285129353,10514,37.6541424,13.8434233,village,Villalba,85022,12359.657,1187030
85022,Villalba,CLAA80402D,VILLALBA - DON MILANI,VIA ADUA SNC,37.65346297945,13.845023415425,10514,37.6541424,13.8434233,village,Villalba,85022,173.402,20808
85022,Villalba,CLAA80402D,VILLALBA - DON MILANI,VIA ADUA SNC,37.65346297945,13.845023415425,10518,37.682047,13.83156,village,Vallelunga Pratameno,85021,4191.359,470314
85021,Vallelunga Pratameno,CLAA80401C,GIOVANNI XXIII,VIA NICOLO' AUDINO SNC,37.69427479583,13.809808869705,10518,37.682047,13.83156,village,Vallelunga Pratameno,85021,3279.989,253194
85021,Vallelunga Pratameno,CL1A00200A,"""SS. ANGELI CUSTODI""",VIA GARIBALDI 5,37.684609996008,13.832859999422,10518,37.682047,13.83156,village,Vallelunga Pratameno,85021,306.144,36737
85007,Gela,CLAA81103N,"""G. VERGA"" - VIA SALONICCO N. 2",VIA SALONICCO N. 2,37.076260013076,14.220750003225,10508,37.1861617,14.1860155,village,Butera,85003,18052.198,1162533
85007,Gela,CLAA827026,"""S. M. DI GESU'""",VIA VENTURA N. 122,37.068430016315,14.24767996848,10508,37.1861617,14.1860155,village,Butera,85003,18936.727,1203982
85007,Gela,CLAA81002R,"""GIOVANNI XXIII""",VIA SETTEFARINI SNC,37.098619968742,14.258290059639,10508,37.1861617,14.1860155,village,Butera,85003,18034.799,1221022
85007,Gela,CLAA014025,"""BENEDETTO CROCE""",LARGO BORCA DI CADORE,37.075998592031,14.231754145376,10508,37.1861617,14.1860155,village,Butera,85003,17279.903,1081395
85007,Gela,CLAA81101G,VIA CAVIAGA E VIA PANDINO,VIA CAVIAGA 6 - VIA PANDINO 4,37.07879000673,14.210790039138,10508,37.1861617,14.1860155,village,Butera,85003,18833.553,1183402
85007,Gela,CLAA01102N,GAETANO ORTISI,VIA ACHILLE GRANDI,37.073177357271,14.234949155067,10508,37.1861617,14.1860155,village,Butera,85003,17962.63,1122086
85007,Gela,CLAA82403Q,MADRE TERESA DI CALCUTTA,VIA PABLO PICASSO,37.080091059001,14.237752920566,10508,37.1861617,14.1860155,village,Butera,85003,17416.163,1076910
85007,Gela,CLAA82302V,"""SAN SEBASTIANO""GELA",VIA FUENTES,37.080780017227,14.252715019627,10508,37.1861617,14.1860155,village,Butera,85003,18997.777,1258503
85007,Gela,CLAA83202N,"""CAPPUCCINI""",VIA FEACE 130,37.067910003042,14.242500036136,10508,37.1861617,14.1860155,village,Butera,85003,18831.92,1219970
85007,Gela,CLAA82301T,VIA GIULIO SIRAGUSA,VIA GIULIO SIRAGUSA,37.071993547986,14.255006144089,10508,37.1861617,14.1860155,village,Butera,85003,19155.358,1180340
85007,Gela,CLAA83201L,"""FEACE""",VIA FEACE 128,37.067940010255,14.242419988961,10508,37.1861617,14.1860155,village,Butera,85003,18824.088,1219030
85007,Gela,CLAA83203P,"""EMANUELA LOI""",VIA CAPPUCCINI SNC,37.067650837611,14.243873405568,10508,37.1861617,14.1860155,village,Butera,85003,19031.866,1243964
85007,Gela,CLAA81104P,"""LEONARDO SCIASCIA""",VIA GENOVA 9,37.072459993452,14.235889983473,10508,37.1861617,14.1860155,village,Butera,85003,17958.757,1120668
85007,Gela,CLAA83102T,"""NICHOLAS GREEN""",VIA BORROMINI,37.075261376534,14.249880222057,10508,37.1861617,14.1860155,village,Butera,85003,18658.543,1157831
85007,Gela,CLAA83101R,"""COSTA ZAMPOGNA""",VIA RECANATI,37.073061138437,14.244966970123,10508,37.1861617,14.1860155,village,Butera,85003,18322.554,1126921
85007,Gela,CLAA014047,VIA EUROPA,VIA EUROPA 119,37.070509985588,14.229889965723,10508,37.1861617,14.1860155,village,Butera,85003,17986.3,1166164
85007,Gela,CLAA014014,LUIGI CAPUANA,VIA PALAZZI 48,37.073140017257,14.233800039736,10508,37.1861617,14.1860155,village,Butera,85003,17713.387,1115065
85007,Gela,CLAA82404R,ANNA FRANK,VIA BUTERA S.N.,37.077313395242,14.233009883953,10508,37.1861617,14.1860155,village,Butera,85003,17089.479,1052466
85007,Gela,CLAA83103V,DON LORENZO MILANI,VIA VENEZIA SNC,37.074846704347,14.245271343941,10508,37.1861617,14.1860155,village,Butera,85003,18077.421,1100837
85007,Gela,CLAA827037,"""CARLO COLLODI""",VIA GIARDINELLI-,37.066722495873,14.252311328663,10508,37.1861617,14.1860155,village,Butera,85003,19515.452,1206499
85007,Gela,CLAA01106T,ENRICO SOLITO -S.MARIA DI GESU',VIA VENTURA,37.067819579055,14.249004080774,10508,37.1861617,14.1860155,village,Butera,85003,19072.172,1220236
85007,Gela,CLAA01108X,RITA LEVI MONTALCINI,VIA PAOLO ORSI 29,37.069611462797,14.233615300892,10508,37.1861617,14.1860155,village,Butera,85003,18265.182,1170960
85007,Gela,CLAA011091,GIOBERTI,VIA PALAZZI 95,37.07250001704,14.234660023001,10508,37.1861617,14.1860155,village,Butera,85003,17818.084,1122603
85007,Gela,CLAA827015,"""P. E. GIUDICI""",Non Disponibile,37.087110001,14.279579453,10508,37.1861617,14.1860155,village,Butera,85003,22288.189,1588671
85007,Gela,CLAA83104X,PIAZZA ALEMANNA,VIA A. NOBEL,37.073155801095,14.247053044262,10508,37.1861617,14.1860155,village,Butera,85003,18380.178,1122482
85007,Gela,CLAA81001Q,VIA SALONICCO,VIA SALONICCO SNC,37.077278264678,14.221432101584,10508,37.1861617,14.1860155,village,Butera,85003,17925.127,1147285
85007,Gela,CLAA82303X,"""FALCONE-BORSELLINO"" GELA",VIA PELLEGRINI SNC,37.07429729901,14.260265591929,10508,37.1861617,14.1860155,village,Butera,85003,20265.36,1288233
85007,Gela,CL1AHQ500S,"scuola dell'infanzia ""Istituto Ancelle missionarie di Cristo Re""",via E. Morselli 63,37.071040015235,14.231320002224,10508,37.1861617,14.1860155,village,Butera,85003,17992.021,1166851
85007,Gela,CL1A02100Q,"""PADRE GIOVANNI MINOZZI""",VIA EUROPA 54,37.070220013647,14.229610010157,10508,37.1861617,14.1860155,village,Butera,85003,18028.361,1171211
85007,Gela,CL1A02000X,"""SUOR TERESA VALSE'""",VIALE CORTEMAGGIORE 132,37.079399999734,14.209620009274,10508,37.1861617,14.1860155,village,Butera,85003,19054.277,1197701
85015,Riesi,CLAA81702G,"""BIAGIO PISTONE""",VIA FELICE CAVALLOTTI,37.285613841583,14.080005592948,10508,37.1861617,14.1860155,village,Butera,85003,18503.891,1136010
85015,Riesi,CLAA81703L,"""GIUSEPPE PATERNA""",VIALE UMBRIA,37.280315348138,14.083276574798,10508,37.1861617,14.1860155,village,Butera,85003,17449.572,1105732
85015,Riesi,CLAA81705P,C.DA GIARRATANA DD,VIA VESPRI,37.297545,14.090688605,10508,37.1861617,14.1860155,village,Butera,85003,19724.843,1282524
85015,Riesi,CLAA81701E,C.DA GIARRATANA IST. COMPR.,VIA VESPRI SNC,37.297545,14.090688605,10508,37.1861617,14.1860155,village,Butera,85003,19724.843,1282524
85015,Riesi,CLAA81704N,"""ANGELO GALLO""",VIA NAPOLI,37.280878912383,14.088285671611,10508,37.1861617,14.1860155,village,Butera,85003,17017.995,1053943
85015,Riesi,CL1A02300B,"""DON S. RIGGIO""",VIA CARLO ALBERTO 60,37.283090011814,14.083029969634,10508,37.1861617,14.1860155,village,Butera,85003,17696.889,1135410
85015,Riesi,CL1A01500C,"""MONTE DEGLI ULIVI""",VIA MONTE DEGLI ULIVI 6,37.278890007771,14.089429971804,10508,37.1861617,14.1860155,village,Butera,85003,16904.269,1040296
85009,Mazzarino,CLAA816071,MADUNNUZZA,VIA DELLA PACE,37.300097335486,14.210186597973,10508,37.1861617,14.1860155,village,Butera,85003,16383.716,1132635
85009,Mazzarino,CLAA816082,SAN DOMENICO,CORSO VITTORIO EMANUELE 291,37.305337986835,14.218513588391,10508,37.1861617,14.1860155,village,Butera,85003,17395.341,1224714
85003,Butera,CLAA82402P,SAN ROCCO,VIA SAN ROCCO 1,37.186160007113,14.186970011418,10508,37.1861617,14.1860155,village,Butera,85003,81.468,9776
85003,Butera,CLAA82401N,PIAZZALE ITALIA,PIAZZALE ITALIA 1,37.193230016713,14.181880016896,10508,37.1861617,14.1860155,village,Butera,85003,1175.292,101290
85012,Mussomeli,CLAA81801A,VIA MADONNA DI FATIMA,VIA MADONNA DI FATIMA SNC,37.580294114535,13.754867037092,18454,37.4738288,13.7807446,village,Bompensiere,85002,15912.421,1107088
85012,Mussomeli,CLAA81805E,"""MADRE TERESA DI CALCUTTA"" MUSS",VIA LEONARDO DA VINCI SNC,37.574733853815,13.75207473182,18454,37.4738288,13.7807446,village,Bompensiere,85002,15500.927,1034324
85012,Mussomeli,CL1A004002,"""AVV. G. LA RIZZA""",VIA V. E. ORLANDO 3,37.580079993969,13.756700015514,18454,37.4738288,13.7807446,village,Bompensiere,85002,15866.643,1112234
85012,Mussomeli,CL1A00700D,"""SORELLE SOLA - S. ENRICO""",VIA VANELLE 34,37.576419994038,13.756229958383,18454,37.4738288,13.7807446,village,Bompensiere,85002,15079.371,1020267
85020,Sutera,CLAA81806G,SUTERA - VIA ORTI,VIA ORTISNC,37.495530001,13.733689148,18454,37.4738288,13.7807446,village,Bompensiere,85002,18491.258,1923149
85010,Milena,CLAA82003C,"""GIANNI RODARI"" - MILENA",VIA GIACOMO MATTEOTTI SNC,37.469081600189,13.732520128041,18454,37.4738288,13.7807446,village,Bompensiere,85002,6090.898,405754
85011,Montedoro,CLAA82005E,MONTEDORO - ANNA FRANK,VIA DELLE ZOLFARE 7,37.454021044686,13.823865923149,18454,37.4738288,13.7807446,village,Bompensiere,85002,7068.269,486976
85011,Montedoro,CL1AGB500P,MARIA SS DEL ROSARIO E SAN GIUSEPPE,VIA GIACOMO LEOPARDI 3,37.455167874044,13.818643708422,18454,37.4738288,13.7807446,village,Bompensiere,85002,6219.324,395168
85002,Bompensiere,CLAA82004D,"""CARLO COLLODI"" - BOMPENSIERE",VIALE LUIGI PIRANDELLO SNC,37.472865594727,13.779018003767,18454,37.4738288,13.7807446,village,Bompensiere,85002,334.718,37554
85016,San Cataldo,CLAA024105,VIA CARDUCCI,VIA CARDUCCI,37.485537561746,13.992090007247,10370,37.4899412,14.0631618,city,Caltanissetta,85004,7733.348,538651
85016,San Cataldo,CLAA02502G,BALSAMO,VIA MONS. CAMMARATA,37.481522074469,13.983659992918,10370,37.4899412,14.0631618,city,Caltanissetta,85004,8779.224,609750
85016,San Cataldo,CLAA02501E,SAN FILIPPO NERI,VIA SAN FILIPPO NERI,37.482501306335,13.985727526099,10370,37.4899412,14.0631618,city,Caltanissetta,85004,8492.175,575305
85016,San Cataldo,CLAA02405V,RIONE BELVEDERE,VIA ENRICO FERMI,37.489845245283,13.995044130398,10370,37.4899412,14.0631618,city,Caltanissetta,85004,7474.983,527043
85016,San Cataldo,CLAA02406X,VIA CATTANEO,VIA CATTANEO,37.491731793901,13.987434159151,10370,37.4899412,14.0631618,city,Caltanissetta,85004,8437.095,613850
85016,San Cataldo,CLAA02401P,VIA R. LAMBRUSCHINI,VIA R. LAMBRUSCHINI,37.491792811627,13.989701469116,10370,37.4899412,14.0631618,city,Caltanissetta,85004,8255.779,619659
85016,San Cataldo,CLAA024093,CORSO UNITA' D'ITALIA,CORSO UNITA' D'ITALIA,37.492446240097,13.994229999266,10370,37.4899412,14.0631618,city,Caltanissetta,85004,7522.042,541683
85016,San Cataldo,CL1A02900A,KINDERS' SCHOOL SOC. COOP. SOCIALE,VIA BABBAURRA - SN,37.487551337971,13.997810290107,10370,37.4899412,14.0631618,city,Caltanissetta,85004,6973.545,482382
85017,Santa Caterina Villarmosa,CLAA807021,S.ANNA,VIA XX SETTEMBRE 225,37.589209982003,14.026959982713,10370,37.4899412,14.0631618,city,Caltanissetta,85004,15895.274,1361890
85017,Santa Caterina Villarmosa,CLAA80701X,"""MADRE TERESA DI CALCUTTA""",VIA TRIESTE SNC,37.58887407953,14.037207207711,10370,37.4899412,14.0631618,city,Caltanissetta,85004,15056.048,1276010
85017,Santa Caterina Villarmosa,CL1A00600N,"""COLLEGIO DI MARIA""",VIA P. E. GIUDICI 25,37.589139993111,14.035380023548,10370,37.4899412,14.0631618,city,Caltanissetta,85004,15021.985,1267529
85018,Serradifalco,CLAA82002B,FRANCESCA MORVILLO,VIA KENNEDY,37.454219185585,13.878055012687,10370,37.4899412,14.0631618,city,Caltanissetta,85004,19706.983,1321762
85018,Serradifalco,CLAA82001A,GIOVANNI FALCONE,VIA CAVALIERI DI VITTORIO VENETO,37.454848710936,13.88171871333,10370,37.4899412,14.0631618,city,Caltanissetta,85004,19193.895,1257359
85012,Mussomeli,CLAA81801A,VIA MADONNA DI FATIMA,VIA MADONNA DI FATIMA SNC,37.580294114535,13.754867037092,10370,37.4899412,14.0631618,city,Caltanissetta,85004,41250.482,2613323
85012,Mussomeli,CLAA81805E,"""MADRE TERESA DI CALCUTTA"" MUSS",VIA LEONARDO DA VINCI SNC,37.574733853815,13.75207473182,10370,37.4899412,14.0631618,city,Caltanissetta,85004,40838.988,2540559
85012,Mussomeli,CL1A004002,"""AVV. G. LA RIZZA""",VIA V. E. ORLANDO 3,37.580079993969,13.756700015514,10370,37.4899412,14.0631618,city,Caltanissetta,85004,41204.704,2618469
85012,Mussomeli,CL1A00700D,"""SORELLE SOLA - S. ENRICO""",VIA VANELLE 34,37.576419994038,13.756229958383,10370,37.4899412,14.0631618,city,Caltanissetta,85004,40417.433,2526502
85019,Sommatino,CLAA81501V,"""ARCOBALENO""",VIA B. CELLINI,37.332780551375,13.991721107746,10370,37.4899412,14.0631618,city,Caltanissetta,85004,26147.876,1652088
85019,Sommatino,CLAA81502X,"""MARIA HELENA PRESTI""",VIA CARDUCCI 5,37.336164998047,13.991970021274,10370,37.4899412,14.0631618,city,Caltanissetta,85004,25738.09,1615033
85008,Marianopoli,CLAA80403E,MARIANOPOLI-VIALE DELLA REGIONE,VIA PIAZZA ARMERINA,37.599525637969,13.91285129353,10370,37.4899412,14.0631618,city,Caltanissetta,85004,27030.128,1667544
85006,Delia,CLAA815031,DELIA - VIA SANDRO PERTINI,VIA SANDRO PERTINI SNC,37.359751926203,13.935017644157,10370,37.4899412,14.0631618,city,Caltanissetta,85004,22679.934,1446295
85006,Delia,CL1A024007,"""SANT' ANTONIO""",PIAZZA S. ANTONIO 9,37.356649992222,13.925260004553,10370,37.4899412,14.0631618,city,Caltanissetta,85004,23474.671,1509838
85009,Mazzarino,CLAA816071,MADUNNUZZA,VIA DELLA PACE,37.300097335486,14.210186597973,10370,37.4899412,14.0631618,city,Caltanissetta,85004,38699.718,2324160
85009,Mazzarino,CLAA816082,SAN DOMENICO,CORSO VITTORIO EMANUELE 291,37.305337986835,14.218513588391,10370,37.4899412,14.0631618,city,Caltanissetta,85004,38651.45,2341464
85004,Caltanissetta,CLAA822012,"""FELICIA BARTOLOTTA IMPASTATO""",VILL. S. BARBARA - VIA TERRAMAGRA SNC,37.500363402193,14.089505885847,10370,37.4899412,14.0631618,city,Caltanissetta,85004,5472.473,446122
85004,Caltanissetta,CLAA822045,FIRRIO,VIA FIRRIO,37.505537023962,14.061622570421,10370,37.4899412,14.0631618,city,Caltanissetta,85004,2675.984,286429
85004,Caltanissetta,CLAA82501D,"""HANS CHRISTIAN ANDERSEN""",VIA GENERALE CASCINO 88,37.494810012865,14.066210004532,10370,37.4899412,14.0631618,city,Caltanissetta,85004,1699.177,169581
85004,Caltanissetta,CLAA822056,"""MADDALENA CALAFATO""",VIA MADDALENA CALAFATO,37.493244008328,14.059071031788,10370,37.4899412,14.0631618,city,Caltanissetta,85004,698.505,67476
85004,Caltanissetta,CLAA822034,SAN GIUSTO,VIALE REGINA MARGHERITA26,37.486510000884,14.061810008279,10370,37.4899412,14.0631618,city,Caltanissetta,85004,2095.209,204657
85004,Caltanissetta,CLAA822023,SANTA DOMENICA,VIA ANGELI,37.487632668543,14.070047875842,10370,37.4899412,14.0631618,city,Caltanissetta,85004,1946.158,236931
85004,Caltanissetta,CLAA830022,VIA ALDO MORO,VIA ALDO MORO,37.485073545716,14.047964217198,10370,37.4899412,14.0631618,city,Caltanissetta,85004,2135.719,206033
85004,Caltanissetta,CLAA828011,PIAZZA MARTIRI D'UNGHERIA,PIAZZA MARTIRI D'UNGHERIA 3,37.492580007525,14.052269977542,10370,37.4899412,14.0631618,city,Caltanissetta,85004,1099.346,85826
85004,Caltanissetta,CLAA828022,EX OMNI,VIA MALTA,37.491892444551,14.043668528865,10370,37.4899412,14.0631618,city,Caltanissetta,85004,1911.626,146377
85004,Caltanissetta,CLAA828033,LOMBARDO RADICE,VIA CATANIA,37.492030068259,14.053354663076,10370,37.4899412,14.0631618,city,Caltanissetta,85004,1040.186,80865
85004,Caltanissetta,CLAA82502E,S.FLAVIA,PIAZZA S. FLAVIA,37.493950776716,14.065180029478,10370,37.4899412,14.0631618,city,Caltanissetta,85004,1698.909,169549
85004,Caltanissetta,CLAA82504L,Q.RE UNRRA CASAS,VIA ACI,37.491635992376,14.042035279913,10370,37.4899412,14.0631618,city,Caltanissetta,85004,2138.89,173648
85004,Caltanissetta,CLAA821016,"""SANTA PETRONILLA""",VIA MARIA MONTESSORI SNC,37.497508602129,14.051983040892,10370,37.4899412,14.0631618,city,Caltanissetta,85004,2277.535,210118
85004,Caltanissetta,CLAA001045,LEONARDO SCIASCIA,VIA NAPOLEONE COLAJANNI,37.485497693361,14.058817691963,10370,37.4899412,14.0631618,city,Caltanissetta,85004,875.541,89801
85004,Caltanissetta,CLAA001056,PANTANO,VIALE STEFANO CANDURA,37.47469693921,14.045270199031,10370,37.4899412,14.0631618,city,Caltanissetta,85004,2765.706,234986
85004,Caltanissetta,CLAA001012,VIA FALETRA,VIA FALETRA,37.488385011669,14.051745018946,10370,37.4899412,14.0631618,city,Caltanissetta,85004,1547.406,121676
85004,Caltanissetta,CLAA821027,VIA REAL MAESTRANZA,VIA REAL MAESTRANZA,37.498183522937,14.057996862851,10370,37.4899412,14.0631618,city,Caltanissetta,85004,2179.816,205861
85004,Caltanissetta,CLAA830011,DON LORENZO MILANI,VIA FERDINANDO I 24,37.485010509795,14.041761686746,10370,37.4899412,14.0631618,city,Caltanissetta,85004,2285.876,222833
85004,Caltanissetta,CLAA830033,VIA TURATI,VIA TURATI,37.482405728709,14.035079458688,10370,37.4899412,14.0631618,city,Caltanissetta,85004,2991.369,307506
85004,Caltanissetta,CLAA82503G,"""LEONE XIII""",VIA LEONE XIII,37.49125173839,14.04075830257,10370,37.4899412,14.0631618,city,Caltanissetta,85004,2275.482,160849
85004,Caltanissetta,CLAA82505N,CITTADELLA,VIA LA CITTADELLA,37.494068394929,14.041842914172,10370,37.4899412,14.0631618,city,Caltanissetta,85004,2104.19,162032
85004,Caltanissetta,CL1ACV5004,KINDER'S SCHOOL SOC. COOP.,VIA BORREMANS N. 8,37.496969987404,14.056829984326,10370,37.4899412,14.0631618,city,Caltanissetta,85004,1719.156,165786
85004,Caltanissetta,CL1A010009,"""OASI CRISTO RE""",VIA SAN GIULIANO 4,37.50034998986,14.063290000923,10370,37.4899412,14.0631618,city,Caltanissetta,85004,2029.628,208866
85004,Caltanissetta,CL1A00100E,"""MONS. GIOVANNI IACONO""",VIA VITALIANO BRANCATI 3,37.496400017988,14.049479977251,10370,37.4899412,14.0631618,city,Caltanissetta,85004,1962.988,150523
85004,Caltanissetta,CL1A02700P,NEW BABY' S COLLEGE,VIA ROMITA S.N.C,37.477933024581,14.044081153004,10370,37.4899412,14.0631618,city,Caltanissetta,85004,3223.087,328271
85004,Caltanissetta,CL1A003006,"""SIGNORE DELLA CITTA'""",VIA SIGNORE DELLA CITTA' 64,37.486429995618,14.065120021843,10370,37.4899412,14.0631618,city,Caltanissetta,85004,2000.91,235086
85004,Caltanissetta,CL1AF2500T,"SCUOLA DELL' INFANZIA "" IL FANTABOSCHIO""",VIALE DELLA REGIONE 1,37.493190000529,14.051679975377,10370,37.4899412,14.0631618,city,Caltanissetta,85004,1675.836,126246
85016,San Cataldo,CLAA024105,VIA CARDUCCI,VIA CARDUCCI,37.485537561746,13.992090007247,10371,37.4988749,14.0904894,village,Caltanissetta,85004,12255.43,773821
85016,San Cataldo,CLAA02502G,BALSAMO,VIA MONS. CAMMARATA,37.481522074469,13.983659992918,10371,37.4988749,14.0904894,village,Caltanissetta,85004,13301.305,844920
85016,San Cataldo,CLAA02501E,SAN FILIPPO NERI,VIA SAN FILIPPO NERI,37.482501306335,13.985727526099,10371,37.4988749,14.0904894,village,Caltanissetta,85004,13014.257,810475
85016,San Cataldo,CLAA02405V,RIONE BELVEDERE,VIA ENRICO FERMI,37.489845245283,13.995044130398,10371,37.4988749,14.0904894,village,Caltanissetta,85004,11997.065,762213
85016,San Cataldo,CLAA02406X,VIA CATTANEO,VIA CATTANEO,37.491731793901,13.987434159151,10371,37.4988749,14.0904894,village,Caltanissetta,85004,12959.177,849020
85016,San Cataldo,CLAA02401P,VIA R. LAMBRUSCHINI,VIA R. LAMBRUSCHINI,37.491792811627,13.989701469116,10371,37.4988749,14.0904894,village,Caltanissetta,85004,12777.861,854829
85016,San Cataldo,CLAA024093,CORSO UNITA' D'ITALIA,CORSO UNITA' D'ITALIA,37.492446240097,13.994229999266,10371,37.4988749,14.0904894,village,Caltanissetta,85004,12044.124,776853
85016,San Cataldo,CL1A02900A,KINDERS' SCHOOL SOC. COOP. SOCIALE,VIA BABBAURRA - SN,37.487551337971,13.997810290107,10371,37.4988749,14.0904894,village,Caltanissetta,85004,11495.627,717552
85017,Santa Caterina Villarmosa,CLAA807021,S.ANNA,VIA XX SETTEMBRE 225,37.589209982003,14.026959982713,10371,37.4988749,14.0904894,village,Caltanissetta,85004,16069.691,1432321
85017,Santa Caterina Villarmosa,CLAA80701X,"""MADRE TERESA DI CALCUTTA""",VIA TRIESTE SNC,37.58887407953,14.037207207711,10371,37.4988749,14.0904894,village,Caltanissetta,85004,15230.465,1346441
85017,Santa Caterina Villarmosa,CL1A00600N,"""COLLEGIO DI MARIA""",VIA P. E. GIUDICI 25,37.589139993111,14.035380023548,10371,37.4988749,14.0904894,village,Caltanissetta,85004,15196.401,1337960
85018,Serradifalco,CLAA82002B,FRANCESCA MORVILLO,VIA KENNEDY,37.454219185585,13.878055012687,10371,37.4988749,14.0904894,village,Caltanissetta,85004,24668.992,1539806
85018,Serradifalco,CLAA82001A,GIOVANNI FALCONE,VIA CAVALIERI DI VITTORIO VENETO,37.454848710936,13.88171871333,10371,37.4988749,14.0904894,village,Caltanissetta,85004,24155.905,1475403
85012,Mussomeli,CLAA81801A,VIA MADONNA DI FATIMA,VIA MADONNA DI FATIMA SNC,37.580294114535,13.754867037092,10371,37.4988749,14.0904894,village,Caltanissetta,85004,46212.492,2831367
85012,Mussomeli,CLAA81805E,"""MADRE TERESA DI CALCUTTA"" MUSS",VIA LEONARDO DA VINCI SNC,37.574733853815,13.75207473182,10371,37.4988749,14.0904894,village,Caltanissetta,85004,45800.998,2758603
85012,Mussomeli,CL1A004002,"""AVV. G. LA RIZZA""",VIA V. E. ORLANDO 3,37.580079993969,13.756700015514,10371,37.4988749,14.0904894,village,Caltanissetta,85004,46166.714,2836513
85012,Mussomeli,CL1A00700D,"""SORELLE SOLA - S. ENRICO""",VIA VANELLE 34,37.576419994038,13.756229958383,10371,37.4988749,14.0904894,village,Caltanissetta,85004,45379.442,2744546
85019,Sommatino,CLAA81501V,"""ARCOBALENO""",VIA B. CELLINI,37.332780551375,13.991721107746,10371,37.4988749,14.0904894,village,Caltanissetta,85004,30358.271,1948402
85019,Sommatino,CLAA81502X,"""MARIA HELENA PRESTI""",VIA CARDUCCI 5,37.336164998047,13.991970021274,10371,37.4988749,14.0904894,village,Caltanissetta,85004,29948.486,1911347
85008,Marianopoli,CLAA80403E,MARIANOPOLI-VIALE DELLA REGIONE,VIA PIAZZA ARMERINA,37.599525637969,13.91285129353,10371,37.4988749,14.0904894,village,Caltanissetta,85004,30916.19,1856148
85006,Delia,CLAA815031,DELIA - VIA SANDRO PERTINI,VIA SANDRO PERTINI SNC,37.359751926203,13.935017644157,10371,37.4988749,14.0904894,village,Caltanissetta,85004,26890.33,1742609
85006,Delia,CL1A024007,"""SANT' ANTONIO""",PIAZZA S. ANTONIO 9,37.356649992222,13.925260004553,10371,37.4988749,14.0904894,village,Caltanissetta,85004,27685.067,1806152
85009,Mazzarino,CLAA816071,MADUNNUZZA,VIA DELLA PACE,37.300097335486,14.210186597973,10371,37.4988749,14.0904894,village,Caltanissetta,85004,37607.446,2231746
85009,Mazzarino,CLAA816082,SAN DOMENICO,CORSO VITTORIO EMANUELE 291,37.305337986835,14.218513588391,10371,37.4988749,14.0904894,village,Caltanissetta,85004,37559.177,2249050
85004,Caltanissetta,CLAA822012,"""FELICIA BARTOLOTTA IMPASTATO""",VILL. S. BARBARA - VIA TERRAMAGRA SNC,37.500363402193,14.089505885847,10371,37.4988749,14.0904894,village,Caltanissetta,85004,232.563,30994
85004,Caltanissetta,CLAA822045,FIRRIO,VIA FIRRIO,37.505537023962,14.061622570421,10371,37.4988749,14.0904894,village,Caltanissetta,85004,4924.894,333621
85004,Caltanissetta,CLAA82501D,"""HANS CHRISTIAN ANDERSEN""",VIA GENERALE CASCINO 88,37.494810012865,14.066210004532,10371,37.4988749,14.0904894,village,Caltanissetta,85004,3881.046,280664
85004,Caltanissetta,CLAA822056,"""MADDALENA CALAFATO""",VIA MADDALENA CALAFATO,37.493244008328,14.059071031788,10371,37.4988749,14.0904894,village,Caltanissetta,85004,4757.749,353973
85004,Caltanissetta,CLAA822034,SAN GIUSTO,VIALE REGINA MARGHERITA26,37.486510000884,14.061810008279,10371,37.4988749,14.0904894,village,Caltanissetta,85004,4609.53,344210
85004,Caltanissetta,CLAA822023,SANTA DOMENICA,VIA ANGELI,37.487632668543,14.070047875842,10371,37.4988749,14.0904894,village,Caltanissetta,85004,4509.131,349182
85004,Caltanissetta,CLAA830022,VIA ALDO MORO,VIA ALDO MORO,37.485073545716,14.047964217198,10371,37.4988749,14.0904894,village,Caltanissetta,85004,6346.115,502347
85004,Caltanissetta,CLAA828011,PIAZZA MARTIRI D'UNGHERIA,PIAZZA MARTIRI D'UNGHERIA 3,37.492580007525,14.052269977542,10371,37.4988749,14.0904894,village,Caltanissetta,85004,5309.741,382140
85004,Caltanissetta,CLAA828022,EX OMNI,VIA MALTA,37.491892444551,14.043668528865,10371,37.4988749,14.0904894,village,Caltanissetta,85004,6480.575,392762
85004,Caltanissetta,CLAA828033,LOMBARDO RADICE,VIA CATANIA,37.492030068259,14.053354663076,10371,37.4988749,14.0904894,village,Caltanissetta,85004,5250.582,377179
85004,Caltanissetta,CLAA82502E,S.FLAVIA,PIAZZA S. FLAVIA,37.493950776716,14.065180029478,10371,37.4988749,14.0904894,village,Caltanissetta,85004,4056.432,301711
85004,Caltanissetta,CLAA82504L,Q.RE UNRRA CASAS,VIA ACI,37.491635992376,14.042035279913,10371,37.4988749,14.0904894,village,Caltanissetta,85004,6707.84,420033
85004,Caltanissetta,CLAA821016,"""SANTA PETRONILLA""",VIA MARIA MONTESSORI SNC,37.497508602129,14.051983040892,10371,37.4988749,14.0904894,village,Caltanissetta,85004,5470.026,333320
85004,Caltanissetta,CLAA001045,LEONARDO SCIASCIA,VIA NAPOLEONE COLAJANNI,37.485497693361,14.058817691963,10371,37.4988749,14.0904894,village,Caltanissetta,85004,5085.936,386115
85004,Caltanissetta,CLAA001056,PANTANO,VIALE STEFANO CANDURA,37.47469693921,14.045270199031,10371,37.4988749,14.0904894,village,Caltanissetta,85004,6976.101,531300
85004,Caltanissetta,CLAA001012,VIA FALETRA,VIA FALETRA,37.488385011669,14.051745018946,10371,37.4988749,14.0904894,village,Caltanissetta,85004,5757.801,417990
85004,Caltanissetta,CLAA821027,VIA REAL MAESTRANZA,VIA REAL MAESTRANZA,37.498183522937,14.057996862851,10371,37.4988749,14.0904894,village,Caltanissetta,85004,5372.307,329063
85004,Caltanissetta,CLAA830011,DON LORENZO MILANI,VIA FERDINANDO I 24,37.485010509795,14.041761686746,10371,37.4988749,14.0904894,village,Caltanissetta,85004,6496.272,519147
85004,Caltanissetta,CLAA830033,VIA TURATI,VIA TURATI,37.482405728709,14.035079458688,10371,37.4988749,14.0904894,village,Caltanissetta,85004,7201.765,603820
85004,Caltanissetta,CLAA82503G,"""LEONE XIII""",VIA LEONE XIII,37.49125173839,14.04075830257,10371,37.4988749,14.0904894,village,Caltanissetta,85004,6819.16,392856
85004,Caltanissetta,CLAA82505N,CITTADELLA,VIA LA CITTADELLA,37.494068394929,14.041842914172,10371,37.4988749,14.0904894,village,Caltanissetta,85004,6647.868,394039
85004,Caltanissetta,CL1ACV5004,KINDER'S SCHOOL SOC. COOP.,VIA BORREMANS N. 8,37.496969987404,14.056829984326,10371,37.4988749,14.0904894,village,Caltanissetta,85004,4951.016,291390
85004,Caltanissetta,CL1A010009,"""OASI CRISTO RE""",VIA SAN GIULIANO 4,37.50034998986,14.063290000923,10371,37.4988749,14.0904894,village,Caltanissetta,85004,4278.539,256058
85004,Caltanissetta,CL1A00100E,"""MONS. GIOVANNI IACONO""",VIA VITALIANO BRANCATI 3,37.496400017988,14.049479977251,10371,37.4988749,14.0904894,village,Caltanissetta,85004,5849.051,339127
85004,Caltanissetta,CL1A02700P,NEW BABY' S COLLEGE,VIA ROMITA S.N.C,37.477933024581,14.044081153004,10371,37.4988749,14.0904894,village,Caltanissetta,85004,7433.483,624585
85004,Caltanissetta,CL1A003006,"""SIGNORE DELLA CITTA'""",VIA SIGNORE DELLA CITTA' 64,37.486429995618,14.065120021843,10371,37.4988749,14.0904894,village,Caltanissetta,85004,4563.883,347337
85004,Caltanissetta,CL1AF2500T,"SCUOLA DELL' INFANZIA "" IL FANTABOSCHIO""",VIALE DELLA REGIONE 1,37.493190000529,14.051679975377,10371,37.4988749,14.0904894,village,Caltanissetta,85004,6244.872,372045
85013,Niscemi,CLAA021039,"""VIA CALATAFIMI""",VIA CALATAFIMI 12,37.148917440708,14.38802529261,18215,37.0664363,14.2502445,town,Gela,85007,20215.184,1438355
85013,Niscemi,CLAA82904X,"""BELVEDERE""",VIA IV NOVEMBRE 60,37.1442,14.414085615,18215,37.0664363,14.2502445,town,Gela,85007,21318.157,1537145
85013,Niscemi,CLAA02105B,"""DON L. MILANI""",VIA TIZIANO,37.150403051632,14.392364082697,18215,37.0664363,14.2502445,town,Gela,85007,20235.97,1440849
85013,Niscemi,CLAA83302D,"""GESUALDO BUFALINO""",VIA PITRE',37.14742932332,14.398559975332,18215,37.0664363,14.2502445,town,Gela,85007,19963.038,1436359
85013,Niscemi,CLAA83304G,"""SAN MARTINO""",VIA SAN MARTINO SNC,37.142930630859,14.396466417828,18215,37.0664363,14.2502445,town,Gela,85007,19266.126,1366003
85013,Niscemi,CLAA83303E,LUIGI CAPUANA,VIA V. CARUSO,37.144566526823,14.395543825783,18215,37.0664363,14.2502445,town,Gela,85007,19509.62,1395221
85013,Niscemi,CLAA83301C,LUIGI PIRANDELLO,VIA TOMASI DI LAMPEDUSA,37.143311995593,14.399650009885,18215,37.0664363,14.2502445,town,Gela,85007,19577.831,1403904
85013,Niscemi,CLAA82902T,"""SAN GIUSEPPE""",VIA V. CRESCIMONE,37.145696657181,14.387660014624,18215,37.0664363,14.2502445,town,Gela,85007,20021.358,1420295
85013,Niscemi,CLAA82901R,"""DON BOSCO""",C.DA CANALE,37.148009740921,14.383603155925,18215,37.0664363,14.2502445,town,Gela,85007,20580.934,1467029
85013,Niscemi,CLAA82903V,"""CARLO COLLODI""",VIA GORIZIA,37.142285801892,14.392699334554,18215,37.0664363,14.2502445,town,Gela,85007,19377.239,1372235
85013,Niscemi,CL1AUP500F,BIMBI BELLI E RIBELLI,Via Guglielmo Marconi n. 139,37.150649990491,14.38822998404,18215,37.0664363,14.2502445,town,Gela,85007,20402.542,1437717
85013,Niscemi,CL1A02600V,""" NUOVA BABY SCHOOL""",VIA BOLOGNA C/N,37.150524008428,14.386274874855,18215,37.0664363,14.2502445,town,Gela,85007,20521.07,1444326
85013,Niscemi,CL1A032006,""" SAN GIUSEPPE""",VIA CRESCIMONE 2,37.145850009818,14.387809966871,18215,37.0664363,14.2502445,town,Gela,85007,20008.121,1418013
85013,Niscemi,CL1A01800X,"""SNOOPY""",VIA LE MOLI 33,37.145930015084,14.385990004235,18215,37.0664363,14.2502445,town,Gela,85007,20110.58,1419676
85003,Butera,CLAA82402P,SAN ROCCO,VIA SAN ROCCO 1,37.186160007113,14.186970011418,18215,37.0664363,14.2502445,town,Gela,85007,19541.164,1209760
85003,Butera,CLAA82401N,PIAZZALE ITALIA,PIAZZALE ITALIA 1,37.193230016713,14.181880016896,18215,37.0664363,14.2502445,town,Gela,85007,19365.358,1179832
85009,Mazzarino,CLAA816071,MADUNNUZZA,VIA DELLA PACE,37.300097335486,14.210186597973,18215,37.0664363,14.2502445,town,Gela,85007,33021.377,2187568
85009,Mazzarino,CLAA816082,SAN DOMENICO,CORSO VITTORIO EMANUELE 291,37.305337986835,14.218513588391,18215,37.0664363,14.2502445,town,Gela,85007,34033.002,2279647
85007,Gela,CLAA81103N,"""G. VERGA"" - VIA SALONICCO N. 2",VIA SALONICCO N. 2,37.076260013076,14.220750003225,18215,37.0664363,14.2502445,town,Gela,85007,3199.939,265054
85007,Gela,CLAA827026,"""S. M. DI GESU'""",VIA VENTURA N. 122,37.068430016315,14.24767996848,18215,37.0664363,14.2502445,town,Gela,85007,445.89,53507
85007,Gela,CLAA81002R,"""GIOVANNI XXIII""",VIA SETTEFARINI SNC,37.098619968742,14.258290059639,18215,37.0664363,14.2502445,town,Gela,85007,4220.055,391484
85007,Gela,CLAA014025,"""BENEDETTO CROCE""",LARGO BORCA DI CADORE,37.075998592031,14.231754145376,18215,37.0664363,14.2502445,town,Gela,85007,2397.717,220747
85007,Gela,CLAA81101G,VIA CAVIAGA E VIA PANDINO,VIA CAVIAGA 6 - VIA PANDINO 4,37.07879000673,14.210790039138,18215,37.0664363,14.2502445,town,Gela,85007,4265.511,347592
85007,Gela,CLAA01102N,GAETANO ORTISI,VIA ACHILLE GRANDI,37.073177357271,14.234949155067,18215,37.0664363,14.2502445,town,Gela,85007,1866.071,172766
85007,Gela,CLAA82403Q,MADRE TERESA DI CALCUTTA,VIA PABLO PICASSO,37.080091059001,14.237752920566,18215,37.0664363,14.2502445,town,Gela,85007,2330.293,163633
85007,Gela,CLAA82302V,"""SAN SEBASTIANO""GELA",VIA FUENTES,37.080780017227,14.252715019627,18215,37.0664363,14.2502445,town,Gela,85007,1876.325,151140
85007,Gela,CLAA83202N,"""CAPPUCCINI""",VIA FEACE 130,37.067910003042,14.242500036136,18215,37.0664363,14.2502445,town,Gela,85007,981.313,106592
85007,Gela,CLAA82301T,VIA GIULIO SIRAGUSA,VIA GIULIO SIRAGUSA,37.071993547986,14.255006144089,18215,37.0664363,14.2502445,town,Gela,85007,1129.518,105058
85007,Gela,CLAA83201L,"""FEACE""",VIA FEACE 128,37.067940010255,14.242419988961,18215,37.0664363,14.2502445,town,Gela,85007,989.145,107531
85007,Gela,CLAA83203P,"""EMANUELA LOI""",VIA CAPPUCCINI SNC,37.067650837611,14.243873405568,18215,37.0664363,14.2502445,town,Gela,85007,973.183,105616
85007,Gela,CLAA81104P,"""LEONARDO SCIASCIA""",VIA GENOVA 9,37.072459993452,14.235889983473,18215,37.0664363,14.2502445,town,Gela,85007,1797.408,166684
85007,Gela,CLAA83102T,"""NICHOLAS GREEN""",VIA BORROMINI,37.075261376534,14.249880222057,18215,37.0664363,14.2502445,town,Gela,85007,1266.548,110702
85007,Gela,CLAA83101R,"""COSTA ZAMPOGNA""",VIA RECANATI,37.073061138437,14.244966970123,18215,37.0664363,14.2502445,town,Gela,85007,1155.207,118440
85007,Gela,CLAA014047,VIA EUROPA,VIA EUROPA 119,37.070509985588,14.229889965723,18215,37.0664363,14.2502445,town,Gela,85007,2215.76,199026
85007,Gela,CLAA014014,LUIGI CAPUANA,VIA PALAZZI 48,37.073140017257,14.233800039736,18215,37.0664363,14.2502445,town,Gela,85007,2039.869,188432
85007,Gela,CLAA82404R,ANNA FRANK,VIA BUTERA S.N.,37.077313395242,14.233009883953,18215,37.0664363,14.2502445,town,Gela,85007,2212.257,186032
85007,Gela,CLAA83103V,DON LORENZO MILANI,VIA VENEZIA SNC,37.074846704347,14.245271343941,18215,37.0664363,14.2502445,town,Gela,85007,1382.12,99246
85007,Gela,CLAA827037,"""CARLO COLLODI""",VIA GIARDINELLI-,37.066722495873,14.252311328663,18215,37.0664363,14.2502445,town,Gela,85007,379.045,45485
85007,Gela,CLAA01106T,ENRICO SOLITO -S.MARIA DI GESU',VIA VENTURA,37.067819579055,14.249004080774,18215,37.0664363,14.2502445,town,Gela,85007,469.884,56386
85007,Gela,CLAA01108X,RITA LEVI MONTALCINI,VIA PAOLO ORSI 29,37.069611462797,14.233615300892,18215,37.0664363,14.2502445,town,Gela,85007,1915.193,181171
85007,Gela,CLAA011091,GIOBERTI,VIA PALAZZI 95,37.07250001704,14.234660023001,18215,37.0664363,14.2502445,town,Gela,85007,1945.925,181935
85007,Gela,CLAA827015,"""P. E. GIUDICI""",Non Disponibile,37.087110001,14.279579453,18215,37.0664363,14.2502445,town,Gela,85007,7332.378,686008
85007,Gela,CLAA83104X,PIAZZA ALEMANNA,VIA A. NOBEL,37.073155801095,14.247053044262,18215,37.0664363,14.2502445,town,Gela,85007,1230.347,95718
85007,Gela,CLAA81001Q,VIA SALONICCO,VIA SALONICCO SNC,37.077278264678,14.221432101584,18215,37.0664363,14.2502445,town,Gela,85007,3327.01,280303
85007,Gela,CLAA82303X,"""FALCONE-BORSELLINO"" GELA",VIA PELLEGRINI SNC,37.07429729901,14.260265591929,18215,37.0664363,14.2502445,town,Gela,85007,2239.521,212951
85007,Gela,CL1AHQ500S,"scuola dell'infanzia ""Istituto Ancelle missionarie di Cristo Re""",via E. Morselli 63,37.071040015235,14.231320002224,18215,37.0664363,14.2502445,town,Gela,85007,2221.481,199713
85007,Gela,CL1A02100Q,"""PADRE GIOVANNI MINOZZI""",VIA EUROPA 54,37.070220013647,14.229610010157,18215,37.0664363,14.2502445,town,Gela,85007,2257.821,204073
85007,Gela,CL1A02000X,"""SUOR TERESA VALSE'""",VIALE CORTEMAGGIORE 132,37.079399999734,14.209620009274,18215,37.0664363,14.2502445,town,Gela,85007,4403.202,368862
85013,Niscemi,CLAA021039,"""VIA CALATAFIMI""",VIA CALATAFIMI 12,37.148917440708,14.38802529261,18216,37.0980965,14.1541449,village,Gela,85007,29466.972,1960337
85013,Niscemi,CLAA82904X,"""BELVEDERE""",VIA IV NOVEMBRE 60,37.1442,14.414085615,18216,37.0980965,14.1541449,village,Gela,85007,30569.945,2059127
85013,Niscemi,CLAA02105B,"""DON L. MILANI""",VIA TIZIANO,37.150403051632,14.392364082697,18216,37.0980965,14.1541449,village,Gela,85007,29487.758,1962831
85013,Niscemi,CLAA83302D,"""GESUALDO BUFALINO""",VIA PITRE',37.14742932332,14.398559975332,18216,37.0980965,14.1541449,village,Gela,85007,29214.826,1958341
85013,Niscemi,CLAA83304G,"""SAN MARTINO""",VIA SAN MARTINO SNC,37.142930630859,14.396466417828,18216,37.0980965,14.1541449,village,Gela,85007,28517.914,1887985
85013,Niscemi,CLAA83303E,LUIGI CAPUANA,VIA V. CARUSO,37.144566526823,14.395543825783,18216,37.0980965,14.1541449,village,Gela,85007,28761.408,1917203
85013,Niscemi,CLAA83301C,LUIGI PIRANDELLO,VIA TOMASI DI LAMPEDUSA,37.143311995593,14.399650009885,18216,37.0980965,14.1541449,village,Gela,85007,28829.619,1925886
85013,Niscemi,CLAA82902T,"""SAN GIUSEPPE""",VIA V. CRESCIMONE,37.145696657181,14.387660014624,18216,37.0980965,14.1541449,village,Gela,85007,29273.146,1942277
85013,Niscemi,CLAA82901R,"""DON BOSCO""",C.DA CANALE,37.148009740921,14.383603155925,18216,37.0980965,14.1541449,village,Gela,85007,29832.722,1989011
85013,Niscemi,CLAA82903V,"""CARLO COLLODI""",VIA GORIZIA,37.142285801892,14.392699334554,18216,37.0980965,14.1541449,village,Gela,85007,28629.027,1894217
85013,Niscemi,CL1AUP500F,BIMBI BELLI E RIBELLI,Via Guglielmo Marconi n. 139,37.150649990491,14.38822998404,18216,37.0980965,14.1541449,village,Gela,85007,29654.33,1959699
85013,Niscemi,CL1A02600V,""" NUOVA BABY SCHOOL""",VIA BOLOGNA C/N,37.150524008428,14.386274874855,18216,37.0980965,14.1541449,village,Gela,85007,29772.858,1966308
85013,Niscemi,CL1A032006,""" SAN GIUSEPPE""",VIA CRESCIMONE 2,37.145850009818,14.387809966871,18216,37.0980965,14.1541449,village,Gela,85007,29259.908,1939995
85013,Niscemi,CL1A01800X,"""SNOOPY""",VIA LE MOLI 33,37.145930015084,14.385990004235,18216,37.0980965,14.1541449,village,Gela,85007,29362.368,1941658
85003,Butera,CLAA82402P,SAN ROCCO,VIA SAN ROCCO 1,37.186160007113,14.186970011418,18216,37.0980965,14.1541449,village,Gela,85007,19160.9,1606922
85003,Butera,CLAA82401N,PIAZZALE ITALIA,PIAZZALE ITALIA 1,37.193230016713,14.181880016896,18216,37.0980965,14.1541449,village,Gela,85007,18360.616,1539524
85009,Mazzarino,CLAA816071,MADUNNUZZA,VIA DELLA PACE,37.300097335486,14.210186597973,18216,37.0980965,14.1541449,village,Gela,85007,36083.456,2079052
85009,Mazzarino,CLAA816082,SAN DOMENICO,CORSO VITTORIO EMANUELE 291,37.305337986835,14.218513588391,18216,37.0980965,14.1541449,village,Gela,85007,36937.734,2160970
85007,Gela,CLAA81103N,"""G. VERGA"" - VIA SALONICCO N. 2",VIA SALONICCO N. 2,37.076260013076,14.220750003225,18216,37.0980965,14.1541449,village,Gela,85007,6801.894,446235
85007,Gela,CLAA827026,"""S. M. DI GESU'""",VIA VENTURA N. 122,37.068430016315,14.24767996848,18216,37.0980965,14.1541449,village,Gela,85007,9704.175,642498
85007,Gela,CLAA81002R,"""GIOVANNI XXIII""",VIA SETTEFARINI SNC,37.098619968742,14.258290059639,18216,37.0980965,14.1541449,village,Gela,85007,12166.584,953504
85007,Gela,CLAA014025,"""BENEDETTO CROCE""",LARGO BORCA DI CADORE,37.075998592031,14.231754145376,18216,37.0980965,14.1541449,village,Gela,85007,8047.35,519911
85007,Gela,CLAA81101G,VIA CAVIAGA E VIA PANDINO,VIA CAVIAGA 6 - VIA PANDINO 4,37.07879000673,14.210790039138,18216,37.0980965,14.1541449,village,Gela,85007,6583.106,452602
85007,Gela,CLAA01102N,GAETANO ORTISI,VIA ACHILLE GRANDI,37.073177357271,14.234949155067,18216,37.0980965,14.1541449,village,Gela,85007,8201.957,532594
85007,Gela,CLAA82403Q,MADRE TERESA DI CALCUTTA,VIA PABLO PICASSO,37.080091059001,14.237752920566,18216,37.0980965,14.1541449,village,Gela,85007,8183.611,515426
85007,Gela,CLAA82302V,"""SAN SEBASTIANO""GELA",VIA FUENTES,37.080780017227,14.252715019627,18216,37.0980965,14.1541449,village,Gela,85007,9765.225,697019
85007,Gela,CLAA83202N,"""CAPPUCCINI""",VIA FEACE 130,37.067910003042,14.242500036136,18216,37.0980965,14.1541449,village,Gela,85007,9210.006,637562
85007,Gela,CLAA82301T,VIA GIULIO SIRAGUSA,VIA GIULIO SIRAGUSA,37.071993547986,14.255006144089,18216,37.0980965,14.1541449,village,Gela,85007,9922.805,618856
85007,Gela,CLAA83201L,"""FEACE""",VIA FEACE 128,37.067940010255,14.242419988961,18216,37.0980965,14.1541449,village,Gela,85007,9202.174,636622
85007,Gela,CLAA83203P,"""EMANUELA LOI""",VIA CAPPUCCINI SNC,37.067650837611,14.243873405568,18216,37.0980965,14.1541449,village,Gela,85007,9409.952,661556
85007,Gela,CLAA81104P,"""LEONARDO SCIASCIA""",VIA GENOVA 9,37.072459993452,14.235889983473,18216,37.0980965,14.1541449,village,Gela,85007,8293.074,539263
85007,Gela,CLAA83102T,"""NICHOLAS GREEN""",VIA BORROMINI,37.075261376534,14.249880222057,18216,37.0980965,14.1541449,village,Gela,85007,9425.991,596347
85007,Gela,CLAA83101R,"""COSTA ZAMPOGNA""",VIA RECANATI,37.073061138437,14.244966970123,18216,37.0980965,14.1541449,village,Gela,85007,9090.002,565437
85007,Gela,CLAA014047,VIA EUROPA,VIA EUROPA 119,37.070509985588,14.229889965723,18216,37.0980965,14.1541449,village,Gela,85007,8027.889,541451
85007,Gela,CLAA014014,LUIGI CAPUANA,VIA PALAZZI 48,37.073140017257,14.233800039736,18216,37.0980965,14.1541449,village,Gela,85007,8034.636,517127
85007,Gela,CLAA82404R,ANNA FRANK,VIA BUTERA S.N.,37.077313395242,14.233009883953,18216,37.0980965,14.1541449,village,Gela,85007,7856.927,490982
85007,Gela,CLAA83103V,DON LORENZO MILANI,VIA VENEZIA SNC,37.074846704347,14.245271343941,18216,37.0980965,14.1541449,village,Gela,85007,8844.869,539353
85007,Gela,CLAA827037,"""CARLO COLLODI""",VIA GIARDINELLI-,37.066722495873,14.252311328663,18216,37.0980965,14.1541449,village,Gela,85007,10282.9,645015
85007,Gela,CLAA01106T,ENRICO SOLITO -S.MARIA DI GESU',VIA VENTURA,37.067819579055,14.249004080774,18216,37.0980965,14.1541449,village,Gela,85007,9839.62,658752
85007,Gela,CLAA01108X,RITA LEVI MONTALCINI,VIA PAOLO ORSI 29,37.069611462797,14.233615300892,18216,37.0980965,14.1541449,village,Gela,85007,8586.431,573022
85007,Gela,CLAA011091,GIOBERTI,VIA PALAZZI 95,37.07250001704,14.234660023001,18216,37.0980965,14.1541449,village,Gela,85007,8139.333,524665
85007,Gela,CLAA827015,"""P. E. GIUDICI""",Non Disponibile,37.087110001,14.279579453,18216,37.0980965,14.1541449,village,Gela,85007,16400.403,1207917
85007,Gela,CLAA83104X,PIAZZA ALEMANNA,VIA A. NOBEL,37.073155801095,14.247053044262,18216,37.0980965,14.1541449,village,Gela,85007,9147.626,560998
85007,Gela,CLAA81001Q,VIA SALONICCO,VIA SALONICCO SNC,37.077278264678,14.221432101584,18216,37.0980965,14.1541449,village,Gela,85007,6843.371,459994
85007,Gela,CLAA82303X,"""FALCONE-BORSELLINO"" GELA",VIA PELLEGRINI SNC,37.07429729901,14.260265591929,18216,37.0980965,14.1541449,village,Gela,85007,11032.808,726749
85007,Gela,CL1AHQ500S,"scuola dell'infanzia ""Istituto Ancelle missionarie di Cristo Re""",via E. Morselli 63,37.071040015235,14.231320002224,18216,37.0980965,14.1541449,village,Gela,85007,8033.61,542138
85007,Gela,CL1A02100Q,"""PADRE GIOVANNI MINOZZI""",VIA EUROPA 54,37.070220013647,14.229610010157,18216,37.0980965,14.1541449,village,Gela,85007,8069.95,546498
85007,Gela,CL1A02000X,"""SUOR TERESA VALSE'""",VIALE CORTEMAGGIORE 132,37.079399999734,14.209620009274,18216,37.0980965,14.1541449,village,Gela,85007,6375.619,445356
85013,Niscemi,CLAA021039,"""VIA CALATAFIMI""",VIA CALATAFIMI 12,37.148917440708,14.38802529261,18217,37.0788756,14.2147906,suburb,Gela,85007,23951.145,1630187
85013,Niscemi,CLAA82904X,"""BELVEDERE""",VIA IV NOVEMBRE 60,37.1442,14.414085615,18217,37.0788756,14.2147906,suburb,Gela,85007,25054.118,1728977
85013,Niscemi,CLAA02105B,"""DON L. MILANI""",VIA TIZIANO,37.150403051632,14.392364082697,18217,37.0788756,14.2147906,suburb,Gela,85007,23971.931,1632681
85013,Niscemi,CLAA83302D,"""GESUALDO BUFALINO""",VIA PITRE',37.14742932332,14.398559975332,18217,37.0788756,14.2147906,suburb,Gela,85007,23698.999,1628191
85013,Niscemi,CLAA83304G,"""SAN MARTINO""",VIA SAN MARTINO SNC,37.142930630859,14.396466417828,18217,37.0788756,14.2147906,suburb,Gela,85007,23002.087,1557835
85013,Niscemi,CLAA83303E,LUIGI CAPUANA,VIA V. CARUSO,37.144566526823,14.395543825783,18217,37.0788756,14.2147906,suburb,Gela,85007,23245.581,1587053
85013,Niscemi,CLAA83301C,LUIGI PIRANDELLO,VIA TOMASI DI LAMPEDUSA,37.143311995593,14.399650009885,18217,37.0788756,14.2147906,suburb,Gela,85007,23313.792,1595736
85013,Niscemi,CLAA82902T,"""SAN GIUSEPPE""",VIA V. CRESCIMONE,37.145696657181,14.387660014624,18217,37.0788756,14.2147906,suburb,Gela,85007,23757.319,1612127
85013,Niscemi,CLAA82901R,"""DON BOSCO""",C.DA CANALE,37.148009740921,14.383603155925,18217,37.0788756,14.2147906,suburb,Gela,85007,24316.895,1658861
85013,Niscemi,CLAA82903V,"""CARLO COLLODI""",VIA GORIZIA,37.142285801892,14.392699334554,18217,37.0788756,14.2147906,suburb,Gela,85007,23113.2,1564067
85013,Niscemi,CL1AUP500F,BIMBI BELLI E RIBELLI,Via Guglielmo Marconi n. 139,37.150649990491,14.38822998404,18217,37.0788756,14.2147906,suburb,Gela,85007,24138.503,1629549
85013,Niscemi,CL1A02600V,""" NUOVA BABY SCHOOL""",VIA BOLOGNA C/N,37.150524008428,14.386274874855,18217,37.0788756,14.2147906,suburb,Gela,85007,24257.031,1636158
85013,Niscemi,CL1A032006,""" SAN GIUSEPPE""",VIA CRESCIMONE 2,37.145850009818,14.387809966871,18217,37.0788756,14.2147906,suburb,Gela,85007,23744.082,1609845
85013,Niscemi,CL1A01800X,"""SNOOPY""",VIA LE MOLI 33,37.145930015084,14.385990004235,18217,37.0788756,14.2147906,suburb,Gela,85007,23846.541,1611508
85003,Butera,CLAA82402P,SAN ROCCO,VIA SAN ROCCO 1,37.186160007113,14.186970011418,18217,37.0788756,14.2147906,suburb,Gela,85007,18651.421,1162640
85003,Butera,CLAA82401N,PIAZZALE ITALIA,PIAZZALE ITALIA 1,37.193230016713,14.181880016896,18217,37.0788756,14.2147906,suburb,Gela,85007,18475.615,1132712
85009,Mazzarino,CLAA816071,MADUNNUZZA,VIA DELLA PACE,37.300097335486,14.210186597973,18217,37.0788756,14.2147906,suburb,Gela,85007,33684.039,2164057
85009,Mazzarino,CLAA816082,SAN DOMENICO,CORSO VITTORIO EMANUELE 291,37.305337986835,14.218513588391,18217,37.0788756,14.2147906,suburb,Gela,85007,34695.664,2256136
85007,Gela,CLAA81103N,"""G. VERGA"" - VIA SALONICCO N. 2",VIA SALONICCO N. 2,37.076260013076,14.220750003225,18217,37.0788756,14.2147906,suburb,Gela,85007,682.43,72130
85007,Gela,CLAA827026,"""S. M. DI GESU'""",VIA VENTURA N. 122,37.068430016315,14.24767996848,18217,37.0788756,14.2147906,suburb,Gela,85007,3916.966,319776
85007,Gela,CLAA81002R,"""GIOVANNI XXIII""",VIA SETTEFARINI SNC,37.098619968742,14.258290059639,18217,37.0788756,14.2147906,suburb,Gela,85007,6650.757,623354
85007,Gela,CLAA014025,"""BENEDETTO CROCE""",LARGO BORCA DI CADORE,37.075998592031,14.231754145376,18217,37.0788756,14.2147906,suburb,Gela,85007,2133.545,208821
85007,Gela,CLAA81101G,VIA CAVIAGA E VIA PANDINO,VIA CAVIAGA 6 - VIA PANDINO 4,37.07879000673,14.210790039138,18217,37.0788756,14.2147906,suburb,Gela,85007,520.916,58016
85007,Gela,CLAA01102N,GAETANO ORTISI,VIA ACHILLE GRANDI,37.073177357271,14.234949155067,18217,37.0788756,14.2147906,suburb,Gela,85007,2329.415,202476
85007,Gela,CLAA82403Q,MADRE TERESA DI CALCUTTA,VIA PABLO PICASSO,37.080091059001,14.237752920566,18217,37.0788756,14.2147906,suburb,Gela,85007,2667.784,185276
85007,Gela,CLAA82302V,"""SAN SEBASTIANO""GELA",VIA FUENTES,37.080780017227,14.252715019627,18217,37.0788756,14.2147906,suburb,Gela,85007,4249.398,366869
85007,Gela,CLAA83202N,"""CAPPUCCINI""",VIA FEACE 130,37.067910003042,14.242500036136,18217,37.0788756,14.2147906,suburb,Gela,85007,3337.464,307444
85007,Gela,CLAA82301T,VIA GIULIO SIRAGUSA,VIA GIULIO SIRAGUSA,37.071993547986,14.255006144089,18217,37.0788756,14.2147906,suburb,Gela,85007,4406.978,288706
85007,Gela,CLAA83201L,"""FEACE""",VIA FEACE 128,37.067940010255,14.242419988961,18217,37.0788756,14.2147906,suburb,Gela,85007,3329.632,306504
85007,Gela,CLAA83203P,"""EMANUELA LOI""",VIA CAPPUCCINI SNC,37.067650837611,14.243873405568,18217,37.0788756,14.2147906,suburb,Gela,85007,3284.786,332509
85007,Gela,CLAA81104P,"""LEONARDO SCIASCIA""",VIA GENOVA 9,37.072459993452,14.235889983473,18217,37.0788756,14.2147906,suburb,Gela,85007,2420.532,209145
85007,Gela,CLAA83102T,"""NICHOLAS GREEN""",VIA BORROMINI,37.075261376534,14.249880222057,18217,37.0788756,14.2147906,suburb,Gela,85007,3910.164,266197
85007,Gela,CLAA83101R,"""COSTA ZAMPOGNA""",VIA RECANATI,37.073061138437,14.244966970123,18217,37.0788756,14.2147906,suburb,Gela,85007,3574.175,235287
85007,Gela,CLAA014047,VIA EUROPA,VIA EUROPA 119,37.070509985588,14.229889965723,18217,37.0788756,14.2147906,suburb,Gela,85007,1908.425,167346
85007,Gela,CLAA014014,LUIGI CAPUANA,VIA PALAZZI 48,37.073140017257,14.233800039736,18217,37.0788756,14.2147906,suburb,Gela,85007,2162.094,187009
85007,Gela,CLAA82404R,ANNA FRANK,VIA BUTERA S.N.,37.077313395242,14.233009883953,18217,37.0788756,14.2147906,suburb,Gela,85007,2341.1,160832
85007,Gela,CLAA83103V,DON LORENZO MILANI,VIA VENEZIA SNC,37.074846704347,14.245271343941,18217,37.0788756,14.2147906,suburb,Gela,85007,3329.042,209203
85007,Gela,CLAA827037,"""CARLO COLLODI""",VIA GIARDINELLI-,37.066722495873,14.252311328663,18217,37.0788756,14.2147906,suburb,Gela,85007,4767.073,314865
85007,Gela,CLAA01106T,ENRICO SOLITO -S.MARIA DI GESU',VIA VENTURA,37.067819579055,14.249004080774,18217,37.0788756,14.2147906,suburb,Gela,85007,4056.195,333619
85007,Gela,CLAA01108X,RITA LEVI MONTALCINI,VIA PAOLO ORSI 29,37.069611462797,14.233615300892,18217,37.0788756,14.2147906,suburb,Gela,85007,2339.777,219109
85007,Gela,CLAA011091,GIOBERTI,VIA PALAZZI 95,37.07250001704,14.234660023001,18217,37.0788756,14.2147906,suburb,Gela,85007,2266.791,194547
85007,Gela,CLAA827015,"""P. E. GIUDICI""",Non Disponibile,37.087110001,14.279579453,18217,37.0788756,14.2147906,suburb,Gela,85007,10884.576,877767
85007,Gela,CLAA83104X,PIAZZA ALEMANNA,VIA A. NOBEL,37.073155801095,14.247053044262,18217,37.0788756,14.2147906,suburb,Gela,85007,3631.799,230848
85007,Gela,CLAA81001Q,VIA SALONICCO,VIA SALONICCO SNC,37.077278264678,14.221432101584,18217,37.0788756,14.2147906,suburb,Gela,85007,809.501,87379
85007,Gela,CLAA82303X,"""FALCONE-BORSELLINO"" GELA",VIA PELLEGRINI SNC,37.07429729901,14.260265591929,18217,37.0788756,14.2147906,suburb,Gela,85007,5516.981,396599
85007,Gela,CL1AHQ500S,"scuola dell'infanzia ""Istituto Ancelle missionarie di Cristo Re""",via E. Morselli 63,37.071040015235,14.231320002224,18217,37.0788756,14.2147906,suburb,Gela,85007,1914.146,168033
85007,Gela,CL1A02100Q,"""PADRE GIOVANNI MINOZZI""",VIA EUROPA 54,37.070220013647,14.229610010157,18217,37.0788756,14.2147906,suburb,Gela,85007,1950.486,172393
85007,Gela,CL1A02000X,"""SUOR TERESA VALSE'""",VIALE CORTEMAGGIORE 132,37.079399999734,14.209620009274,18217,37.0788756,14.2147906,suburb,Gela,85007,658.607,79286
85013,Niscemi,CLAA021039,"""VIA CALATAFIMI""",VIA CALATAFIMI 12,37.148917440708,14.38802529261,18218,37.0937138,14.2484207,suburb,Gela,85007,21568.391,1401727
85013,Niscemi,CLAA82904X,"""BELVEDERE""",VIA IV NOVEMBRE 60,37.1442,14.414085615,18218,37.0937138,14.2484207,suburb,Gela,85007,22671.364,1500517
85013,Niscemi,CLAA02105B,"""DON L. MILANI""",VIA TIZIANO,37.150403051632,14.392364082697,18218,37.0937138,14.2484207,suburb,Gela,85007,21589.177,1404221
85013,Niscemi,CLAA83302D,"""GESUALDO BUFALINO""",VIA PITRE',37.14742932332,14.398559975332,18218,37.0937138,14.2484207,suburb,Gela,85007,21316.245,1399731
85013,Niscemi,CLAA83304G,"""SAN MARTINO""",VIA SAN MARTINO SNC,37.142930630859,14.396466417828,18218,37.0937138,14.2484207,suburb,Gela,85007,20619.333,1329375
85013,Niscemi,CLAA83303E,LUIGI CAPUANA,VIA V. CARUSO,37.144566526823,14.395543825783,18218,37.0937138,14.2484207,suburb,Gela,85007,20862.827,1358593
85013,Niscemi,CLAA83301C,LUIGI PIRANDELLO,VIA TOMASI DI LAMPEDUSA,37.143311995593,14.399650009885,18218,37.0937138,14.2484207,suburb,Gela,85007,20931.038,1367276
85013,Niscemi,CLAA82902T,"""SAN GIUSEPPE""",VIA V. CRESCIMONE,37.145696657181,14.387660014624,18218,37.0937138,14.2484207,suburb,Gela,85007,21374.565,1383667
85013,Niscemi,CLAA82901R,"""DON BOSCO""",C.DA CANALE,37.148009740921,14.383603155925,18218,37.0937138,14.2484207,suburb,Gela,85007,21934.142,1430401
85013,Niscemi,CLAA82903V,"""CARLO COLLODI""",VIA GORIZIA,37.142285801892,14.392699334554,18218,37.0937138,14.2484207,suburb,Gela,85007,20730.446,1335607
85013,Niscemi,CL1AUP500F,BIMBI BELLI E RIBELLI,Via Guglielmo Marconi n. 139,37.150649990491,14.38822998404,18218,37.0937138,14.2484207,suburb,Gela,85007,21755.75,1401089
85013,Niscemi,CL1A02600V,""" NUOVA BABY SCHOOL""",VIA BOLOGNA C/N,37.150524008428,14.386274874855,18218,37.0937138,14.2484207,suburb,Gela,85007,21874.277,1407698
85013,Niscemi,CL1A032006,""" SAN GIUSEPPE""",VIA CRESCIMONE 2,37.145850009818,14.387809966871,18218,37.0937138,14.2484207,suburb,Gela,85007,21361.328,1381385
85013,Niscemi,CL1A01800X,"""SNOOPY""",VIA LE MOLI 33,37.145930015084,14.385990004235,18218,37.0937138,14.2484207,suburb,Gela,85007,21463.787,1383048
85003,Butera,CLAA82402P,SAN ROCCO,VIA SAN ROCCO 1,37.186160007113,14.186970011418,18218,37.0937138,14.2484207,suburb,Gela,85007,17938.699,1276696
85003,Butera,CLAA82401N,PIAZZALE ITALIA,PIAZZALE ITALIA 1,37.193230016713,14.181880016896,18218,37.0937138,14.2484207,suburb,Gela,85007,17762.893,1246768
85009,Mazzarino,CLAA816071,MADUNNUZZA,VIA DELLA PACE,37.300097335486,14.210186597973,18218,37.0937138,14.2484207,suburb,Gela,85007,31014.004,2072139
85009,Mazzarino,CLAA816082,SAN DOMENICO,CORSO VITTORIO EMANUELE 291,37.305337986835,14.218513588391,18218,37.0937138,14.2484207,suburb,Gela,85007,32025.63,2164218
85007,Gela,CLAA81103N,"""G. VERGA"" - VIA SALONICCO N. 2",VIA SALONICCO N. 2,37.076260013076,14.220750003225,18218,37.0937138,14.2484207,suburb,Gela,85007,5133.203,537611
85007,Gela,CLAA827026,"""S. M. DI GESU'""",VIA VENTURA N. 122,37.068430016315,14.24767996848,18218,37.0937138,14.2484207,suburb,Gela,85007,3792.154,337252
85007,Gela,CLAA81002R,"""GIOVANNI XXIII""",VIA SETTEFARINI SNC,37.098619968742,14.258290059639,18218,37.0937138,14.2484207,suburb,Gela,85007,2212.682,276055
85007,Gela,CLAA014025,"""BENEDETTO CROCE""",LARGO BORCA DI CADORE,37.075998592031,14.231754145376,18218,37.0937138,14.2484207,suburb,Gela,85007,4360.908,456473
85007,Gela,CLAA81101G,VIA CAVIAGA E VIA PANDINO,VIA CAVIAGA 6 - VIA PANDINO 4,37.07879000673,14.210790039138,18218,37.0937138,14.2484207,suburb,Gela,85007,5914.558,558480
85007,Gela,CLAA01102N,GAETANO ORTISI,VIA ACHILLE GRANDI,37.073177357271,14.234949155067,18218,37.0937138,14.2484207,suburb,Gela,85007,5099.842,429157
85007,Gela,CLAA82403Q,MADRE TERESA DI CALCUTTA,VIA PABLO PICASSO,37.080091059001,14.237752920566,18218,37.0937138,14.2484207,suburb,Gela,85007,3634.242,393901
85007,Gela,CLAA82302V,"""SAN SEBASTIANO""GELA",VIA FUENTES,37.080780017227,14.252715019627,18218,37.0937138,14.2484207,suburb,Gela,85007,2012.054,190013
85007,Gela,CLAA83202N,"""CAPPUCCINI""",VIA FEACE 130,37.067910003042,14.242500036136,18218,37.0937138,14.2484207,suburb,Gela,85007,4298.428,386839
85007,Gela,CLAA82301T,VIA GIULIO SIRAGUSA,VIA GIULIO SIRAGUSA,37.071993547986,14.255006144089,18218,37.0937138,14.2484207,suburb,Gela,85007,3093.759,275584
85007,Gela,CLAA83201L,"""FEACE""",VIA FEACE 128,37.067940010255,14.242419988961,18218,37.0937138,14.2484207,suburb,Gela,85007,4306.259,387778
85007,Gela,CLAA83203P,"""EMANUELA LOI""",VIA CAPPUCCINI SNC,37.067650837611,14.243873405568,18218,37.0937138,14.2484207,suburb,Gela,85007,4290.297,385863
85007,Gela,CLAA81104P,"""LEONARDO SCIASCIA""",VIA GENOVA 9,37.072459993452,14.235889983473,18218,37.0937138,14.2484207,suburb,Gela,85007,5095.969,427739
85007,Gela,CLAA83102T,"""NICHOLAS GREEN""",VIA BORROMINI,37.075261376534,14.249880222057,18218,37.0937138,14.2484207,suburb,Gela,85007,3058.728,274208
85007,Gela,CLAA83101R,"""COSTA ZAMPOGNA""",VIA RECANATI,37.073061138437,14.244966970123,18218,37.0937138,14.2484207,suburb,Gela,85007,3712.835,314707
85007,Gela,CLAA014047,VIA EUROPA,VIA EUROPA 119,37.070509985588,14.229889965723,18218,37.0937138,14.2484207,suburb,Gela,85007,5532.874,479273
85007,Gela,CLAA014014,LUIGI CAPUANA,VIA PALAZZI 48,37.073140017257,14.233800039736,18218,37.0937138,14.2484207,suburb,Gela,85007,5256.215,451340
85007,Gela,CLAA82404R,ANNA FRANK,VIA BUTERA S.N.,37.077313395242,14.233009883953,18218,37.0937138,14.2484207,suburb,Gela,85007,4170.484,427544
85007,Gela,CLAA83103V,DON LORENZO MILANI,VIA VENEZIA SNC,37.074846704347,14.245271343941,18218,37.0937138,14.2484207,suburb,Gela,85007,3632.294,290358
85007,Gela,CLAA827037,"""CARLO COLLODI""",VIA GIARDINELLI-,37.066722495873,14.252311328663,18218,37.0937138,14.2484207,suburb,Gela,85007,3739.787,322329
85007,Gela,CLAA01106T,ENRICO SOLITO -S.MARIA DI GESU',VIA VENTURA,37.067819579055,14.249004080774,18218,37.0937138,14.2484207,suburb,Gela,85007,3961.646,348954
85007,Gela,CLAA01108X,RITA LEVI MONTALCINI,VIA PAOLO ORSI 29,37.069611462797,14.233615300892,18218,37.0937138,14.2484207,suburb,Gela,85007,5232.307,461418
85007,Gela,CLAA011091,GIOBERTI,VIA PALAZZI 95,37.07250001704,14.234660023001,18218,37.0937138,14.2484207,suburb,Gela,85007,5179.696,438326
85007,Gela,CLAA827015,"""P. E. GIUDICI""",Non Disponibile,37.087110001,14.279579453,18218,37.0937138,14.2484207,suburb,Gela,85007,7626.763,816344
85007,Gela,CLAA83104X,PIAZZA ALEMANNA,VIA A. NOBEL,37.073155801095,14.247053044262,18218,37.0937138,14.2484207,suburb,Gela,85007,3480.521,286830
85007,Gela,CLAA81001Q,VIA SALONICCO,VIA SALONICCO SNC,37.077278264678,14.221432101584,18218,37.0937138,14.2484207,suburb,Gela,85007,5006.132,522363
85007,Gela,CLAA82303X,"""FALCONE-BORSELLINO"" GELA",VIA PELLEGRINI SNC,37.07429729901,14.260265591929,18218,37.0937138,14.2484207,suburb,Gela,85007,3078.282,301817
85007,Gela,CL1AHQ500S,"scuola dell'infanzia ""Istituto Ancelle missionarie di Cristo Re""",via E. Morselli 63,37.071040015235,14.231320002224,18218,37.0937138,14.2484207,suburb,Gela,85007,5538.595,479960
85007,Gela,CL1A02100Q,"""PADRE GIOVANNI MINOZZI""",VIA EUROPA 54,37.070220013647,14.229610010157,18218,37.0937138,14.2484207,suburb,Gela,85007,5574.935,484320
85007,Gela,CL1A02000X,"""SUOR TERESA VALSE'""",VIALE CORTEMAGGIORE 132,37.079399999734,14.209620009274,18218,37.0937138,14.2484207,suburb,Gela,85007,6135.282,572779
85003,Butera,CLAA82402P,SAN ROCCO,VIA SAN ROCCO 1,37.186160007113,14.186970011418,10522,37.2819611,14.0824138,town,Riesi,85015,18118.387,1157900
85003,Butera,CLAA82401N,PIAZZALE ITALIA,PIAZZALE ITALIA 1,37.193230016713,14.181880016896,10522,37.2819611,14.0824138,town,Riesi,85015,17132.987,1079396
85019,Sommatino,CLAA81501V,"""ARCOBALENO""",VIA B. CELLINI,37.332780551375,13.991721107746,10522,37.2819611,14.0824138,town,Riesi,85015,15527.885,940677
85019,Sommatino,CLAA81502X,"""MARIA HELENA PRESTI""",VIA CARDUCCI 5,37.336164998047,13.991970021274,10522,37.2819611,14.0824138,town,Riesi,85015,15502.333,924569
85009,Mazzarino,CLAA816071,MADUNNUZZA,VIA DELLA PACE,37.300097335486,14.210186597973,10522,37.2819611,14.0824138,town,Riesi,85015,14858.446,962394
85009,Mazzarino,CLAA816082,SAN DOMENICO,CORSO VITTORIO EMANUELE 291,37.305337986835,14.218513588391,10522,37.2819611,14.0824138,town,Riesi,85015,15712.724,1044312
85015,Riesi,CLAA81702G,"""BIAGIO PISTONE""",VIA FELICE CAVALLOTTI,37.285613841583,14.080005592948,10522,37.2819611,14.0824138,town,Riesi,85015,820.029,98404
85015,Riesi,CLAA81703L,"""GIUSEPPE PATERNA""",VIALE UMBRIA,37.280315348138,14.083276574798,10522,37.2819611,14.0824138,town,Riesi,85015,239.131,28695
85015,Riesi,CLAA81705P,C.DA GIARRATANA DD,VIA VESPRI,37.297545,14.090688605,10522,37.2819611,14.0824138,town,Riesi,85015,2493.489,299220
85015,Riesi,CLAA81701E,C.DA GIARRATANA IST. COMPR.,VIA VESPRI SNC,37.297545,14.090688605,10522,37.2819611,14.0824138,town,Riesi,85015,2493.489,299220
85015,Riesi,CLAA81704N,"""ANGELO GALLO""",VIA NAPOLI,37.280878912383,14.088285671611,10522,37.2819611,14.0824138,town,Riesi,85015,662.724,79524
85015,Riesi,CL1A02300B,"""DON S. RIGGIO""",VIA CARLO ALBERTO 60,37.283090011814,14.083029969634,10522,37.2819611,14.0824138,town,Riesi,85015,505.037,60605
85015,Riesi,CL1A01500C,"""MONTE DEGLI ULIVI""",VIA MONTE DEGLI ULIVI 6,37.278890007771,14.089429971804,10522,37.2819611,14.0824138,town,Riesi,85015,828.95,99475
85012,Mussomeli,CLAA81801A,VIA MADONNA DI FATIMA,VIA MADONNA DI FATIMA SNC,37.580294114535,13.754867037092,10498,37.5719991,13.7028911,village,Acquaviva Platani,85001,5746.95,435332
85012,Mussomeli,CLAA81805E,"""MADRE TERESA DI CALCUTTA"" MUSS",VIA LEONARDO DA VINCI SNC,37.574733853815,13.75207473182,10498,37.5719991,13.7028911,village,Acquaviva Platani,85001,5200.431,379229
85012,Mussomeli,CL1A004002,"""AVV. G. LA RIZZA""",VIA V. E. ORLANDO 3,37.580079993969,13.756700015514,10498,37.5719991,13.7028911,village,Acquaviva Platani,85001,5909.969,454894
85012,Mussomeli,CL1A00700D,"""SORELLE SOLA - S. ENRICO""",VIA VANELLE 34,37.576419994038,13.756229958383,10498,37.5719991,13.7028911,village,Acquaviva Platani,85001,5579.606,434436
85020,Sutera,CLAA81806G,SUTERA - VIA ORTI,VIA ORTISNC,37.495530001,13.733689148,10498,37.5719991,13.7028911,village,Acquaviva Platani,85001,15114.164,1692374
85001,Acquaviva Platani,CLAA81804D,VIA PADRE PIO DA PIETRELCINA,VIA PADRE PIO DA PIETRELCINA SNC,37.571330386963,13.702609400934,10498,37.5719991,13.7028911,village,Acquaviva Platani,85001,109.897,13187
85007,Gela,CLAA81103N,"""G. VERGA"" - VIA SALONICCO N. 2",VIA SALONICCO N. 2,37.076260013076,14.220750003225,10521,37.1464505,14.3941802,town,Niscemi,85013,22515.919,1590830
85007,Gela,CLAA827026,"""S. M. DI GESU'""",VIA VENTURA N. 122,37.068430016315,14.24767996848,10521,37.1464505,14.3941802,town,Niscemi,85013,19791.02,1382781
85007,Gela,CLAA81002R,"""GIOVANNI XXIII""",VIA SETTEFARINI SNC,37.098619968742,14.258290059639,10521,37.1464505,14.3941802,town,Niscemi,85013,19755.179,1298091
85007,Gela,CLAA014025,"""BENEDETTO CROCE""",LARGO BORCA DI CADORE,37.075998592031,14.231754145376,10521,37.1464505,14.3941802,town,Niscemi,85013,21886.164,1508444
85007,Gela,CLAA81101G,VIA CAVIAGA E VIA PANDINO,VIA CAVIAGA 6 - VIA PANDINO 4,37.07879000673,14.210790039138,10521,37.1464505,14.3941802,town,Niscemi,85013,23623.892,1609464
85007,Gela,CLAA01102N,GAETANO ORTISI,VIA ACHILLE GRANDI,37.073177357271,14.234949155067,10521,37.1464505,14.3941802,town,Niscemi,85013,21182.051,1498542
85007,Gela,CLAA82403Q,MADRE TERESA DI CALCUTTA,VIA PABLO PICASSO,37.080091059001,14.237752920566,10521,37.1464505,14.3941802,town,Niscemi,85013,21066.673,1439024
85007,Gela,CLAA82302V,"""SAN SEBASTIANO""GELA",VIA FUENTES,37.080780017227,14.252715019627,10521,37.1464505,14.3941802,town,Niscemi,85013,20200.232,1258580
85007,Gela,CLAA83202N,"""CAPPUCCINI""",VIA FEACE 130,37.067910003042,14.242500036136,10521,37.1464505,14.3941802,town,Niscemi,85013,20297.293,1432368
85007,Gela,CLAA82301T,VIA GIULIO SIRAGUSA,VIA GIULIO SIRAGUSA,37.071993547986,14.255006144089,10521,37.1464505,14.3941802,town,Niscemi,85013,19408.805,1361545
85007,Gela,CLAA83201L,"""FEACE""",VIA FEACE 128,37.067940010255,14.242419988961,10521,37.1464505,14.3941802,town,Niscemi,85013,20305.125,1433307
85007,Gela,CLAA83203P,"""EMANUELA LOI""",VIA CAPPUCCINI SNC,37.067650837611,14.243873405568,10521,37.1464505,14.3941802,town,Niscemi,85013,20289.163,1431392
85007,Gela,CLAA81104P,"""LEONARDO SCIASCIA""",VIA GENOVA 9,37.072459993452,14.235889983473,10521,37.1464505,14.3941802,town,Niscemi,85013,21113.388,1492460
85007,Gela,CLAA83102T,"""NICHOLAS GREEN""",VIA BORROMINI,37.075261376534,14.249880222057,10521,37.1464505,14.3941802,town,Niscemi,85013,20729.018,1304408
85007,Gela,CLAA83101R,"""COSTA ZAMPOGNA""",VIA RECANATI,37.073061138437,14.244966970123,10521,37.1464505,14.3941802,town,Niscemi,85013,20199.041,1398986
85007,Gela,CLAA014047,VIA EUROPA,VIA EUROPA 119,37.070509985588,14.229889965723,10521,37.1464505,14.3941802,town,Niscemi,85013,21531.74,1524802
85007,Gela,CLAA014014,LUIGI CAPUANA,VIA PALAZZI 48,37.073140017257,14.233800039736,10521,37.1464505,14.3941802,town,Niscemi,85013,21355.849,1514208
85007,Gela,CLAA82404R,ANNA FRANK,VIA BUTERA S.N.,37.077313395242,14.233009883953,10521,37.1464505,14.3941802,town,Niscemi,85013,21695.741,1479515
85007,Gela,CLAA83103V,DON LORENZO MILANI,VIA VENEZIA SNC,37.074846704347,14.245271343941,10521,37.1464505,14.3941802,town,Niscemi,85013,20118.5,1374637
85007,Gela,CLAA827037,"""CARLO COLLODI""",VIA GIARDINELLI-,37.066722495873,14.252311328663,10521,37.1464505,14.3941802,town,Niscemi,85013,19567.091,1373396
85007,Gela,CLAA01106T,ENRICO SOLITO -S.MARIA DI GESU',VIA VENTURA,37.067819579055,14.249004080774,10521,37.1464505,14.3941802,town,Niscemi,85013,19788.95,1400021
85007,Gela,CLAA01108X,RITA LEVI MONTALCINI,VIA PAOLO ORSI 29,37.069611462797,14.233615300892,10521,37.1464505,14.3941802,town,Niscemi,85013,21231.173,1506947
85007,Gela,CLAA011091,GIOBERTI,VIA PALAZZI 95,37.07250001704,14.234660023001,10521,37.1464505,14.3941802,town,Niscemi,85013,21261.905,1507711
85007,Gela,CLAA827015,"""P. E. GIUDICI""",Non Disponibile,37.087110001,14.279579453,10521,37.1464505,14.3941802,town,Niscemi,85013,18023.677,1307275
85007,Gela,CLAA83104X,PIAZZA ALEMANNA,VIA A. NOBEL,37.073155801095,14.247053044262,10521,37.1464505,14.3941802,town,Niscemi,85013,19966.727,1371109
85007,Gela,CLAA81001Q,VIA SALONICCO,VIA SALONICCO SNC,37.077278264678,14.221432101584,10521,37.1464505,14.3941802,town,Niscemi,85013,22715.466,1573347
85007,Gela,CLAA82303X,"""FALCONE-BORSELLINO"" GELA",VIA PELLEGRINI SNC,37.07429729901,14.260265591929,10521,37.1464505,14.3941802,town,Niscemi,85013,19219.88,1148576
85007,Gela,CL1AHQ500S,"scuola dell'infanzia ""Istituto Ancelle missionarie di Cristo Re""",via E. Morselli 63,37.071040015235,14.231320002224,10521,37.1464505,14.3941802,town,Niscemi,85013,21537.461,1525489
85007,Gela,CL1A02100Q,"""PADRE GIOVANNI MINOZZI""",VIA EUROPA 54,37.070220013647,14.229610010157,10521,37.1464505,14.3941802,town,Niscemi,85013,21573.801,1529849
85007,Gela,CL1A02000X,"""SUOR TERESA VALSE'""",VIALE CORTEMAGGIORE 132,37.079399999734,14.209620009274,10521,37.1464505,14.3941802,town,Niscemi,85013,23844.615,1623763
85009,Mazzarino,CLAA816071,MADUNNUZZA,VIA DELLA PACE,37.300097335486,14.210186597973,10521,37.1464505,14.3941802,town,Niscemi,85013,36078.692,2126717
85009,Mazzarino,CLAA816082,SAN DOMENICO,CORSO VITTORIO EMANUELE 291,37.305337986835,14.218513588391,10521,37.1464505,14.3941802,town,Niscemi,85013,37090.317,2218796
85013,Niscemi,CLAA021039,"""VIA CALATAFIMI""",VIA CALATAFIMI 12,37.148917440708,14.38802529261,10521,37.1464505,14.3941802,town,Niscemi,85013,813.994,76059
85013,Niscemi,CLAA82904X,"""BELVEDERE""",VIA IV NOVEMBRE 60,37.1442,14.414085615,10521,37.1464505,14.3941802,town,Niscemi,85013,2092.522,156684
85013,Niscemi,CLAA02105B,"""DON L. MILANI""",VIA TIZIANO,37.150403051632,14.392364082697,10521,37.1464505,14.3941802,town,Niscemi,85013,719.978,83356
85013,Niscemi,CLAA83302D,"""GESUALDO BUFALINO""",VIA PITRE',37.14742932332,14.398559975332,10521,37.1464505,14.3941802,town,Niscemi,85013,531.737,60768
85013,Niscemi,CLAA83304G,"""SAN MARTINO""",VIA SAN MARTINO SNC,37.142930630859,14.396466417828,10521,37.1464505,14.3941802,town,Niscemi,85013,663.065,68251
85013,Niscemi,CLAA83303E,LUIGI CAPUANA,VIA V. CARUSO,37.144566526823,14.395543825783,10521,37.1464505,14.3941802,town,Niscemi,85013,379.868,34269
85013,Niscemi,CLAA83301C,LUIGI PIRANDELLO,VIA TOMASI DI LAMPEDUSA,37.143311995593,14.399650009885,10521,37.1464505,14.3941802,town,Niscemi,85013,702.497,61139
85013,Niscemi,CLAA82902T,"""SAN GIUSEPPE""",VIA V. CRESCIMONE,37.145696657181,14.387660014624,10521,37.1464505,14.3941802,town,Niscemi,85013,697.793,63882
85013,Niscemi,CLAA82901R,"""DON BOSCO""",C.DA CANALE,37.148009740921,14.383603155925,10521,37.1464505,14.3941802,town,Niscemi,85013,1296.825,96666
85013,Niscemi,CLAA82903V,"""CARLO COLLODI""",VIA GORIZIA,37.142285801892,14.392699334554,10521,37.1464505,14.3941802,town,Niscemi,85013,818.183,67114
85013,Niscemi,CL1AUP500F,BIMBI BELLI E RIBELLI,Via Guglielmo Marconi n. 139,37.150649990491,14.38822998404,10521,37.1464505,14.3941802,town,Niscemi,85013,1001.352,75421
85013,Niscemi,CL1A02600V,""" NUOVA BABY SCHOOL""",VIA BOLOGNA C/N,37.150524008428,14.386274874855,10521,37.1464505,14.3941802,town,Niscemi,85013,1119.88,82030
85013,Niscemi,CL1A032006,""" SAN GIUSEPPE""",VIA CRESCIMONE 2,37.145850009818,14.387809966871,10521,37.1464505,14.3941802,town,Niscemi,85013,684.556,61600
85013,Niscemi,CL1A01800X,"""SNOOPY""",VIA LE MOLI 33,37.145930015084,14.385990004235,10521,37.1464505,14.3941802,town,Niscemi,85013,873.691,62602
85017,Santa Caterina Villarmosa,CLAA807021,S.ANNA,VIA XX SETTEMBRE 225,37.589209982003,14.026959982713,10511,37.678648,14.029464,village,Resuttano,85014,17485.125,1686829
85017,Santa Caterina Villarmosa,CLAA80701X,"""MADRE TERESA DI CALCUTTA""",VIA TRIESTE SNC,37.58887407953,14.037207207711,10511,37.678648,14.029464,village,Resuttano,85014,18726.96,1782416
85017,Santa Caterina Villarmosa,CL1A00600N,"""COLLEGIO DI MARIA""",VIA P. E. GIUDICI 25,37.589139993111,14.035380023548,10511,37.678648,14.029464,village,Resuttano,85014,18558.986,1771316
85014,Resuttano,CLAA807032,RESUTTANO-VIA CIRCONVALLAZIONE,VIA CIRCONVALLAZIONE,37.676510018146,14.029986874971,10511,37.678648,14.029464,village,Resuttano,85014,459.177,47219
85004,Caltanissetta,CLAA822012,"""FELICIA BARTOLOTTA IMPASTATO""",VILL. S. BARBARA - VIA TERRAMAGRA SNC,37.500363402193,14.089505885847,10510,37.453843,13.880463,village,Serradifalco,85018,24778.985,1485705
85004,Caltanissetta,CLAA822045,FIRRIO,VIA FIRRIO,37.505537023962,14.061622570421,10510,37.453843,13.880463,village,Serradifalco,85018,21183.509,1312117
85004,Caltanissetta,CLAA82501D,"""HANS CHRISTIAN ANDERSEN""",VIA GENERALE CASCINO 88,37.494810012865,14.066210004532,10510,37.453843,13.880463,village,Serradifalco,85018,20726.355,1308518
85004,Caltanissetta,CLAA822056,"""MADDALENA CALAFATO""",VIA MADDALENA CALAFATO,37.493244008328,14.059071031788,10510,37.453843,13.880463,village,Serradifalco,85018,19866.304,1215831
85004,Caltanissetta,CLAA822034,SAN GIUSTO,VIALE REGINA MARGHERITA26,37.486510000884,14.061810008279,10510,37.453843,13.880463,village,Serradifalco,85018,19422.233,1260715
85004,Caltanissetta,CLAA822023,SANTA DOMENICA,VIA ANGELI,37.487632668543,14.070047875842,10510,37.453843,13.880463,village,Serradifalco,85018,20571.72,1371956
85004,Caltanissetta,CLAA830022,VIA ALDO MORO,VIA ALDO MORO,37.485073545716,14.047964217198,10510,37.453843,13.880463,village,Serradifalco,85018,19130.048,1177723
85004,Caltanissetta,CLAA828011,PIAZZA MARTIRI D'UNGHERIA,PIAZZA MARTIRI D'UNGHERIA 3,37.492580007525,14.052269977542,10510,37.453843,13.880463,village,Serradifalco,85018,19212.638,1173697
85004,Caltanissetta,CLAA828022,EX OMNI,VIA MALTA,37.491892444551,14.043668528865,10510,37.453843,13.880463,village,Serradifalco,85018,18528.17,1128760
85004,Caltanissetta,CLAA828033,LOMBARDO RADICE,VIA CATANIA,37.492030068259,14.053354663076,10510,37.453843,13.880463,village,Serradifalco,85018,19160.484,1161464
85004,Caltanissetta,CLAA82502E,S.FLAVIA,PIAZZA S. FLAVIA,37.493950776716,14.065180029478,10510,37.453843,13.880463,village,Serradifalco,85018,20726.088,1308486
85004,Caltanissetta,CLAA82504L,Q.RE UNRRA CASAS,VIA ACI,37.491635992376,14.042035279913,10510,37.453843,13.880463,village,Serradifalco,85018,18667.398,1148182
85004,Caltanissetta,CLAA821016,"""SANTA PETRONILLA""",VIA MARIA MONTESSORI SNC,37.497508602129,14.051983040892,10510,37.453843,13.880463,village,Serradifalco,85018,19791.689,1204539
85004,Caltanissetta,CLAA001045,LEONARDO SCIASCIA,VIA NAPOLEONE COLAJANNI,37.485497693361,14.058817691963,10510,37.453843,13.880463,village,Serradifalco,85018,18553.853,1214770
85004,Caltanissetta,CLAA001056,PANTANO,VIALE STEFANO CANDURA,37.47469693921,14.045270199031,10510,37.453843,13.880463,village,Serradifalco,85018,16686.227,1055639
85004,Caltanissetta,CLAA001012,VIA FALETRA,VIA FALETRA,37.488385011669,14.051745018946,10510,37.453843,13.880463,village,Serradifalco,85018,19426.662,1184728
85004,Caltanissetta,CLAA821027,VIA REAL MAESTRANZA,VIA REAL MAESTRANZA,37.498183522937,14.057996862851,10510,37.453843,13.880463,village,Serradifalco,85018,20027.706,1218767
85004,Caltanissetta,CLAA830011,DON LORENZO MILANI,VIA FERDINANDO I 24,37.485010509795,14.041761686746,10510,37.453843,13.880463,village,Serradifalco,85018,17952.984,1168501
85004,Caltanissetta,CLAA830033,VIA TURATI,VIA TURATI,37.482405728709,14.035079458688,10510,37.453843,13.880463,village,Serradifalco,85018,17447.252,1111540
85004,Caltanissetta,CLAA82503G,"""LEONE XIII""",VIA LEONE XIII,37.49125173839,14.04075830257,10510,37.453843,13.880463,village,Serradifalco,85018,17951.504,1087438
85004,Caltanissetta,CLAA82505N,CITTADELLA,VIA LA CITTADELLA,37.494068394929,14.041842914172,10510,37.453843,13.880463,village,Serradifalco,85018,18440.549,1124665
85004,Caltanissetta,CL1ACV5004,KINDER'S SCHOOL SOC. COOP.,VIA BORREMANS N. 8,37.496969987404,14.056829984326,10510,37.453843,13.880463,village,Serradifalco,85018,19818.899,1192872
85004,Caltanissetta,CL1A010009,"""OASI CRISTO RE""",VIA SAN GIULIANO 4,37.50034998986,14.063290000923,10510,37.453843,13.880463,village,Serradifalco,85018,20537.153,1234554
85004,Caltanissetta,CL1A00100E,"""MONS. GIOVANNI IACONO""",VIA VITALIANO BRANCATI 3,37.496400017988,14.049479977251,10510,37.453843,13.880463,village,Serradifalco,85018,19066.453,1149188
85004,Caltanissetta,CL1A02700P,NEW BABY' S COLLEGE,VIA ROMITA S.N.C,37.477933024581,14.044081153004,10510,37.453843,13.880463,village,Serradifalco,85018,18890.195,1273939
85004,Caltanissetta,CL1A003006,"""SIGNORE DELLA CITTA'""",VIA SIGNORE DELLA CITTA' 64,37.486429995618,14.065120021843,10510,37.453843,13.880463,village,Serradifalco,85018,19700.425,1283873
85004,Caltanissetta,CL1AF2500T,"SCUOLA DELL' INFANZIA "" IL FANTABOSCHIO""",VIALE DELLA REGIONE 1,37.493190000529,14.051679975377,10510,37.453843,13.880463,village,Serradifalco,85018,19092.827,1161630
85016,San Cataldo,CLAA024105,VIA CARDUCCI,VIA CARDUCCI,37.485537561746,13.992090007247,10510,37.453843,13.880463,village,Serradifalco,85018,12548.555,741617
85016,San Cataldo,CLAA02502G,BALSAMO,VIA MONS. CAMMARATA,37.481522074469,13.983659992918,10510,37.453843,13.880463,village,Serradifalco,85018,11775.137,698006
85016,San Cataldo,CLAA02501E,SAN FILIPPO NERI,VIA SAN FILIPPO NERI,37.482501306335,13.985727526099,10510,37.453843,13.880463,village,Serradifalco,85018,11938.958,697558
85016,San Cataldo,CLAA02405V,RIONE BELVEDERE,VIA ENRICO FERMI,37.489845245283,13.995044130398,10510,37.453843,13.880463,village,Serradifalco,85018,13124.139,773799
85016,San Cataldo,CLAA02406X,VIA CATTANEO,VIA CATTANEO,37.491731793901,13.987434159151,10510,37.453843,13.880463,village,Serradifalco,85018,13176.462,804048
85016,San Cataldo,CLAA02401P,VIA R. LAMBRUSCHINI,VIA R. LAMBRUSCHINI,37.491792811627,13.989701469116,10510,37.453843,13.880463,village,Serradifalco,85018,13184.16,804972
85016,San Cataldo,CLAA024093,CORSO UNITA' D'ITALIA,CORSO UNITA' D'ITALIA,37.492446240097,13.994229999266,10510,37.453843,13.880463,village,Serradifalco,85018,13192.24,772992
85016,San Cataldo,CL1A02900A,KINDERS' SCHOOL SOC. COOP. SOCIALE,VIA BABBAURRA - SN,37.487551337971,13.997810290107,10510,37.453843,13.880463,village,Serradifalco,85018,13216.354,759491
85012,Mussomeli,CLAA81801A,VIA MADONNA DI FATIMA,VIA MADONNA DI FATIMA SNC,37.580294114535,13.754867037092,10510,37.453843,13.880463,village,Serradifalco,85018,23749.602,1532426
85012,Mussomeli,CLAA81805E,"""MADRE TERESA DI CALCUTTA"" MUSS",VIA LEONARDO DA VINCI SNC,37.574733853815,13.75207473182,10510,37.453843,13.880463,village,Serradifalco,85018,23338.108,1459662
85012,Mussomeli,CL1A004002,"""AVV. G. LA RIZZA""",VIA V. E. ORLANDO 3,37.580079993969,13.756700015514,10510,37.453843,13.880463,village,Serradifalco,85018,23703.824,1537572
85012,Mussomeli,CL1A00700D,"""SORELLE SOLA - S. ENRICO""",VIA VANELLE 34,37.576419994038,13.756229958383,10510,37.453843,13.880463,village,Serradifalco,85018,22916.553,1445605
85011,Montedoro,CLAA82005E,MONTEDORO - ANNA FRANK,VIA DELLE ZOLFARE 7,37.454021044686,13.823865923149,10510,37.453843,13.880463,village,Serradifalco,85018,10054.387,656421
85011,Montedoro,CL1AGB500P,MARIA SS DEL ROSARIO E SAN GIUSEPPE,VIA GIACOMO LEOPARDI 3,37.455167874044,13.818643708422,10510,37.453843,13.880463,village,Serradifalco,85018,9540.948,584745
85018,Serradifalco,CLAA82002B,FRANCESCA MORVILLO,VIA KENNEDY,37.454219185585,13.878055012687,10510,37.453843,13.880463,village,Serradifalco,85018,511.554,45956
85018,Serradifalco,CLAA82001A,GIOVANNI FALCONE,VIA CAVALIERI DI VITTORIO VENETO,37.454848710936,13.88171871333,10510,37.453843,13.880463,village,Serradifalco,85018,156.584,11274
85012,Mussomeli,CLAA81801A,VIA MADONNA DI FATIMA,VIA MADONNA DI FATIMA SNC,37.580294114535,13.754867037092,10517,37.5252277,13.7313165,village,Sutera,85020,11304.539,909400
85012,Mussomeli,CLAA81805E,"""MADRE TERESA DI CALCUTTA"" MUSS",VIA LEONARDO DA VINCI SNC,37.574733853815,13.75207473182,10517,37.5252277,13.7313165,village,Sutera,85020,10287.948,785224
85012,Mussomeli,CL1A004002,"""AVV. G. LA RIZZA""",VIA V. E. ORLANDO 3,37.580079993969,13.756700015514,10517,37.5252277,13.7313165,village,Sutera,85020,11306.22,914618
85012,Mussomeli,CL1A00700D,"""SORELLE SOLA - S. ENRICO""",VIA VANELLE 34,37.576419994038,13.756229958383,10517,37.5252277,13.7313165,village,Sutera,85020,10667.123,840431
85005,Campofranco,CLAA81803C,VIA SANTA CROCE,VIA SANTA CROCE 85,37.510149985324,13.705550038119,10517,37.5252277,13.7313165,village,Sutera,85020,4115.061,358824
85001,Acquaviva Platani,CLAA81804D,VIA PADRE PIO DA PIETRELCINA,VIA PADRE PIO DA PIETRELCINA SNC,37.571330386963,13.702609400934,10517,37.5252277,13.7313165,village,Sutera,85020,11733.453,1089428
85002,Bompensiere,CLAA82004D,"""CARLO COLLODI"" - BOMPENSIERE",VIALE LUIGI PIRANDELLO SNC,37.472865594727,13.779018003767,10517,37.5252277,13.7313165,village,Sutera,85020,14765.609,995359
85010,Milena,CLAA82003C,"""GIANNI RODARI"" - MILENA",VIA GIACOMO MATTEOTTI SNC,37.469081600189,13.732520128041,10517,37.5252277,13.7313165,village,Sutera,85020,13704.533,965801
85020,Sutera,CLAA81806G,SUTERA - VIA ORTI,VIA ORTISNC,37.495530001,13.733689148,10517,37.5252277,13.7313165,village,Sutera,85020,6122.346,1192683
85004,Caltanissetta,CLAA822012,"""FELICIA BARTOLOTTA IMPASTATO""",VILL. S. BARBARA - VIA TERRAMAGRA SNC,37.500363402193,14.089505885847,10509,37.3342349,13.9911109,village,Sommatino,85019,31839.548,1857279
85004,Caltanissetta,CLAA822045,FIRRIO,VIA FIRRIO,37.505537023962,14.061622570421,10509,37.3342349,13.9911109,village,Sommatino,85019,28244.072,1683691
85004,Caltanissetta,CLAA82501D,"""HANS CHRISTIAN ANDERSEN""",VIA GENERALE CASCINO 88,37.494810012865,14.066210004532,10509,37.3342349,13.9911109,village,Sommatino,85019,27207.196,1709149
85004,Caltanissetta,CLAA822056,"""MADDALENA CALAFATO""",VIA MADDALENA CALAFATO,37.493244008328,14.059071031788,10509,37.3342349,13.9911109,village,Sommatino,85019,26926.867,1587405
85004,Caltanissetta,CLAA822034,SAN GIUSTO,VIALE REGINA MARGHERITA26,37.486510000884,14.061810008279,10509,37.3342349,13.9911109,village,Sommatino,85019,26088.938,1612523
85004,Caltanissetta,CLAA822023,SANTA DOMENICA,VIA ANGELI,37.487632668543,14.070047875842,10509,37.3342349,13.9911109,village,Sommatino,85019,27238.426,1723764
85004,Caltanissetta,CLAA830022,VIA ALDO MORO,VIA ALDO MORO,37.485073545716,14.047964217198,10509,37.3342349,13.9911109,village,Sommatino,85019,26190.611,1549297
85004,Caltanissetta,CLAA828011,PIAZZA MARTIRI D'UNGHERIA,PIAZZA MARTIRI D'UNGHERIA 3,37.492580007525,14.052269977542,10509,37.3342349,13.9911109,village,Sommatino,85019,26273.201,1545271
85004,Caltanissetta,CLAA828022,EX OMNI,VIA MALTA,37.491892444551,14.043668528865,10509,37.3342349,13.9911109,village,Sommatino,85019,25588.733,1500334
85004,Caltanissetta,CLAA828033,LOMBARDO RADICE,VIA CATANIA,37.492030068259,14.053354663076,10509,37.3342349,13.9911109,village,Sommatino,85019,26221.048,1533038
85004,Caltanissetta,CLAA82502E,S.FLAVIA,PIAZZA S. FLAVIA,37.493950776716,14.065180029478,10509,37.3342349,13.9911109,village,Sommatino,85019,27786.651,1680060
85004,Caltanissetta,CLAA82504L,Q.RE UNRRA CASAS,VIA ACI,37.491635992376,14.042035279913,10509,37.3342349,13.9911109,village,Sommatino,85019,25727.961,1519756
85004,Caltanissetta,CLAA821016,"""SANTA PETRONILLA""",VIA MARIA MONTESSORI SNC,37.497508602129,14.051983040892,10509,37.3342349,13.9911109,village,Sommatino,85019,26852.252,1576113
85004,Caltanissetta,CLAA001045,LEONARDO SCIASCIA,VIA NAPOLEONE COLAJANNI,37.485497693361,14.058817691963,10509,37.3342349,13.9911109,village,Sommatino,85019,25220.559,1566578
85004,Caltanissetta,CLAA001056,PANTANO,VIALE STEFANO CANDURA,37.47469693921,14.045270199031,10509,37.3342349,13.9911109,village,Sommatino,85019,23352.932,1407447
85004,Caltanissetta,CLAA001012,VIA FALETRA,VIA FALETRA,37.488385011669,14.051745018946,10509,37.3342349,13.9911109,village,Sommatino,85019,26487.225,1556302
85004,Caltanissetta,CLAA821027,VIA REAL MAESTRANZA,VIA REAL MAESTRANZA,37.498183522937,14.057996862851,10509,37.3342349,13.9911109,village,Sommatino,85019,27088.269,1590341
85004,Caltanissetta,CLAA830011,DON LORENZO MILANI,VIA FERDINANDO I 24,37.485010509795,14.041761686746,10509,37.3342349,13.9911109,village,Sommatino,85019,25792.014,1514419
85004,Caltanissetta,CLAA830033,VIA TURATI,VIA TURATI,37.482405728709,14.035079458688,10509,37.3342349,13.9911109,village,Sommatino,85019,24450.087,1524481
85004,Caltanissetta,CLAA82503G,"""LEONE XIII""",VIA LEONE XIII,37.49125173839,14.04075830257,10509,37.3342349,13.9911109,village,Sommatino,85019,25012.067,1459012
85004,Caltanissetta,CLAA82505N,CITTADELLA,VIA LA CITTADELLA,37.494068394929,14.041842914172,10509,37.3342349,13.9911109,village,Sommatino,85019,25501.112,1496239
85004,Caltanissetta,CL1ACV5004,KINDER'S SCHOOL SOC. COOP.,VIA BORREMANS N. 8,37.496969987404,14.056829984326,10509,37.3342349,13.9911109,village,Sommatino,85019,26879.462,1564446
85004,Caltanissetta,CL1A010009,"""OASI CRISTO RE""",VIA SAN GIULIANO 4,37.50034998986,14.063290000923,10509,37.3342349,13.9911109,village,Sommatino,85019,27597.717,1606128
85004,Caltanissetta,CL1A00100E,"""MONS. GIOVANNI IACONO""",VIA VITALIANO BRANCATI 3,37.496400017988,14.049479977251,10509,37.3342349,13.9911109,village,Sommatino,85019,26127.016,1520762
85004,Caltanissetta,CL1A02700P,NEW BABY' S COLLEGE,VIA ROMITA S.N.C,37.477933024581,14.044081153004,10509,37.3342349,13.9911109,village,Sommatino,85019,26729.225,1619857
85004,Caltanissetta,CL1A003006,"""SIGNORE DELLA CITTA'""",VIA SIGNORE DELLA CITTA' 64,37.486429995618,14.065120021843,10509,37.3342349,13.9911109,village,Sommatino,85019,26367.131,1635681
85004,Caltanissetta,CL1AF2500T,"SCUOLA DELL' INFANZIA "" IL FANTABOSCHIO""",VIALE DELLA REGIONE 1,37.493190000529,14.051679975377,10509,37.3342349,13.9911109,village,Sommatino,85019,26153.39,1533204
85015,Riesi,CLAA81702G,"""BIAGIO PISTONE""",VIA FELICE CAVALLOTTI,37.285613841583,14.080005592948,10509,37.3342349,13.9911109,village,Sommatino,85019,14249.866,981643
85015,Riesi,CLAA81703L,"""GIUSEPPE PATERNA""",VIALE UMBRIA,37.280315348138,14.083276574798,10509,37.3342349,13.9911109,village,Sommatino,85019,15610.163,982292
85015,Riesi,CLAA81705P,C.DA GIARRATANA DD,VIA VESPRI,37.297545,14.090688605,10509,37.3342349,13.9911109,village,Sommatino,85019,16699.495,1113011
85015,Riesi,CLAA81701E,C.DA GIARRATANA IST. COMPR.,VIA VESPRI SNC,37.297545,14.090688605,10509,37.3342349,13.9911109,village,Sommatino,85019,16699.495,1113011
85015,Riesi,CLAA81704N,"""ANGELO GALLO""",VIA NAPOLI,37.280878912383,14.088285671611,10509,37.3342349,13.9911109,village,Sommatino,85019,15582.693,978993
85015,Riesi,CL1A02300B,"""DON S. RIGGIO""",VIA CARLO ALBERTO 60,37.283090011814,14.083029969634,10509,37.3342349,13.9911109,village,Sommatino,85019,15343.015,950233
85015,Riesi,CL1A01500C,"""MONTE DEGLI ULIVI""",VIA MONTE DEGLI ULIVI 6,37.278890007771,14.089429971804,10509,37.3342349,13.9911109,village,Sommatino,85019,15911.224,1018417
85009,Mazzarino,CLAA816071,MADUNNUZZA,VIA DELLA PACE,37.300097335486,14.210186597973,10509,37.3342349,13.9911109,village,Sommatino,85019,29375.232,1717239
85009,Mazzarino,CLAA816082,SAN DOMENICO,CORSO VITTORIO EMANUELE 291,37.305337986835,14.218513588391,10509,37.3342349,13.9911109,village,Sommatino,85019,30229.51,1799157
85019,Sommatino,CLAA81501V,"""ARCOBALENO""",VIA B. CELLINI,37.332780551375,13.991721107746,10509,37.3342349,13.9911109,village,Sommatino,85019,176.987,21239
85019,Sommatino,CLAA81502X,"""MARIA HELENA PRESTI""",VIA CARDUCCI 5,37.336164998047,13.991970021274,10509,37.3342349,13.9911109,village,Sommatino,85019,343.879,40906
85018,Serradifalco,CLAA82002B,FRANCESCA MORVILLO,VIA KENNEDY,37.454219185585,13.878055012687,10505,37.4535082,13.8162377,village,Montedoro,85011,9477.352,619934
85018,Serradifalco,CLAA82001A,GIOVANNI FALCONE,VIA CAVALIERI DI VITTORIO VENETO,37.454848710936,13.88171871333,10505,37.4535082,13.8162377,village,Montedoro,85011,9790.971,630033
85012,Mussomeli,CLAA81801A,VIA MADONNA DI FATIMA,VIA MADONNA DI FATIMA SNC,37.580294114535,13.754867037092,10505,37.4535082,13.8162377,village,Montedoro,85011,22203.283,1534136
85012,Mussomeli,CLAA81805E,"""MADRE TERESA DI CALCUTTA"" MUSS",VIA LEONARDO DA VINCI SNC,37.574733853815,13.75207473182,10505,37.4535082,13.8162377,village,Montedoro,85011,21791.789,1461372
85012,Mussomeli,CL1A004002,"""AVV. G. LA RIZZA""",VIA V. E. ORLANDO 3,37.580079993969,13.756700015514,10505,37.4535082,13.8162377,village,Montedoro,85011,22157.505,1539282
85012,Mussomeli,CL1A00700D,"""SORELLE SOLA - S. ENRICO""",VIA VANELLE 34,37.576419994038,13.756229958383,10505,37.4535082,13.8162377,village,Montedoro,85011,21370.233,1447315
85002,Bompensiere,CLAA82004D,"""CARLO COLLODI"" - BOMPENSIERE",VIALE LUIGI PIRANDELLO SNC,37.472865594727,13.779018003767,10505,37.4535082,13.8162377,village,Montedoro,85011,6427.491,441148
85011,Montedoro,CLAA82005E,MONTEDORO - ANNA FRANK,VIA DELLE ZOLFARE 7,37.454021044686,13.823865923149,10505,37.4535082,13.8162377,village,Montedoro,85011,1144.751,137369
85011,Montedoro,CL1AGB500P,MARIA SS DEL ROSARIO E SAN GIUSEPPE,VIA GIACOMO LEOPARDI 3,37.455167874044,13.818643708422,10505,37.4535082,13.8162377,village,Montedoro,85011,363.991,43679
85005,Campofranco,CLAA81803C,VIA SANTA CROCE,VIA SANTA CROCE 85,37.510149985324,13.705550038119,10506,37.4715206,13.7364367,village,Milena,85010,11441.201,754589
85020,Sutera,CLAA81806G,SUTERA - VIA ORTI,VIA ORTISNC,37.495530001,13.733689148,10506,37.4715206,13.7364367,village,Milena,85010,12982.039,1566221
85002,Bompensiere,CLAA82004D,"""CARLO COLLODI"" - BOMPENSIERE",VIALE LUIGI PIRANDELLO SNC,37.472865594727,13.779018003767,10506,37.4715206,13.7364367,village,Milena,85010,5457.641,364793
85010,Milena,CLAA82003C,"""GIANNI RODARI"" - MILENA",VIA GIACOMO MATTEOTTI SNC,37.469081600189,13.732520128041,10506,37.4715206,13.7364367,village,Milena,85010,581.68,48826
85004,Caltanissetta,CLAA822012,"""FELICIA BARTOLOTTA IMPASTATO""",VILL. S. BARBARA - VIA TERRAMAGRA SNC,37.500363402193,14.089505885847,10519,37.597446,13.915763,village,Marianopoli,85008,30347.41,1861683
85004,Caltanissetta,CLAA822045,FIRRIO,VIA FIRRIO,37.505537023962,14.061622570421,10519,37.597446,13.915763,village,Marianopoli,85008,26751.934,1688095
85004,Caltanissetta,CLAA82501D,"""HANS CHRISTIAN ANDERSEN""",VIA GENERALE CASCINO 88,37.494810012865,14.066210004532,10519,37.597446,13.915763,village,Marianopoli,85008,26461.889,1689645
85004,Caltanissetta,CLAA822056,"""MADDALENA CALAFATO""",VIA MADDALENA CALAFATO,37.493244008328,14.059071031788,10519,37.597446,13.915763,village,Marianopoli,85008,25857.227,1621248
85004,Caltanissetta,CLAA822034,SAN GIUSTO,VIALE REGINA MARGHERITA26,37.486510000884,14.061810008279,10519,37.597446,13.915763,village,Marianopoli,85008,27424.942,1800881
85004,Caltanissetta,CLAA822023,SANTA DOMENICA,VIA ANGELI,37.487632668543,14.070047875842,10519,37.597446,13.915763,village,Marianopoli,85008,27324.542,1805853
85004,Caltanissetta,CLAA830022,VIA ALDO MORO,VIA ALDO MORO,37.485073545716,14.047964217198,10519,37.597446,13.915763,village,Marianopoli,85008,26412.896,1659896
85004,Caltanissetta,CLAA828011,PIAZZA MARTIRI D'UNGHERIA,PIAZZA MARTIRI D'UNGHERIA 3,37.492580007525,14.052269977542,10519,37.597446,13.915763,village,Marianopoli,85008,25470.302,1587862
85004,Caltanissetta,CLAA828022,EX OMNI,VIA MALTA,37.491892444551,14.043668528865,10519,37.597446,13.915763,village,Marianopoli,85008,25504.091,1588393
85004,Caltanissetta,CLAA828033,LOMBARDO RADICE,VIA CATANIA,37.492030068259,14.053354663076,10519,37.597446,13.915763,village,Marianopoli,85008,25535.148,1594813
85004,Caltanissetta,CLAA82502E,S.FLAVIA,PIAZZA S. FLAVIA,37.493950776716,14.065180029478,10519,37.597446,13.915763,village,Marianopoli,85008,26461.622,1689613
85004,Caltanissetta,CLAA82504L,Q.RE UNRRA CASAS,VIA ACI,37.491635992376,14.042035279913,10519,37.597446,13.915763,village,Marianopoli,85008,25719.529,1605806
85004,Caltanissetta,CLAA821016,"""SANTA PETRONILLA""",VIA MARIA MONTESSORI SNC,37.497508602129,14.051983040892,10519,37.597446,13.915763,village,Marianopoli,85008,25360.114,1580517
85004,Caltanissetta,CLAA001045,LEONARDO SCIASCIA,VIA NAPOLEONE COLAJANNI,37.485497693361,14.058817691963,10519,37.597446,13.915763,village,Marianopoli,85008,27556.9,1749380
85004,Caltanissetta,CLAA001056,PANTANO,VIALE STEFANO CANDURA,37.47469693921,14.045270199031,10519,37.597446,13.915763,village,Marianopoli,85008,28602.55,1816781
85004,Caltanissetta,CLAA001012,VIA FALETRA,VIA FALETRA,37.488385011669,14.051745018946,10519,37.597446,13.915763,village,Marianopoli,85008,26042.368,1635624
85004,Caltanissetta,CLAA821027,VIA REAL MAESTRANZA,VIA REAL MAESTRANZA,37.498183522937,14.057996862851,10519,37.597446,13.915763,village,Marianopoli,85008,25596.131,1594745
85004,Caltanissetta,CLAA830011,DON LORENZO MILANI,VIA FERDINANDO I 24,37.485010509795,14.041761686746,10519,37.597446,13.915763,village,Marianopoli,85008,26460.277,1638475
85004,Caltanissetta,CLAA830033,VIA TURATI,VIA TURATI,37.482405728709,14.035079458688,10519,37.597446,13.915763,village,Marianopoli,85008,27163.921,1722657
85004,Caltanissetta,CLAA82503G,"""LEONE XIII""",VIA LEONE XIII,37.49125173839,14.04075830257,10519,37.597446,13.915763,village,Marianopoli,85008,25680.33,1583068
85004,Caltanissetta,CLAA82505N,CITTADELLA,VIA LA CITTADELLA,37.494068394929,14.041842914172,10519,37.597446,13.915763,village,Marianopoli,85008,25509.038,1584251
85004,Caltanissetta,CL1ACV5004,KINDER'S SCHOOL SOC. COOP.,VIA BORREMANS N. 8,37.496969987404,14.056829984326,10519,37.597446,13.915763,village,Marianopoli,85008,25387.324,1568850
85004,Caltanissetta,CL1A010009,"""OASI CRISTO RE""",VIA SAN GIULIANO 4,37.50034998986,14.063290000923,10519,37.597446,13.915763,village,Marianopoli,85008,26105.578,1610532
85004,Caltanissetta,CL1A00100E,"""MONS. GIOVANNI IACONO""",VIA VITALIANO BRANCATI 3,37.496400017988,14.049479977251,10519,37.597446,13.915763,village,Marianopoli,85008,24634.878,1525166
85004,Caltanissetta,CL1A02700P,NEW BABY' S COLLEGE,VIA ROMITA S.N.C,37.477933024581,14.044081153004,10519,37.597446,13.915763,village,Marianopoli,85008,27397.488,1743913
85004,Caltanissetta,CL1A003006,"""SIGNORE DELLA CITTA'""",VIA SIGNORE DELLA CITTA' 64,37.486429995618,14.065120021843,10519,37.597446,13.915763,village,Marianopoli,85008,27379.294,1804008
85004,Caltanissetta,CL1AF2500T,"SCUOLA DELL' INFANZIA "" IL FANTABOSCHIO""",VIALE DELLA REGIONE 1,37.493190000529,14.051679975377,10519,37.597446,13.915763,village,Marianopoli,85008,25350.491,1575795
85012,Mussomeli,CLAA81801A,VIA MADONNA DI FATIMA,VIA MADONNA DI FATIMA SNC,37.580294114535,13.754867037092,10519,37.597446,13.915763,village,Marianopoli,85008,24174.257,2631553
85012,Mussomeli,CLAA81805E,"""MADRE TERESA DI CALCUTTA"" MUSS",VIA LEONARDO DA VINCI SNC,37.574733853815,13.75207473182,10519,37.597446,13.915763,village,Marianopoli,85008,26248.605,2516443
85012,Mussomeli,CL1A004002,"""AVV. G. LA RIZZA""",VIA V. E. ORLANDO 3,37.580079993969,13.756700015514,10519,37.597446,13.915763,village,Marianopoli,85008,24134.243,2626750
85012,Mussomeli,CL1A00700D,"""SORELLE SOLA - S. ENRICO""",VIA VANELLE 34,37.576419994038,13.756229958383,10519,37.597446,13.915763,village,Marianopoli,85008,25827.05,2502386
85022,Villalba,CLAA80402D,VILLALBA - DON MILANI,VIA ADUA SNC,37.65346297945,13.845023415425,10519,37.597446,13.915763,village,Marianopoli,85008,12546.882,1216954
85008,Marianopoli,CLAA80403E,MARIANOPOLI-VIALE DELLA REGIONE,VIA PIAZZA ARMERINA,37.599525637969,13.91285129353,10519,37.597446,13.915763,village,Marianopoli,85008,442.835,53141
85004,Caltanissetta,CLAA822012,"""FELICIA BARTOLOTTA IMPASTATO""",VILL. S. BARBARA - VIA TERRAMAGRA SNC,37.500363402193,14.089505885847,10507,37.3560363,13.9272894,village,Delia,85006,29099.136,1713137
85004,Caltanissetta,CLAA822045,FIRRIO,VIA FIRRIO,37.505537023962,14.061622570421,10507,37.3560363,13.9272894,village,Delia,85006,25503.66,1539549
85004,Caltanissetta,CLAA82501D,"""HANS CHRISTIAN ANDERSEN""",VIA GENERALE CASCINO 88,37.494810012865,14.066210004532,10507,37.3560363,13.9272894,village,Delia,85006,24466.784,1565007
85004,Caltanissetta,CLAA822056,"""MADDALENA CALAFATO""",VIA MADDALENA CALAFATO,37.493244008328,14.059071031788,10507,37.3560363,13.9272894,village,Delia,85006,24186.456,1443263
85004,Caltanissetta,CLAA822034,SAN GIUSTO,VIALE REGINA MARGHERITA26,37.486510000884,14.061810008279,10507,37.3560363,13.9272894,village,Delia,85006,23348.526,1468381
85004,Caltanissetta,CLAA822023,SANTA DOMENICA,VIA ANGELI,37.487632668543,14.070047875842,10507,37.3560363,13.9272894,village,Delia,85006,24498.014,1579622
85004,Caltanissetta,CLAA830022,VIA ALDO MORO,VIA ALDO MORO,37.485073545716,14.047964217198,10507,37.3560363,13.9272894,village,Delia,85006,23450.199,1405155
85004,Caltanissetta,CLAA828011,PIAZZA MARTIRI D'UNGHERIA,PIAZZA MARTIRI D'UNGHERIA 3,37.492580007525,14.052269977542,10507,37.3560363,13.9272894,village,Delia,85006,23532.789,1401129
85004,Caltanissetta,CLAA828022,EX OMNI,VIA MALTA,37.491892444551,14.043668528865,10507,37.3560363,13.9272894,village,Delia,85006,22848.321,1356192
85004,Caltanissetta,CLAA828033,LOMBARDO RADICE,VIA CATANIA,37.492030068259,14.053354663076,10507,37.3560363,13.9272894,village,Delia,85006,23480.636,1388896
85004,Caltanissetta,CLAA82502E,S.FLAVIA,PIAZZA S. FLAVIA,37.493950776716,14.065180029478,10507,37.3560363,13.9272894,village,Delia,85006,25046.239,1535918
85004,Caltanissetta,CLAA82504L,Q.RE UNRRA CASAS,VIA ACI,37.491635992376,14.042035279913,10507,37.3560363,13.9272894,village,Delia,85006,22987.55,1375614
85004,Caltanissetta,CLAA821016,"""SANTA PETRONILLA""",VIA MARIA MONTESSORI SNC,37.497508602129,14.051983040892,10507,37.3560363,13.9272894,village,Delia,85006,24111.841,1431971
85004,Caltanissetta,CLAA001045,LEONARDO SCIASCIA,VIA NAPOLEONE COLAJANNI,37.485497693361,14.058817691963,10507,37.3560363,13.9272894,village,Delia,85006,22480.147,1422436
85004,Caltanissetta,CLAA001056,PANTANO,VIALE STEFANO CANDURA,37.47469693921,14.045270199031,10507,37.3560363,13.9272894,village,Delia,85006,20612.52,1263305
85004,Caltanissetta,CLAA001012,VIA FALETRA,VIA FALETRA,37.488385011669,14.051745018946,10507,37.3560363,13.9272894,village,Delia,85006,23746.813,1412160
85004,Caltanissetta,CLAA821027,VIA REAL MAESTRANZA,VIA REAL MAESTRANZA,37.498183522937,14.057996862851,10507,37.3560363,13.9272894,village,Delia,85006,24347.857,1446199
85004,Caltanissetta,CLAA830011,DON LORENZO MILANI,VIA FERDINANDO I 24,37.485010509795,14.041761686746,10507,37.3560363,13.9272894,village,Delia,85006,23051.603,1370277
85004,Caltanissetta,CLAA830033,VIA TURATI,VIA TURATI,37.482405728709,14.035079458688,10507,37.3560363,13.9272894,village,Delia,85006,21709.676,1380339
85004,Caltanissetta,CLAA82503G,"""LEONE XIII""",VIA LEONE XIII,37.49125173839,14.04075830257,10507,37.3560363,13.9272894,village,Delia,85006,22271.655,1314870
85004,Caltanissetta,CLAA82505N,CITTADELLA,VIA LA CITTADELLA,37.494068394929,14.041842914172,10507,37.3560363,13.9272894,village,Delia,85006,22760.7,1352097
85004,Caltanissetta,CL1ACV5004,KINDER'S SCHOOL SOC. COOP.,VIA BORREMANS N. 8,37.496969987404,14.056829984326,10507,37.3560363,13.9272894,village,Delia,85006,24139.05,1420304
85004,Caltanissetta,CL1A010009,"""OASI CRISTO RE""",VIA SAN GIULIANO 4,37.50034998986,14.063290000923,10507,37.3560363,13.9272894,village,Delia,85006,24857.305,1461986
85004,Caltanissetta,CL1A00100E,"""MONS. GIOVANNI IACONO""",VIA VITALIANO BRANCATI 3,37.496400017988,14.049479977251,10507,37.3560363,13.9272894,village,Delia,85006,23386.604,1376620
85004,Caltanissetta,CL1A02700P,NEW BABY' S COLLEGE,VIA ROMITA S.N.C,37.477933024581,14.044081153004,10507,37.3560363,13.9272894,village,Delia,85006,23988.814,1475715
85004,Caltanissetta,CL1A003006,"""SIGNORE DELLA CITTA'""",VIA SIGNORE DELLA CITTA' 64,37.486429995618,14.065120021843,10507,37.3560363,13.9272894,village,Delia,85006,23626.719,1491539
85004,Caltanissetta,CL1AF2500T,"SCUOLA DELL' INFANZIA "" IL FANTABOSCHIO""",VIALE DELLA REGIONE 1,37.493190000529,14.051679975377,10507,37.3560363,13.9272894,village,Delia,85006,23412.978,1389062
85006,Delia,CLAA815031,DELIA - VIA SANDRO PERTINI,VIA SANDRO PERTINI SNC,37.359751926203,13.935017644157,10507,37.3560363,13.9272894,village,Delia,85006,948.701,98499
85006,Delia,CL1A024007,"""SANT' ANTONIO""",PIAZZA S. ANTONIO 9,37.356649992222,13.925260004553,10507,37.3560363,13.9272894,village,Delia,85006,213.67,25640
85004,Caltanissetta,CLAA822012,"""FELICIA BARTOLOTTA IMPASTATO""",VILL. S. BARBARA - VIA TERRAMAGRA SNC,37.500363402193,14.089505885847,10516,37.591147,14.036265,village,Santa Caterina Villarmosa,85017,15544.961,1384048
85004,Caltanissetta,CLAA822045,FIRRIO,VIA FIRRIO,37.505537023962,14.061622570421,10516,37.591147,14.036265,village,Santa Caterina Villarmosa,85017,14951.346,1262334
85004,Caltanissetta,CLAA82501D,"""HANS CHRISTIAN ANDERSEN""",VIA GENERALE CASCINO 88,37.494810012865,14.066210004532,10516,37.591147,14.036265,village,Santa Caterina Villarmosa,85017,14661.301,1263884
85004,Caltanissetta,CLAA822056,"""MADDALENA CALAFATO""",VIA MADDALENA CALAFATO,37.493244008328,14.059071031788,10516,37.591147,14.036265,village,Santa Caterina Villarmosa,85017,14562.931,1240360
85004,Caltanissetta,CLAA822034,SAN GIUSTO,VIALE REGINA MARGHERITA26,37.486510000884,14.061810008279,10516,37.591147,14.036265,village,Santa Caterina Villarmosa,85017,15824.078,1374095
85004,Caltanissetta,CLAA822023,SANTA DOMENICA,VIA ANGELI,37.487632668543,14.070047875842,10516,37.591147,14.036265,village,Santa Caterina Villarmosa,85017,15723.679,1379067
85004,Caltanissetta,CLAA830022,VIA ALDO MORO,VIA ALDO MORO,37.485073545716,14.047964217198,10516,37.591147,14.036265,village,Santa Caterina Villarmosa,85017,15732.784,1301366
85004,Caltanissetta,CLAA828011,PIAZZA MARTIRI D'UNGHERIA,PIAZZA MARTIRI D'UNGHERIA 3,37.492580007525,14.052269977542,10516,37.591147,14.036265,village,Santa Caterina Villarmosa,85017,14676.383,1220029
85004,Caltanissetta,CLAA828022,EX OMNI,VIA MALTA,37.491892444551,14.043668528865,10516,37.591147,14.036265,village,Santa Caterina Villarmosa,85017,14823.979,1229863
85004,Caltanissetta,CLAA828033,LOMBARDO RADICE,VIA CATANIA,37.492030068259,14.053354663076,10516,37.591147,14.036265,village,Santa Caterina Villarmosa,85017,14617.224,1215068
85004,Caltanissetta,CLAA82502E,S.FLAVIA,PIAZZA S. FLAVIA,37.493950776716,14.065180029478,10516,37.591147,14.036265,village,Santa Caterina Villarmosa,85017,14661.033,1263852
85004,Caltanissetta,CLAA82504L,Q.RE UNRRA CASAS,VIA ACI,37.491635992376,14.042035279913,10516,37.591147,14.036265,village,Santa Caterina Villarmosa,85017,15051.244,1257134
85004,Caltanissetta,CLAA821016,"""SANTA PETRONILLA""",VIA MARIA MONTESSORI SNC,37.497508602129,14.051983040892,10516,37.591147,14.036265,village,Santa Caterina Villarmosa,85017,13702.398,1163759
85004,Caltanissetta,CLAA001045,LEONARDO SCIASCIA,VIA NAPOLEONE COLAJANNI,37.485497693361,14.058817691963,10516,37.591147,14.036265,village,Santa Caterina Villarmosa,85017,15631.624,1348687
85004,Caltanissetta,CLAA001056,PANTANO,VIALE STEFANO CANDURA,37.47469693921,14.045270199031,10516,37.591147,14.036265,village,Santa Caterina Villarmosa,85017,17684.626,1437036
85004,Caltanissetta,CLAA001012,VIA FALETRA,VIA FALETRA,37.488385011669,14.051745018946,10516,37.591147,14.036265,village,Santa Caterina Villarmosa,85017,15124.444,1255879
85004,Caltanissetta,CLAA821027,VIA REAL MAESTRANZA,VIA REAL MAESTRANZA,37.498183522937,14.057996862851,10516,37.591147,14.036265,village,Santa Caterina Villarmosa,85017,13590.703,1157639
85004,Caltanissetta,CLAA830011,DON LORENZO MILANI,VIA FERDINANDO I 24,37.485010509795,14.041761686746,10516,37.591147,14.036265,village,Santa Caterina Villarmosa,85017,14856.982,1316253
