from_pro_com,from_comune,from_id_school,from_name,from_address,latitude_school,longitude_school,to,latitude_to,longitude_to,to_kind,to_comune,to_pro_com,distance,travel_time
65002,Agropoli,SAAA8A4027,BIVIO MATTINE,VIA MATTINE,40.387365874188,15.02706100712,13398,40.424407,15.080854,town,Capaccio Paestum,65025,7996.287,891338
65002,Agropoli,SAAA099039,AGROPOLI - CENTRO,CORSO EUROPA,40.350616439519,14.991610188118,13398,40.424407,15.080854,town,Capaccio Paestum,65025,16446.711,1431881
65002,Agropoli,SAAA8A406B,S.MARCO - VIA G.VERGA,VIA VERGA SNC,40.357150116781,14.999442657785,13398,40.424407,15.080854,town,Capaccio Paestum,65025,14952.349,1230767
65002,Agropoli,SAAA8A4016,MADONNA DEL CARMINE,VIA CANNETIELLO,40.329927125154,15.015151342339,13398,40.424407,15.080854,town,Capaccio Paestum,65025,18633.061,1489041
65002,Agropoli,SAAA8A4038,S.MARCO VIA G. SELVI,VIA P. G. SELVI,40.355893392393,15.001533675515,13398,40.424407,15.080854,town,Capaccio Paestum,65025,15017.636,1220243
65002,Agropoli,SAAA099017,A. MOZZILLO,PIAZZA GORGA,40.349892767,15.001,13398,40.424407,15.080854,town,Capaccio Paestum,65025,15737.229,1301512
65002,Agropoli,SAAA099028,A.CAFARELLI,VIA ISCALONGA,40.337320384783,14.985937674389,13398,40.424407,15.080854,town,Capaccio Paestum,65025,18358.612,1546446
65002,Agropoli,SA1A025006,"SCUOLA DELL'INFANZIA ""BABYLANDIA"" COOP. SOCIALE",VIA MASCAGNI 7,40.345789990549,14.993219997265,13398,40.424407,15.080854,town,Capaccio Paestum,65025,16586.658,1452510
65002,Agropoli,SA1AET500Q,BABY DISNEY,Via Toscanini n. 10,40.346249989395,14.992999972307,13398,40.424407,15.080854,town,Capaccio Paestum,65025,16526.485,1444162
65002,Agropoli,SA1ATF500D,Il Tempo di Gea,Via Madonna del Carmine 99-103,40.334505506782,15.014928541212,13398,40.424407,15.080854,town,Capaccio Paestum,65025,18001.965,1406568
65050,Eboli,SAAA05301T,CASARSA,C.DA CASARSA,40.602084457257,15.095735868615,13398,40.424407,15.080854,town,Capaccio Paestum,65025,29837.793,2199245
65050,Eboli,SAAA88901G,AGATINO ARIA,VIA PAOLO MASILLO 5,40.614809980902,15.055039969764,13398,40.424407,15.080854,town,Capaccio Paestum,65025,28668.488,2089113
65050,Eboli,SAAA8BG029,PATERNO,VIA CADUTI DI BRUXELLES,40.61454188877,15.048421287516,13398,40.424407,15.080854,town,Capaccio Paestum,65025,28481.194,2085168
65050,Eboli,SAAA819019,S. CECILIA,VIA F.LLI CIANCO SNC,40.566670001,14.999918727,13398,40.424407,15.080854,town,Capaccio Paestum,65025,22311.76,1623210
65050,Eboli,SAAA05302V,COSIMO LONGOBARDI,VIA S. PERTINI,40.614544241389,15.071114684084,13398,40.424407,15.080854,town,Capaccio Paestum,65025,30196.488,2188124
65050,Eboli,SAAA81902A,CIOFFI,VIA CIOFFI,40.551184960803,14.973039689166,13398,40.424407,15.080854,town,Capaccio Paestum,65025,20991.7,1534130
65050,Eboli,SAAA8BG018,PENDINO,VIA SALITA RIPA,40.620264516222,15.05374786305,13398,40.424407,15.080854,town,Capaccio Paestum,65025,29180.825,2110144
65050,Eboli,SAAA852022,SAN FRANCESCO,VIA V. VENETO 42,40.616739997927,15.058080002227,13398,40.424407,15.080854,town,Capaccio Paestum,65025,29088.958,2107867
65050,Eboli,SAAA852011,CEFFATO MOLINELLO,LOC CEFFATO MOLINELLO,40.616244058631,15.06062109226,13398,40.424407,15.080854,town,Capaccio Paestum,65025,29150.755,2107820
65050,Eboli,SAAA053074,PEZZA PACIANA,PIAZZA DELLA REPUBBLICA,40.617000503713,15.056398288485,13398,40.424407,15.080854,town,Capaccio Paestum,65025,29032.234,2124521
65050,Eboli,SA1A055002,SCUOLA DELL'INFAN. NON STATALE PICCOLO MONDO (ASSACIAZIONE),VIA CEFALONIA N.1,40.613969988476,15.055399972506,13398,40.424407,15.080854,town,Capaccio Paestum,65025,28624.401,2079441
65050,Eboli,SA1A139001,"SCUOLA DELL'INFANZIA NON STATALE ""FAVOLANDIA ""(ASSOCIAZIONE)",VIA VITTORIO VENETO N.RI 51 E 53,40.616873071744,15.058319566272,13398,40.424407,15.080854,town,Capaccio Paestum,65025,29112.173,2110653
65003,Albanella,SAAA88701X,ALBANELLA CAP.,VIA MARCONI,40.479425060345,15.114539909019,13398,40.424407,15.080854,town,Capaccio Paestum,65025,12942.842,1187948
65003,Albanella,SAAA887032,S.CESAREO,VIA SAN CESAREO,40.50256132968,15.042199043108,13398,40.424407,15.080854,town,Capaccio Paestum,65025,13422.354,1100354
65003,Albanella,SA1AC4500R,Il Mondo dei Bimbi,Via Roma 118,40.477729989438,15.115799966788,13398,40.424407,15.080854,town,Capaccio Paestum,65025,13028.949,1188802
65003,Albanella,SA1A02800N,SCUOLA DELL'INFAN. NON STATALE MARIA IMMACOLATA (ENTE REL.),CORSO VITTORIO VENETO 26,40.479802681699,15.115811579744,13398,40.424407,15.080854,town,Capaccio Paestum,65025,13219.666,1204027
65152,Trentinara,SAAA8AY06P,TRENTINARA CAP.,VIA TRIESTE,40.400434991066,15.111960007396,13398,40.424407,15.080854,town,Capaccio Paestum,65025,5679.154,484525
65106,Roccadaspide,SAAA8AH03G,SERRA,Non Disponibile,40.44187,15.158679551,13398,40.424407,15.080854,town,Capaccio Paestum,65025,16422.616,1230306
65106,Roccadaspide,SAAA8AH02E,ROCCADASPIDE CAPOLUOGO,LARGO FRATELLI DEL GIUDICE,40.427157801731,15.190913449892,13398,40.424407,15.080854,town,Capaccio Paestum,65025,20445.418,1450680
65106,Roccadaspide,SAAA8AH04L,DOGLIE,Non Disponibile,40.44187,15.158679551,13398,40.424407,15.080854,town,Capaccio Paestum,65025,16422.616,1230306
65106,Roccadaspide,SAAA8AH01D,FONTE,Non Disponibile,40.44187,15.158679551,13398,40.424407,15.080854,town,Capaccio Paestum,65025,16422.616,1230306
65058,Giungano,SAAA8AT01A,GIUNGANO CAP.,VIA G.BRUNO,40.393617884259,15.109332679059,13398,40.424407,15.080854,town,Capaccio Paestum,65025,10635.874,816659
65042,Cicerale,SAAA83204V,"CICERALE - ""MONTECICERALE""",VIA ROMA,40.345759421233,15.094851980148,13398,40.424407,15.080854,town,Capaccio Paestum,65025,13362.672,1515739
65025,Capaccio Paestum,SAAA8AZ02A,CAPACCIO-SCALO,VIALE DELLA REPUBBLICA,40.454576827607,14.988181654669,13398,40.424407,15.080854,town,Capaccio Paestum,65025,10675.176,852742
65025,Capaccio Paestum,SAAA8AY01D,SCIGLIATI,VIA SCIGLIATI 101,40.476874300602,15.062562387548,13398,40.424407,15.080854,town,Capaccio Paestum,65025,8453.853,729608
65025,Capaccio Paestum,SAAA8AY03G,CAPACCIO,VIA F.LLI ARENELLA 29,40.421590013626,15.087120027788,13398,40.424407,15.080854,town,Capaccio Paestum,65025,636.334,49069
65025,Capaccio Paestum,SAAA8AY05N,RIONE SPINAZZO,VIA DEGLI ULIVI 15/B,40.408610007916,15.027190006816,13398,40.424407,15.080854,town,Capaccio Paestum,65025,8006.181,683377
65025,Capaccio Paestum,SAAA8AZ019,PRECUIALI,VIA BARIZZO FOCE SELE,40.473675407121,14.954295692773,13398,40.424407,15.080854,town,Capaccio Paestum,65025,15619.041,1165738
65025,Capaccio Paestum,SAAA8AY04L,BORGO NUOVO,VIA A. B. NOBEL N? 06,40.440781074756,15.016056948697,13398,40.424407,15.080854,town,Capaccio Paestum,65025,9061.952,630607
65025,Capaccio Paestum,SAAA8AZ03B,LICINELLA INFANZIA,VIA TORRE DI MARE,40.415098027965,14.990134632597,13398,40.424407,15.080854,town,Capaccio Paestum,65025,12422.89,921832
65025,Capaccio Paestum,SAAA8AY02E,RETTIFILO-VANNULO,VIA GALILEO GALILEI,40.451720925761,15.023926021442,13398,40.424407,15.080854,town,Capaccio Paestum,65025,7718.228,661631
65025,Capaccio Paestum,SA1A04400G,SCUOLA DELL'INFAN NON STAT. RICCIARDI BELLELLI (ENTE REL.),LOCALITA' PONTE BARIZZO VIA STAZIONE ALBANELLA 12,40.491139986781,15.012870028155,13398,40.424407,15.080854,town,Capaccio Paestum,65025,12664.484,984424
65025,Capaccio Paestum,SA1AQF500G,HAKUNA MATATA,VAIALE DELLE ORTENSIE N. 3,40.455250018488,14.972960015281,13398,40.424407,15.080854,town,Capaccio Paestum,65025,12493.522,977491
65025,Capaccio Paestum,SA1A137009,"SCUOLA DELL'INF.PARITARIA ""S:VENERE""S.A.S DI GIOVANNI SALATI IANNITTI &C",VIA MAGNA GRECIA 644,40.408840007339,15.012929958763,13398,40.424407,15.080854,town,Capaccio Paestum,65025,9647.966,717770
65025,Capaccio Paestum,SA1A04300Q,"SCUOLA DELL'INFANZIA NON STATALE""IL GIROTONDO""(ASSOCIAZIONE)",VIA FORNILLI 62,40.451859999658,15.006559963807,13398,40.424407,15.080854,town,Capaccio Paestum,65025,9559.6,779697
65002,Agropoli,SAAA8A4027,BIVIO MATTINE,VIA MATTINE,40.387365874188,15.02706100712,13399,40.4552379,15.0086599,suburb,Capaccio Paestum,65025,8690.171,561976
65002,Agropoli,SAAA099039,AGROPOLI - CENTRO,CORSO EUROPA,40.350616439519,14.991610188118,13399,40.4552379,15.0086599,suburb,Capaccio Paestum,65025,14332.361,1200291
65002,Agropoli,SAAA8A406B,S.MARCO - VIA G.VERGA,VIA VERGA SNC,40.357150116781,14.999442657785,13399,40.4552379,15.0086599,suburb,Capaccio Paestum,65025,12837.999,999177
65002,Agropoli,SAAA8A4016,MADONNA DEL CARMINE,VIA CANNETIELLO,40.329927125154,15.015151342339,13399,40.4552379,15.0086599,suburb,Capaccio Paestum,65025,16518.711,1257451
65002,Agropoli,SAAA8A4038,S.MARCO VIA G. SELVI,VIA P. G. SELVI,40.355893392393,15.001533675515,13399,40.4552379,15.0086599,suburb,Capaccio Paestum,65025,12903.286,988653
65002,Agropoli,SAAA099017,A. MOZZILLO,PIAZZA GORGA,40.349892767,15.001,13399,40.4552379,15.0086599,suburb,Capaccio Paestum,65025,13622.879,1069922
65002,Agropoli,SAAA099028,A.CAFARELLI,VIA ISCALONGA,40.337320384783,14.985937674389,13399,40.4552379,15.0086599,suburb,Capaccio Paestum,65025,16244.262,1314856
65002,Agropoli,SA1A025006,"SCUOLA DELL'INFANZIA ""BABYLANDIA"" COOP. SOCIALE",VIA MASCAGNI 7,40.345789990549,14.993219997265,13399,40.4552379,15.0086599,suburb,Capaccio Paestum,65025,14472.308,1220920
65002,Agropoli,SA1AET500Q,BABY DISNEY,Via Toscanini n. 10,40.346249989395,14.992999972307,13399,40.4552379,15.0086599,suburb,Capaccio Paestum,65025,14412.135,1212572
65002,Agropoli,SA1ATF500D,Il Tempo di Gea,Via Madonna del Carmine 99-103,40.334505506782,15.014928541212,13399,40.4552379,15.0086599,suburb,Capaccio Paestum,65025,15887.615,1174978
65050,Eboli,SAAA05301T,CASARSA,C.DA CASARSA,40.602084457257,15.095735868615,13399,40.4552379,15.0086599,suburb,Capaccio Paestum,65025,21757.317,1545811
65050,Eboli,SAAA88901G,AGATINO ARIA,VIA PAOLO MASILLO 5,40.614809980902,15.055039969764,13399,40.4552379,15.0086599,suburb,Capaccio Paestum,65025,20588.012,1435679
65050,Eboli,SAAA8BG029,PATERNO,VIA CADUTI DI BRUXELLES,40.61454188877,15.048421287516,13399,40.4552379,15.0086599,suburb,Capaccio Paestum,65025,20400.717,1431734
65050,Eboli,SAAA819019,S. CECILIA,VIA F.LLI CIANCO SNC,40.566670001,14.999918727,13399,40.4552379,15.0086599,suburb,Capaccio Paestum,65025,14231.284,969776
65050,Eboli,SAAA05302V,COSIMO LONGOBARDI,VIA S. PERTINI,40.614544241389,15.071114684084,13399,40.4552379,15.0086599,suburb,Capaccio Paestum,65025,22116.011,1534690
65050,Eboli,SAAA81902A,CIOFFI,VIA CIOFFI,40.551184960803,14.973039689166,13399,40.4552379,15.0086599,suburb,Capaccio Paestum,65025,12911.223,880696
65050,Eboli,SAAA8BG018,PENDINO,VIA SALITA RIPA,40.620264516222,15.05374786305,13399,40.4552379,15.0086599,suburb,Capaccio Paestum,65025,21100.348,1456710
65050,Eboli,SAAA852022,SAN FRANCESCO,VIA V. VENETO 42,40.616739997927,15.058080002227,13399,40.4552379,15.0086599,suburb,Capaccio Paestum,65025,21008.481,1454433
65050,Eboli,SAAA852011,CEFFATO MOLINELLO,LOC CEFFATO MOLINELLO,40.616244058631,15.06062109226,13399,40.4552379,15.0086599,suburb,Capaccio Paestum,65025,21070.278,1454386
65050,Eboli,SAAA053074,PEZZA PACIANA,PIAZZA DELLA REPUBBLICA,40.617000503713,15.056398288485,13399,40.4552379,15.0086599,suburb,Capaccio Paestum,65025,20951.758,1471087
65050,Eboli,SA1A055002,SCUOLA DELL'INFAN. NON STATALE PICCOLO MONDO (ASSACIAZIONE),VIA CEFALONIA N.1,40.613969988476,15.055399972506,13399,40.4552379,15.0086599,suburb,Capaccio Paestum,65025,20543.925,1426007
65050,Eboli,SA1A139001,"SCUOLA DELL'INFANZIA NON STATALE ""FAVOLANDIA ""(ASSOCIAZIONE)",VIA VITTORIO VENETO N.RI 51 E 53,40.616873071744,15.058319566272,13399,40.4552379,15.0086599,suburb,Capaccio Paestum,65025,21031.697,1457219
65003,Albanella,SAAA88701X,ALBANELLA CAP.,VIA MARCONI,40.479425060345,15.114539909019,13399,40.4552379,15.0086599,suburb,Capaccio Paestum,65025,11436.23,884945
65003,Albanella,SAAA887032,S.CESAREO,VIA SAN CESAREO,40.50256132968,15.042199043108,13399,40.4552379,15.0086599,suburb,Capaccio Paestum,65025,7432.667,552003
65003,Albanella,SA1AC4500R,Il Mondo dei Bimbi,Via Roma 118,40.477729989438,15.115799966788,13399,40.4552379,15.0086599,suburb,Capaccio Paestum,65025,11522.337,885799
65003,Albanella,SA1A02800N,SCUOLA DELL'INFAN. NON STATALE MARIA IMMACOLATA (ENTE REL.),CORSO VITTORIO VENETO 26,40.479802681699,15.115811579744,13399,40.4552379,15.0086599,suburb,Capaccio Paestum,65025,11713.055,901024
65152,Trentinara,SAAA8AY06P,TRENTINARA CAP.,VIA TRIESTE,40.400434991066,15.111960007396,13399,40.4552379,15.0086599,suburb,Capaccio Paestum,65025,14576.466,1202630
65106,Roccadaspide,SAAA8AH03G,SERRA,Non Disponibile,40.44187,15.158679551,13399,40.4552379,15.0086599,suburb,Capaccio Paestum,65025,14916.005,927303
65106,Roccadaspide,SAAA8AH02E,ROCCADASPIDE CAPOLUOGO,LARGO FRATELLI DEL GIUDICE,40.427157801731,15.190913449892,13399,40.4552379,15.0086599,suburb,Capaccio Paestum,65025,18938.807,1147677
65106,Roccadaspide,SAAA8AH04L,DOGLIE,Non Disponibile,40.44187,15.158679551,13399,40.4552379,15.0086599,suburb,Capaccio Paestum,65025,14916.005,927303
65106,Roccadaspide,SAAA8AH01D,FONTE,Non Disponibile,40.44187,15.158679551,13399,40.4552379,15.0086599,suburb,Capaccio Paestum,65025,14916.005,927303
65058,Giungano,SAAA8AT01A,GIUNGANO CAP.,VIA G.BRUNO,40.393617884259,15.109332679059,13399,40.4552379,15.0086599,suburb,Capaccio Paestum,65025,16600.909,1157971
65042,Cicerale,SAAA83204V,"CICERALE - ""MONTECICERALE""",VIA ROMA,40.345759421233,15.094851980148,13399,40.4552379,15.0086599,suburb,Capaccio Paestum,65025,18580.248,1510701
65025,Capaccio Paestum,SAAA8AZ02A,CAPACCIO-SCALO,VIALE DELLA REPUBBLICA,40.454576827607,14.988181654669,13399,40.4552379,15.0086599,suburb,Capaccio Paestum,65025,1736.285,129568
65025,Capaccio Paestum,SAAA8AY01D,SCIGLIATI,VIA SCIGLIATI 101,40.476874300602,15.062562387548,13399,40.4552379,15.0086599,suburb,Capaccio Paestum,65025,6947.241,426605
65025,Capaccio Paestum,SAAA8AY03G,CAPACCIO,VIA F.LLI ARENELLA 29,40.421590013626,15.087120027788,13399,40.4552379,15.0086599,suburb,Capaccio Paestum,65025,9533.646,767174
65025,Capaccio Paestum,SAAA8AY05N,RIONE SPINAZZO,VIA DEGLI ULIVI 15/B,40.408610007916,15.027190006816,13399,40.4552379,15.0086599,suburb,Capaccio Paestum,65025,6610.215,445947
65025,Capaccio Paestum,SAAA8AZ019,PRECUIALI,VIA BARIZZO FOCE SELE,40.473675407121,14.954295692773,13399,40.4552379,15.0086599,suburb,Capaccio Paestum,65025,6680.15,442564
65025,Capaccio Paestum,SAAA8AY04L,BORGO NUOVO,VIA A. B. NOBEL N? 06,40.440781074756,15.016056948697,13399,40.4552379,15.0086599,suburb,Capaccio Paestum,65025,2831.873,185906
65025,Capaccio Paestum,SAAA8AZ03B,LICINELLA INFANZIA,VIA TORRE DI MARE,40.415098027965,14.990134632597,13399,40.4552379,15.0086599,suburb,Capaccio Paestum,65025,7362.291,485953
65025,Capaccio Paestum,SAAA8AY02E,RETTIFILO-VANNULO,VIA GALILEO GALILEI,40.451720925761,15.023926021442,13399,40.4552379,15.0086599,suburb,Capaccio Paestum,65025,1627.443,110278
65025,Capaccio Paestum,SA1A04400G,SCUOLA DELL'INFAN NON STAT. RICCIARDI BELLELLI (ENTE REL.),LOCALITA' PONTE BARIZZO VIA STAZIONE ALBANELLA 12,40.491139986781,15.012870028155,13399,40.4552379,15.0086599,suburb,Capaccio Paestum,65025,4584.008,330990
65025,Capaccio Paestum,SA1AQF500G,HAKUNA MATATA,VAIALE DELLE ORTENSIE N. 3,40.455250018488,14.972960015281,13399,40.4552379,15.0086599,suburb,Capaccio Paestum,65025,3554.631,254317
65025,Capaccio Paestum,SA1A137009,"SCUOLA DELL'INF.PARITARIA ""S:VENERE""S.A.S DI GIOVANNI SALATI IANNITTI &C",VIA MAGNA GRECIA 644,40.408840007339,15.012929958763,13399,40.4552379,15.0086599,suburb,Capaccio Paestum,65025,6988.046,425931
65025,Capaccio Paestum,SA1A04300Q,"SCUOLA DELL'INFANZIA NON STATALE""IL GIROTONDO""(ASSOCIAZIONE)",VIA FORNILLI 62,40.451859999658,15.006559963807,13399,40.4552379,15.0086599,suburb,Capaccio Paestum,65025,857.247,95930
65050,Eboli,SAAA05301T,CASARSA,C.DA CASARSA,40.602084457257,15.095735868615,13409,40.6092539,14.9821443,town,Battipaglia,65014,12004.958,774512
65050,Eboli,SAAA88901G,AGATINO ARIA,VIA PAOLO MASILLO 5,40.614809980902,15.055039969764,13409,40.6092539,14.9821443,town,Battipaglia,65014,7464.779,480226
65050,Eboli,SAAA8BG029,PATERNO,VIA CADUTI DI BRUXELLES,40.61454188877,15.048421287516,13409,40.6092539,14.9821443,town,Battipaglia,65014,7145.608,484077
65050,Eboli,SAAA819019,S. CECILIA,VIA F.LLI CIANCO SNC,40.566670001,14.999918727,13409,40.6092539,14.9821443,town,Battipaglia,65014,6398.337,468452
65050,Eboli,SAAA05302V,COSIMO LONGOBARDI,VIA S. PERTINI,40.614544241389,15.071114684084,13409,40.6092539,14.9821443,town,Battipaglia,65014,9171.082,607351
65050,Eboli,SAAA81902A,CIOFFI,VIA CIOFFI,40.551184960803,14.973039689166,13409,40.6092539,14.9821443,town,Battipaglia,65014,8482.213,567892
65050,Eboli,SAAA8BG018,PENDINO,VIA SALITA RIPA,40.620264516222,15.05374786305,13409,40.6092539,14.9821443,town,Battipaglia,65014,7845.239,509053
65050,Eboli,SAAA852022,SAN FRANCESCO,VIA V. VENETO 42,40.616739997927,15.058080002227,13409,40.6092539,14.9821443,town,Battipaglia,65014,7885.248,498980
65050,Eboli,SAAA852011,CEFFATO MOLINELLO,LOC CEFFATO MOLINELLO,40.616244058631,15.06062109226,13409,40.6092539,14.9821443,town,Battipaglia,65014,7947.045,498933
65050,Eboli,SAAA053074,PEZZA PACIANA,PIAZZA DELLA REPUBBLICA,40.617000503713,15.056398288485,13409,40.6092539,14.9821443,town,Battipaglia,65014,7828.524,515634
65050,Eboli,SA1A055002,SCUOLA DELL'INFAN. NON STATALE PICCOLO MONDO (ASSACIAZIONE),VIA CEFALONIA N.1,40.613969988476,15.055399972506,13409,40.6092539,14.9821443,town,Battipaglia,65014,7420.691,470554
65050,Eboli,SA1A139001,"SCUOLA DELL'INFANZIA NON STATALE ""FAVOLANDIA ""(ASSOCIAZIONE)",VIA VITTORIO VENETO N.RI 51 E 53,40.616873071744,15.058319566272,13409,40.6092539,14.9821443,town,Battipaglia,65014,7908.464,501766
65099,Pontecagnano Faiano,SAAA8BK037,GIANNI RODARI,VIA MAR MEDITERRANEO,40.627148479359,14.853283528413,13409,40.6092539,14.9821443,town,Battipaglia,65014,13072.768,1014226
65099,Pontecagnano Faiano,SAAA8BK026,AQUILONE,VIA CALABRIA,40.643530006354,14.876199995576,13409,40.6092539,14.9821443,town,Battipaglia,65014,10162.335,667004
65099,Pontecagnano Faiano,SAAA895097,S. ANTONIO I PLESSO V.PALINURO,VIA PALINURO,40.642858405464,14.891731691818,13409,40.6092539,14.9821443,town,Battipaglia,65014,9338.632,644611
65099,Pontecagnano Faiano,SAAA895064,ARCOBALENO,VIA DANTE ALIGHIERI 6,40.64555999853,14.872350019809,13409,40.6092539,14.9821443,town,Battipaglia,65014,10558.521,683374
65099,Pontecagnano Faiano,SAAA88801Q,FAIANO,VIA DEGLI APPENNINI,40.663099878968,14.900263958962,13409,40.6092539,14.9821443,town,Battipaglia,65014,11936.825,820612
65099,Pontecagnano Faiano,SAAA88802R,BARONCINO,VIA PIAVE,40.655763808852,14.90798895549,13409,40.6092539,14.9821443,town,Battipaglia,65014,11022.688,754206
65099,Pontecagnano Faiano,SAAA895042,CAMPO SPORTIVO INFANZIA,VIA LUCANIA,40.63983952837,14.879729576637,13409,40.6092539,14.9821443,town,Battipaglia,65014,9861.498,656847
65099,Pontecagnano Faiano,SAAA895086,SORRISO DI BIMBI,VIA DANTE6,40.64555999853,14.872350019809,13409,40.6092539,14.9821443,town,Battipaglia,65014,10558.521,683374
65099,Pontecagnano Faiano,SAAA888061,PICCIOLA,VIA LAGO LACENO,40.606012620019,14.881218421792,13409,40.6092539,14.9821443,town,Battipaglia,65014,10569.218,748869
65099,Pontecagnano Faiano,SAAA8BK015,RAGGIO DI SOLE,VIA LIGURIA,40.641428025429,14.875154036379,13409,40.6092539,14.9821443,town,Battipaglia,65014,10334.867,687708
65099,Pontecagnano Faiano,SA1A12600V,SCUOLA INF. NON STAT. GIARDINO D'INFANZIA ( IMP. SOC.),VIA PONTI ROTTI,40.639945658176,14.89720171579,13409,40.6092539,14.9821443,town,Battipaglia,65014,8689.874,597910
65099,Pontecagnano Faiano,SA1A004005,"SCUOLA DELL'INFANZIA NON STAT.""MARIASS IMMACOLATA""(IMP.SOC.)",VIA TEVERE,40.647070030431,14.872020059231,13409,40.6092539,14.9821443,town,Battipaglia,65014,10636.283,686629
65099,Pontecagnano Faiano,SA1A12300B,"SCUOLA DELL'INFANZIA NON STATALE ""LO SCARABOCCHIO""COOP.SOC.",VIA FIRENZE15,40.640279986262,14.88076000236,13409,40.6092539,14.9821443,town,Battipaglia,65014,9727.787,643690
65099,Pontecagnano Faiano,SA1A195009,"SCUOLA DELL'INF.NON STAT.""COCCOLE E BALOCCHI"" S.A.S.",VIA PICENTIA 21,40.640439996794,14.884600003662,13409,40.6092539,14.9821443,town,Battipaglia,65014,9292.062,608541
65158,Bellizzi,SAAA8AX02P,VIA NAPOLI,VIA NAPOLI,40.620715700865,14.953544607073,13409,40.6092539,14.9821443,town,Battipaglia,65014,3144.0,235729
65158,Bellizzi,SAAA8AX03Q,RIONE PARISI,RIONE PARISI,40.623279998835,14.952229976166,13409,40.6092539,14.9821443,town,Battipaglia,65014,3498.877,278313
65158,Bellizzi,SAAA8AX01N,VIA COLOMBO,VIA COLOMBO,40.619840848572,14.943758835331,13409,40.6092539,14.9821443,town,Battipaglia,65014,3764.026,292409
65158,Bellizzi,SAAA8AX04R,TORRE LAMA,VIA E.GIANTURCO,40.62222845134,14.9361201002,13409,40.6092539,14.9821443,town,Battipaglia,65014,4418.506,342447
65158,Bellizzi,SA1AFN500I,Il Giardino dell'Infanzia,Via G. Mazzini 67,40.620879987544,14.942749959856,13409,40.6092539,14.9821443,town,Battipaglia,65014,3826.285,297766
65158,Bellizzi,SA1A03700C,SCUOLA DELL'INFANZIA NON STATALE SAN GIUSEPPE (ENTE REL.),VIA ROMA 284,40.620306490611,14.946865313918,13409,40.6092539,14.9821443,town,Battipaglia,65014,3408.38,253674
65158,Bellizzi,SA1A038008,SCUOLA DELL'INFANZIA NON STAT IL PICCOLO MONDO (COOP MUT.PR),VIA CAMPO EMINENTE 2,40.616930015672,14.937289988127,13409,40.6092539,14.9821443,town,Battipaglia,65014,4570.285,389162
65073,Montecorvino Rovella,SAAA8B3011,S.EUSTACHIO,Non Disponibile,40.684166091,14.97992,13409,40.6092539,14.9821443,town,Battipaglia,65014,9270.759,629030
65073,Montecorvino Rovella,SAAA8B3022,GAURO,VIALE DELLA REPUBBLICA,40.695410864522,14.979579793723,13409,40.6092539,14.9821443,town,Battipaglia,65014,10935.51,760084
65073,Montecorvino Rovella,SAAA8B3033,CORSO UMBERTO I,CORSO UMBERTO I,40.696702096784,14.975852098234,13409,40.6092539,14.9821443,town,Battipaglia,65014,10992.49,749909
65073,Montecorvino Rovella,SAAA8B3044,IACOVINO,VIA G. ALMIRANTE,40.69188398083,14.976592769256,13409,40.6092539,14.9821443,town,Battipaglia,65014,10603.628,748677
65073,Montecorvino Rovella,SAAA8B3077,S.MARTINO,C.SO VITTORIO EMANUELE,40.681455341159,14.980768722827,13409,40.6092539,14.9821443,town,Battipaglia,65014,8964.273,610641
65073,Montecorvino Rovella,SAAA8B3055,"""ANNUNZIATA BASSI ROMANO""",CORSO UMBERTO I,40.696702096784,14.975852098234,13409,40.6092539,14.9821443,town,Battipaglia,65014,10992.49,749909
65073,Montecorvino Rovella,SAAA8B3066,MACCHIA,VIA MASACCIO,40.654947410124,14.984784165584,13409,40.6092539,14.9821443,town,Battipaglia,65014,6313.926,470525
65082,Olevano sul Tusciano,SAAA864017,ARIANO,VIA MAZZINI20,40.658310004817,15.020249958625,13409,40.6092539,14.9821443,town,Battipaglia,65014,7543.673,560964
65082,Olevano sul Tusciano,SAAA864028,SALITTO,VIA CROCE,40.672912108667,15.021646302627,13409,40.6092539,14.9821443,town,Battipaglia,65014,9182.483,757482
65082,Olevano sul Tusciano,SAAA864039,MONTICELLI,Non Disponibile,40.66193,15.029404691,13409,40.6092539,14.9821443,town,Battipaglia,65014,8297.414,763949
65014,Battipaglia,SAAA83801P,VIA ROSARIO,PREFABB.VIA STELLA,40.608945571807,14.977952642377,13409,40.6092539,14.9821443,town,Battipaglia,65014,457.157,46947
65014,Battipaglia,SAAA83903L,VIA JEMMA,VIA SALVATOR ROSA,40.602173149213,14.977181025497,13409,40.6092539,14.9821443,town,Battipaglia,65014,1300.04,94997
65014,Battipaglia,SAAA83901E,TAVERNA VINCI,VIA L. DA VINCI,40.591364884961,14.984408528624,13409,40.6092539,14.9821443,town,Battipaglia,65014,2273.754,148720
65014,Battipaglia,SAAA8AS02G,VIALE DELLA LIBERTA',VIA ETRURIA,40.607456384692,14.996428957331,13409,40.6092539,14.9821443,town,Battipaglia,65014,1947.01,192711
65014,Battipaglia,SAAA83802Q,BELVEDERE - VIA MAGELLANO,VIA MAGELLANO,40.6156661772,14.959588306181,13409,40.6092539,14.9821443,town,Battipaglia,65014,2280.719,163969
65014,Battipaglia,SAAA8AS01E,VIA POLIZIANO,VIA POLIZIANO,40.609206174472,14.990419529299,13409,40.6092539,14.9821443,town,Battipaglia,65014,1216.83,117312
65014,Battipaglia,SAAA8AD027,SERRONI ALTO,VIA SERRONI ALTO,40.614350003011,14.978899976694,13409,40.6092539,14.9821443,town,Battipaglia,65014,794.856,72212
65014,Battipaglia,SAAA8AD016,SERRONI INA CASA,V.LAZIO,40.614506828814,14.980266257218,13409,40.6092539,14.9821443,town,Battipaglia,65014,797.473,72847
65014,Battipaglia,SAAA8AE023,GIOVANNI XXIII,VIA DANTE ALIGHIERI,40.610589271597,14.98342685552,13409,40.6092539,14.9821443,town,Battipaglia,65014,582.527,62152
65014,Battipaglia,SAAA8AS03L,BATTIPAGLIA CAP. ED. DE AMICIS,VIA RAVENNA,40.615707008289,14.987345044016,13409,40.6092539,14.9821443,town,Battipaglia,65014,1153.139,101654
65014,Battipaglia,SAAA83902G,"BATTIPAGLIA ""S.LUCIA""- AVERSANA",VIA AVERSANA,40.555234907098,14.925684140052,13409,40.6092539,14.9821443,town,Battipaglia,65014,9509.273,651365
65014,Battipaglia,SAAA8AE012,FIORENTINO,VIA ETRURIA,40.607456384692,14.996428957331,13409,40.6092539,14.9821443,town,Battipaglia,65014,1947.01,192711
65014,Battipaglia,SA1ALU500R,IL SEGRETO DELL'INFANZIA,via B. Ricasoli n. 75,40.616729981553,14.974330037355,13409,40.6092539,14.9821443,town,Battipaglia,65014,1549.879,122150
65014,Battipaglia,SA1AI45007,CENTRO PER L'INFANZIA GIOCONDA ROSSINI S.A.S,VIA MONSIGNOR ANIELLO VICINANZA 6,40.619449992953,14.963380002865,13409,40.6092539,14.9821443,town,Battipaglia,65014,2562.164,243845
65014,Battipaglia,SA1A034001,SCUOLA DELL' INFANZ.NON STAT. S. G. BOSCO (ASSOCIAZIONE),"VIA ROSA JEMMA 2 ""CENTRO DIREZIONALE""",40.605180196748,14.981449819507,13409,40.6092539,14.9821443,town,Battipaglia,65014,508.972,35656
65086,Ottati,SAAA8BM107,OTTATI,VIA P.AQUARO N? 46,40.463119996927,15.312679975905,13408,40.423309,15.314159,village,Bellosguardo,65015,10511.206,1517929
65008,Aquara,SAAA8BM095,AQUARA,VIALE DELLA VITTORIA,40.442763917727,15.256128310833,13408,40.423309,15.314159,village,Bellosguardo,65015,10356.519,912316
65111,Roscigno,SAAA8AH06P,ROSCIGNO CAP.,VIA IV NOVEMBRE S.N.C.,40.401836214378,15.34671212872,13408,40.423309,15.314159,village,Bellosguardo,65015,5458.671,395786
65061,Laurino,SAAA830036,LAURINO CAP.,VIA TEATRO,40.33793162028,15.336252646425,13408,40.423309,15.314159,village,Bellosguardo,65015,16862.631,1107387
65051,Felitto,SAAA830014,FELITTO,VIA INSORTI UNGHERESI S.N.C.,40.370877396096,15.247857089356,13408,40.423309,15.314159,village,Bellosguardo,65015,11492.76,1137726
65015,Bellosguardo,SAAA829021,BELLOSGUARDO CAP.,VIA CARLO MARMO S.N.C.,40.421782708292,15.30784518261,13408,40.423309,15.314159,village,Bellosguardo,65015,651.07,62306
65037,Cava de' Tirreni,SAAA8B2037,ANNUNZIATA,VIA V.GALISE,40.708063708431,14.723346387306,13215,40.7469385,14.7699874,town,Baronissi,65013,12537.263,948363
65037,Cava de' Tirreni,SAAA8A104T,"CAVA DE' TIRRENI ""DELLA CORTE""",VIA DELLA CORTE,40.702789024348,14.703974088465,13215,40.7469385,14.7699874,town,Baronissi,65013,14788.666,1116079
65037,Cava de' Tirreni,SAAA8A102Q,S.ARCANGELO,VIA IDO LONGO,40.699444865014,14.695355584211,13215,40.7469385,14.7699874,town,Baronissi,65013,15778.789,1204150
65037,Cava de' Tirreni,SAAA8B001D,"""DON BOSCO""",C.SO MAZZINI 10,40.704250000745,14.704999958493,13215,40.7469385,14.7699874,town,Baronissi,65013,14954.077,1125609
65037,Cava de' Tirreni,SAAA8A103R,"""CASTAGNETO""",VIA P. CRAVER,40.68800243635,14.713618092649,13215,40.7469385,14.7699874,town,Baronissi,65013,16979.807,969752
65037,Cava de' Tirreni,SAAA8B002E,"""PISAPIA""",VIA ADINOLFI,40.708223682687,14.724291625074,13215,40.7469385,14.7699874,town,Baronissi,65013,12380.087,933785
65037,Cava de' Tirreni,SAAA8BZ021,"""MAMMA LUCIA""",VIA FILANGIERI,40.703837076351,14.696403356941,13215,40.7469385,14.7699874,town,Baronissi,65013,15536.217,1167468
65037,Cava de' Tirreni,SAAA8BZ01X,S.MARIA DEL ROVO,VIA S. MARIA DEL ROVO,40.707749526163,14.694770102748,13215,40.7469385,14.7699874,town,Baronissi,65013,15945.49,1196933
65037,Cava de' Tirreni,SAAA8B103B,S. LUCIA INFANZIA,VIA G.VITALE,40.72108357442,14.700208387356,13215,40.7469385,14.7699874,town,Baronissi,65013,9812.678,1581660
65037,Cava de' Tirreni,SAAA8B102A,S. GIUSEPPE,VIA XXV LUGLIO 222,40.716609997077,14.701000030479,13215,40.7469385,14.7699874,town,Baronissi,65013,9870.636,1583989
65037,Cava de' Tirreni,SAAA8B1019,EPITAFFIO,VIA G. GUARINO,40.71218,14.700133748,13215,40.7469385,14.7699874,town,Baronissi,65013,15808.336,1196288
65037,Cava de' Tirreni,SAAA8B206A,S.NICOLA,VIA A.SALSANO,40.709750240199,14.711583505205,13215,40.7469385,14.7699874,town,Baronissi,65013,14388.137,1061703
65037,Cava de' Tirreni,SAAA8B207B,"CAVA - ""S. LAMBERTI"" PREGIATO",VIA A.CASABURI,40.714539759033,14.71304026696,13215,40.7469385,14.7699874,town,Baronissi,65013,8909.719,1509260
65037,Cava de' Tirreni,SAAA8B2048,S. PIETRO,VIA N.LONGOBARDI,40.70580525376,14.721075772735,13215,40.7469385,14.7699874,town,Baronissi,65013,12705.904,942532
65037,Cava de' Tirreni,SAAA8A302B,CORSO UMBERTO,CORSO ITALIA,40.71218,14.700133748,13215,40.7469385,14.7699874,town,Baronissi,65013,15808.336,1196288
65037,Cava de' Tirreni,SAAA8A303C,VIA CARILLO,VIA CARILLO,40.70187294448,14.711280875943,13215,40.7469385,14.7699874,town,Baronissi,65013,13794.239,1024095
65037,Cava de' Tirreni,SAAA8A301A,S.LORENZO -CASA APICELLA-,VIA CARLO SANTORO,40.701320173486,14.712490521525,13215,40.7469385,14.7699874,town,Baronissi,65013,13631.942,1011111
65037,Cava de' Tirreni,SAAA8B2015,S. ANNA A SCARICO,VIA P. DI DOMENICO,40.737362276057,14.70877397716,13215,40.7469385,14.7699874,town,Baronissi,65013,8203.745,1442413
65037,Cava de' Tirreni,SAAA8B208C,CAVA DE' TIRRENI - DUPINO,VIA G. SIANI,40.695383311691,14.72385745608,13215,40.7469385,14.7699874,town,Baronissi,65013,14407.46,1054691
65037,Cava de' Tirreni,SAAA8B2059,SCUOLA SPECIALE,VIA MARGHERI 20,40.694829998861,14.720300033093,13215,40.7469385,14.7699874,town,Baronissi,65013,13912.395,1019047
65037,Cava de' Tirreni,SAAA8A105V,SAN CESAREO,VIA FRANCESCO VECCHIONE,40.68689817087,14.707947400448,13215,40.7469385,14.7699874,town,Baronissi,65013,17204.908,982446
65037,Cava de' Tirreni,SA1A05000V,SCUOLA DELL'INF. NON ST.. N SIGNORA DEL S.ROSARIO (ENT REL.),VIA SALVO D'ACQUISTO N. 3,40.707910000676,14.699660015618,13215,40.7469385,14.7699874,town,Baronissi,65013,15518.406,1166183
65037,Cava de' Tirreni,SA1A05200E,SCUOLA DELL'INFANZIA NON STAT. RAFFAELE BALDI( ENTE REL.),PIAZZA F. BALDI ex via Valle snc,40.730381851968,14.701198743278,13215,40.7469385,14.7699874,town,Baronissi,65013,8673.725,1500647
65037,Cava de' Tirreni,SA1A8N500C,ASILO PICCOLI PASSI,VIA MAGGIORE P. FORMOSA 9,40.698270015744,14.702480023123,13215,40.7469385,14.7699874,town,Baronissi,65013,15504.041,1172231
65037,Cava de' Tirreni,SA1A05100P,SCUOLA DELL'INF. NON STAT. S. MICHELE ARCANGELO( ENTE REL.),VIA P. SIANI 5,40.696459985662,14.697869976376,13215,40.7469385,14.7699874,town,Baronissi,65013,16292.726,1240981
65067,Mercato San Severino,SAAA8BJ06E,"CAMPAGNA ""FOLCATA""",VIA CAMPO SPORTIVO20,40.786969997355,14.759760021586,13215,40.7469385,14.7699874,town,Baronissi,65013,5140.205,316388
65067,Mercato San Severino,SAAA074042,PANDOLA INFANZIA,VIA DELLE PUGLIE,40.795033486807,14.759894292708,13215,40.7469385,14.7699874,town,Baronissi,65013,6173.087,377747
65067,Mercato San Severino,SAAA074031,SPIANO,PIAZZA SANTA CROCE,40.760347771741,14.752015872247,13215,40.7469385,14.7699874,town,Baronissi,65013,3008.999,613084
65067,Mercato San Severino,SAAA074097,"MERCATO S.SEVERINO -""E.COPPOLA""",VIA RIMEMBRANZA,40.784514880789,14.75301047873,13215,40.7469385,14.7699874,town,Baronissi,65013,5668.943,389228
65067,Mercato San Severino,SAAA07402X,"""E.PESCE""",VIA PIZZONE,40.792200530813,14.762710418339,13215,40.7469385,14.7699874,town,Baronissi,65013,6251.66,391709
65067,Mercato San Severino,SAAA074086,DON SALVATORE GUADAGNO,VIA MUNICIPIO,40.785960019932,14.755536174389,13215,40.7469385,14.7699874,town,Baronissi,65013,5816.537,403524
65067,Mercato San Severino,SAAA075071,COSTA INFANZIA,PIAZZA PADRE BASILIO PERGAMO 10,40.780220008819,14.723200003953,13215,40.7469385,14.7699874,town,Baronissi,65013,8210.158,534123
65067,Mercato San Severino,SAAA07501P,CARIFI,VIA CIORANI 3/3,40.78666960073,14.733946387368,13215,40.7469385,14.7699874,town,Baronissi,65013,7212.61,513987
65067,Mercato San Severino,SAAA075082,SAN VINCENZO INFANZIA,VIA SAN VINCENZO - CURTERI,40.779111934813,14.744896026294,13215,40.7469385,14.7699874,town,Baronissi,65013,6200.279,420971
65067,Mercato San Severino,SAAA07505V,SANT'ANGELO INFANZIA,VIA ELISEO 24,40.772900222046,14.732568658125,13215,40.7469385,14.7699874,town,Baronissi,65013,7584.996,532240
65067,Mercato San Severino,SAAA07506X,"""LUIGI CACCIATORI""",VIA S. ANDREA VILLANI 8,40.773048523931,14.745061106479,13215,40.7469385,14.7699874,town,Baronissi,65013,6598.965,446606
65067,Mercato San Severino,SAAA07502Q,"""S. ALFONSO M. DE LIGUORI""",VIA NOCELLETO 2,40.804319271752,14.733324623423,13215,40.7469385,14.7699874,town,Baronissi,65013,9661.042,714683
65067,Mercato San Severino,SAAA07504T,SANT'EUSTACHIO,CORSO FRANCESCO CARACCIOLO 1,40.769500015662,14.704720002927,13215,40.7469385,14.7699874,town,Baronissi,65013,10058.543,742569
65067,Mercato San Severino,SA1AO6500Q,"SCUOLA DELL'INFANZIA PARITARIA ""CRESCERE INSIEME""",Via Trieste 49,40.783170019641,14.755750035288,13215,40.7469385,14.7699874,town,Baronissi,65013,5290.666,343835
65067,Mercato San Severino,SA1A059009,"SCUOLA DELL'INFANZIA PAR.""MARIA SS DEL ROSARIO""-ENTEGEST.""PAIDEIA""SRL IMPR.SOC.",PIAZZA E. IMPERIO NÂ° 7,40.785950003558,14.753430008308,13215,40.7469385,14.7699874,town,Baronissi,65013,5830.063,408562
65052,Fisciano,SAAA89203D,"PENTA ""RINALDI CARMELA""",VIA MATTEOTTI,40.762394348939,14.791343650888,13215,40.7469385,14.7699874,town,Baronissi,65013,3433.082,227562
65052,Fisciano,SAAA89201B,"LANCUSI"" DE CARO""",VIA DON ALFONSO DE CARO,40.760771027219,14.780574300842,13215,40.7469385,14.7699874,town,Baronissi,65013,2186.238,220366
65052,Fisciano,SAAA89003T,SCUOLA INFANZIA PIZZOLANO,VIA PARCO DONICA,40.787380171604,14.787073915188,13215,40.7469385,14.7699874,town,Baronissi,65013,6759.953,507300
65052,Fisciano,SAAA890061,GAIANO,VIA SUBIA,40.753512589497,14.814079052917,13215,40.7469385,14.7699874,town,Baronissi,65013,4987.142,430809
65052,Fisciano,SAAA89004V,SCUOLA INFANZIA FISCIANO,VIA ROMA 47,40.769299981543,14.797710010222,13215,40.7469385,14.7699874,town,Baronissi,65013,4726.521,350602
65116,Salerno,SAAA8B7018,"SALERNO IV ""MARI""",PIAZZA TRUCILLO 22,40.668660159644,14.784883930606,13215,40.7469385,14.7699874,town,Baronissi,65013,10569.402,640942
65116,Salerno,SAAA8AC03C,"""PRODUTTIVITA'"" RIONE PETROSINO",RIONE PETROSINO,40.68253072558,14.778008556466,13215,40.7469385,14.7699874,town,Baronissi,65013,8802.829,549068
65116,Salerno,SAAA8AC04D,"VIA DALMAZIA ""S.DEMETRIO""",VIA DALMAZIA,40.678319584136,14.771636079134,13215,40.7469385,14.7699874,town,Baronissi,65013,8597.567,519937
65116,Salerno,SAAA8AC02B,VIA GUGLIELMINI,VIA GUGLIELMINI23,40.67946001919,14.776170027804,13215,40.7469385,14.7699874,town,Baronissi,65013,8641.541,531696
65116,Salerno,SAAA8A801D,SALERNO - EDIFICIO VICINANZA,CORSO V.EMANUELE153,40.676820013056,14.766100009329,13215,40.7469385,14.7699874,town,Baronissi,65013,9592.177,629448
65116,Salerno,SAAA8B603E,ALFONSO GATTO,VIA F. GAETA,40.664229196779,14.794096392276,13215,40.7469385,14.7699874,town,Baronissi,65013,11410.16,679994
65116,Salerno,SAAA8B601C,DON MILANI,VIA BELISARIO CORENZIO 46,40.663229072082,14.799704166298,13215,40.7469385,14.7699874,town,Baronissi,65013,11793.623,724412
65116,Salerno,SAAA8A703Q,"SC. INFANZIA ""CLEMENTE TAFURI""",SALITA MONTEVERGINE 8,40.682159997841,14.758980001676,13215,40.7469385,14.7699874,town,Baronissi,65013,9773.709,716433
65116,Salerno,SAAA89102L,FRATTE-VIA BUONSERVIZI,VIA BUONSERVIZI,40.695031385925,14.777046550871,13215,40.7469385,14.7699874,town,Baronissi,65013,6567.917,402125
65116,Salerno,SAAA81803G,GIOVI PIEGOLELLE,VIA MONTE BELLARA,40.688954923352,14.820482574757,13215,40.7469385,14.7699874,town,Baronissi,65013,11182.296,995397
65116,Salerno,SAAA81801D,S. ANGELO DI OGLIARA,VIA S.ANGELO,40.706141688073,14.813851540353,13215,40.7469385,14.7699874,town,Baronissi,65013,8494.064,713060
65116,Salerno,SAAA8A702P,"SC. INFANZIA ""N.ABBAGNANO""",VIA C. BATTISTI 1,40.682819988897,14.761279995908,13215,40.7469385,14.7699874,town,Baronissi,65013,9582.959,693542
65116,Salerno,SAAA8B501L,EDIFICIO COSTA,VIA GIACOMO COSTA,40.687080007366,14.774865401626,13215,40.7469385,14.7699874,town,Baronissi,65013,7499.327,472164
65116,Salerno,SAAA8AB04N,ARBOSTELLA,VIA WAGNER,40.654066414192,14.81518619003,13215,40.7469385,14.7699874,town,Baronissi,65013,13794.678,844480
65116,Salerno,SAAA8B401R,"SCUOLA INFANZIA ""GIANNI RODARI""",VIA LASPRO,40.68538,14.7689,13215,40.7469385,14.7699874,town,Baronissi,65013,8418.089,582414
65116,Salerno,SAAA8A603X,CARLO COLLODI,VIA SICA,40.673709682783,14.785149737656,13215,40.7469385,14.7699874,town,Baronissi,65013,10114.65,627558
65116,Salerno,SAAA8AB01E,MARICONDA VIA PASUBIO C/O SC.EL,VIA PASUBIO,40.658408543334,14.809028191234,13215,40.7469385,14.7699874,town,Baronissi,65013,12517.075,794477
65116,Salerno,SAAA8AB03L,FUORNI,VIA MONTICELLI,40.65300631998,14.84423615717,13215,40.7469385,14.7699874,town,Baronissi,65013,16051.283,956984
65116,Salerno,SAAA8B901X,INFANZIA MAZZETTI,VIA ROCCO COCCHIA 67/69,40.663979985129,14.797900027967,13215,40.7469385,14.7699874,town,Baronissi,65013,11821.1,717460
65116,Salerno,SAAA89103N,SALERNO - MATIERNO,VIALE DELLA REPUBBLICA,40.701057855339,14.785677739972,13215,40.7469385,14.7699874,town,Baronissi,65013,6428.608,446569
65116,Salerno,SAAA81804L,OGLIARA VIA POSTIGLIONE,VIA POSTIGLIONE,40.706322509412,14.806641264292,13215,40.7469385,14.7699874,town,Baronissi,65013,7608.638,669187
65116,Salerno,SAAA8AB02G,MERCATELLO,VIA PICENZA30,40.655650007844,14.809379966375,13215,40.7469385,14.7699874,town,Baronissi,65013,13491.176,813226
65116,Salerno,SAAA18201P,SC.INFANZIA ANN. CONV.NAZIONALE,PIAZZA ABATE CONFORTI 22,40.680940011833,14.758269970658,13215,40.7469385,14.7699874,town,Baronissi,65013,9699.348,707510
65116,Salerno,SAAA8A701N,SCUOLA INFANZIA G. BARRA,VIA LUNGOMARE TRIESTE 17,40.677890004906,14.754319998787,13215,40.7469385,14.7699874,town,Baronissi,65013,10374.078,642476
65116,Salerno,SAAA89104P,VIA EX GUADALUPO,VIA S.CALENDA,40.688040435888,14.771447736809,13215,40.7469385,14.7699874,town,Baronissi,65013,8349.584,574196
65116,Salerno,SAAA893039,S. EUSTACHIO,VIA GIOBERTI,40.664083404231,14.815238014537,13215,40.7469385,14.7699874,town,Baronissi,65013,11786.865,726914
65116,Salerno,SAAA8B502N,MEDAGLIE D'ORO,VIA P. VOCCA 12,40.683659981323,14.773280031408,13215,40.7469385,14.7699874,town,Baronissi,65013,7938.606,499650
65116,Salerno,SAAA893028,"""M.MONTESSORI""",VIA DEI MILLE,40.665231729104,14.802207005696,13215,40.7469385,14.7699874,town,Baronissi,65013,11910.704,715125
65116,Salerno,SAAA893017,"""F. FROEBEL""",VIA DEI MILLE 48,40.665674596404,14.800486264192,13215,40.7469385,14.7699874,town,Baronissi,65013,11526.096,687433
65116,Salerno,SAAA8A602V,SALA ABBAGNANO,VIALE DELLE QUERCE,40.678403262608,14.787958311046,13215,40.7469385,14.7699874,town,Baronissi,65013,9685.743,585985
65116,Salerno,SAAA8A601T,S. MARGHERITA,VIA MARTIRI UNGHERESI,40.666070012686,14.795443667846,13215,40.7469385,14.7699874,town,Baronissi,65013,11496.736,695420
65116,Salerno,SA1A175004,SCUOLA DELL'INF. NON STATALE COMUNALE PIO XII( ENT.LOC.),PIAZZA PIO XII,40.666273144206,14.795621288681,13215,40.7469385,14.7699874,town,Baronissi,65013,11534.074,699901
65116,Salerno,SA1A174008,SCUOLA DELL'INF. NON STATALE COMUNALE PIANTANOVA( ENT.LOC.),VIA BOTTEGHELLE 11,40.679630004186,14.75871999504,13215,40.7469385,14.7699874,town,Baronissi,65013,10700.729,701705
65116,Salerno,SA1A17900B,SCUOLA DELL'INF. NON STAT COMUNALE TORRIONE BASSO( ENT.LOC),VIA A. DE LEO,40.670434688122,14.782628393032,13215,40.7469385,14.7699874,town,Baronissi,65013,10214.103,624780
65116,Salerno,SA1A17800G,SCUOLA DELL'INF NON STAT. COMUNALE S. GIOV. BOSCO( ENT.LOC.),VIA SAN DOMENICO SAVIO,40.68356041962,14.770706524388,13215,40.7469385,14.7699874,town,Baronissi,65013,8698.207,593251
65116,Salerno,SA1A076003,"SCUOLA DELL'INFANZIA NON STATALE""INFANZIA SERENA(s r.l. Impresa Sociale)",VIA IRNO 63,40.683029997481,14.775199990149,13215,40.7469385,14.7699874,town,Baronissi,65013,7882.123,477012
65116,Salerno,SA1A075007,S.TERESA DEL BAMBINOGESU',VIA RAFASTIA 13,40.681279981826,14.765199960566,13215,40.7469385,14.7699874,town,Baronissi,65013,8947.67,617308
65116,Salerno,SA1A08200A,"SCUOLA DELL'INFANZIA PARITARIA ""HAPPY CHILD""(SOCIETA' COOP. SOCIALE)",VIA MADONNA DI FATIMA 95,40.661180010373,14.797689977473,13215,40.7469385,14.7699874,town,Baronissi,65013,12004.98,713866
65116,Salerno,SA1A08100E,"SCUOLA DELL'INF. NON STAT ""PREZIOSISSIMO SANGUE""( ENTE REL.)",VIA ROCCO COCCHIA 37,40.66395999429,14.797289993054,13215,40.7469385,14.7699874,town,Baronissi,65013,11732.701,706854
65116,Salerno,SA1A07800P,SCUOLA DELL'INF. NON STAT IL GIARDINO DEI BIMBI(COOP MUT.PR),VIA GUARIGLIA 9,40.669969986505,14.781650032281,13215,40.7469385,14.7699874,town,Baronissi,65013,10395.242,633660
65116,Salerno,SA1A07700V,SCUOLA DELL'INFANZIA NON STATALE FILIPPO SMALDONE(ENTE REL.),VIA PIO XI 118,40.684140012918,14.765549988842,13215,40.7469385,14.7699874,town,Baronissi,65013,8525.065,595250
65116,Salerno,SA1A125003,"SCUOLA DELL'INFANZIA NON STATALE ""AGAZZI"" ( COOP. MUT.PREV)",VIA C. CARUCCI 11,40.678610010389,14.771069974998,13215,40.7469385,14.7699874,town,Baronissi,65013,8687.643,528991
65116,Salerno,SA1A084002,"SCUOLA DELL'INFANZIA NON STATALE"" LA FIORITA"" (SOCIETA' COOPERATIVA SOCIALE)",VIA SAN LEONARDO 208,40.647945535321,14.835344683785,13215,40.7469385,14.7699874,town,Baronissi,65013,14786.968,854927
65116,Salerno,SA1A083006,"SCUOLA DELL'INFANZIA NON STATALE"" BABY CLUB"" (SOC.COOP.SOC.)",VIA GUGLIELMO VACCA N. 4,40.663269996021,14.797710010222,13215,40.7469385,14.7699874,town,Baronissi,65013,11695.782,702422
65116,Salerno,SA1A08600N,SCUOLA DEL MEDITERRANEO,VIA SALVADOR ALLENDE 66,40.630064640338,14.835876502774,13215,40.7469385,14.7699874,town,Baronissi,65013,16380.245,968459
65116,Salerno,SA1A08500T,"SCUOLA DELL'INF NON ST ""POMPEO LEBANO VOLTO SANTO""(ENTE REL)",VIA PICENZA83,40.655800002001,14.809300003019,13215,40.7469385,14.7699874,town,Baronissi,65013,13504.211,814790
65116,Salerno,SA1A13500N,PICCOLE ORME,VIA LUIGI GUERCIO 464,40.672989986219,14.779739964185,13215,40.7469385,14.7699874,town,Baronissi,65013,9185.704,564307
65116,Salerno,SA1A13100A,"SCUOLA DELL'INF. NON STATALE""C.I.F.S. MARIA GORETTI""(ASSOC.)",VIA RUGGI 42,40.667851487801,14.78633645607,13215,40.7469385,14.7699874,town,Baronissi,65013,10764.964,656062
65116,Salerno,SA1A01300X,"""CRISTO RE""",VIA MOSCANI 2,40.674759992713,14.796690016425,13215,40.7469385,14.7699874,town,Baronissi,65013,10590.425,647477
65116,Salerno,SA1A01400Q,SCUOLA DELL'INF. NON ST. J.J. ROUSSEAU (IMPRESA SOCIALE),VIALE DEGLI EUCALIPTI N.41,40.679040002021,14.790539962608,13215,40.7469385,14.7699874,town,Baronissi,65013,9666.78,578588
65116,Salerno,SA1A012004,"SCUOLA DELL'INFANZIA NON STATALE""ROSA AGAZZI""(COOP.MUT. PR)",VIALE DEI PIOPPI 5,40.680059995819,14.790179959866,13215,40.7469385,14.7699874,town,Baronissi,65013,9943.74,603057
65090,Pellezzano,SAAA8BH047,SCUOLA INFANZIA DI PELLEZZANO,PIAZZA G. DI VITTORIO 1,40.725249979051,14.757079991865,13215,40.7469385,14.7699874,town,Baronissi,65013,3302.78,260832
65090,Pellezzano,SAAA8BH058,SCUOLA INFANZIA DI CAPRIGLIA,VIA SANTAMARIA AMATO 1,40.734319157582,14.760993761158,13215,40.7469385,14.7699874,town,Baronissi,65013,1846.467,134159
65090,Pellezzano,SAAA8BH036,PELLEZZANO-CAPEZZANO,VIA G.AMENDOLA,40.711615441748,14.769761394685,13215,40.7469385,14.7699874,town,Baronissi,65013,5845.443,384836
65090,Pellezzano,SAAA8BH014,COLOGNA,VIA G.MAZZINI,40.718301272967,14.777339973849,13215,40.7469385,14.7699874,town,Baronissi,65013,3671.591,222703
65090,Pellezzano,SAAA8BH025,COPERCHIA,VIA NICOLA RUSSO7,40.718280007466,14.767140035875,13215,40.7469385,14.7699874,town,Baronissi,65013,4629.253,307860
65090,Pellezzano,SA1A14400C,IL TRENINO DEI SOGNI,VIA WENNER41B,40.696810013939,14.775929970097,13215,40.7469385,14.7699874,town,Baronissi,65013,6274.932,380580
65036,Castiglione del Genovesi,SAAA87703B,SC. INFANZIA CASTIGLIONE,VIA V.EMANUELE III,40.72451891568,14.849488626726,13215,40.7469385,14.7699874,town,Baronissi,65013,14756.5,1142213
65013,Baronissi,SAAA836013,ROCCO SANTORO,VIA MENOTTI,40.74114905377,14.79500091704,13215,40.7469385,14.7699874,town,Baronissi,65013,2764.6,223750
65013,Baronissi,SAAA01406C,SARAGNANO,VIA ARIOSTO,40.741053940504,14.762188072345,13215,40.7469385,14.7699874,town,Baronissi,65013,1274.459,92977
65013,Baronissi,SAAA01404A,SCUOLA INFANZIA ANTESSANO,VIA S.ANDREA,40.734641348454,14.775051064611,13215,40.7469385,14.7699874,town,Baronissi,65013,12821.928,766671
65013,Baronissi,SAAA014039,AIELLO INFERIORE,VIA SABATINO 11,40.729930014689,14.774920034583,13215,40.7469385,14.7699874,town,Baronissi,65013,2251.916,152639
65013,Baronissi,SAAA014017,BARONISSI CAPOLUOGO,PARCO OLIMPIA,40.741175,14.770885331,13215,40.7469385,14.7699874,town,Baronissi,65013,613.455,51113
65013,Baronissi,SAAA014028,SCUOLA INFANZIA CAPASIMO,VIA FERRERIA,40.754693262754,14.773378158946,13215,40.7469385,14.7699874,town,Baronissi,65013,923.837,58305
65013,Baronissi,SAAA836035,FERDINANDO VOLPE,VIA BELLINI,40.752522945034,14.790585659492,13215,40.7469385,14.7699874,town,Baronissi,65013,2647.815,279278
65013,Baronissi,SA1A02200P,"SCUOLA DELL'INFANZIA NON STAT""BEATO L. PALAZZOLO""(ENTE REL.)",VIA CIRILLO N.55,40.739799999045,14.766409972108,13215,40.7469385,14.7699874,town,Baronissi,65013,1059.751,77519
65013,Baronissi,SA1A032009,"SCUOLA DELL'INFAN NON STAT""SANTA RITA BABY CLUB""(DITTA IND.)",VIA L. ARIOSTO 11,40.74126000085,14.76239998581,13215,40.7469385,14.7699874,town,Baronissi,65013,1306.412,97029
65013,Baronissi,SA1A06000D,"SCUOLA DELL'INFANZIA PARITARIA ""S.ANTONIO INFANZIA SERENA""",VIA FERRERIA,40.754693262754,14.773378158946,13215,40.7469385,14.7699874,town,Baronissi,65013,923.837,58305
65013,Baronissi,SA1A191002,"SCUOLA DELL'INF.NON STAT "" FORTUNATO MARIA FARINA"" ENTE REL.",VIA MARCONI 3,40.744299991403,14.767670023613,13215,40.7469385,14.7699874,town,Baronissi,65013,483.357,36018
65037,Cava de' Tirreni,SAAA8B2037,ANNUNZIATA,VIA V.GALISE,40.708063708431,14.723346387306,13216,40.7363067,14.7800716,village,Baronissi,65013,13243.274,995577
65037,Cava de' Tirreni,SAAA8A104T,"CAVA DE' TIRRENI ""DELLA CORTE""",VIA DELLA CORTE,40.702789024348,14.703974088465,13216,40.7363067,14.7800716,village,Baronissi,65013,16171.746,926109
65037,Cava de' Tirreni,SAAA8A102Q,S.ARCANGELO,VIA IDO LONGO,40.699444865014,14.695355584211,13216,40.7363067,14.7800716,village,Baronissi,65013,16819.09,1026992
65037,Cava de' Tirreni,SAAA8B001D,"""DON BOSCO""",C.SO MAZZINI 10,40.704250000745,14.704999958493,13216,40.7363067,14.7800716,village,Baronissi,65013,16337.157,935639
65037,Cava de' Tirreni,SAAA8A103R,"""CASTAGNETO""",VIA P. CRAVER,40.68800243635,14.713618092649,13216,40.7363067,14.7800716,village,Baronissi,65013,15349.762,868139
65037,Cava de' Tirreni,SAAA8B002E,"""PISAPIA""",VIA ADINOLFI,40.708223682687,14.724291625074,13216,40.7363067,14.7800716,village,Baronissi,65013,13086.098,980999
65037,Cava de' Tirreni,SAAA8BZ021,"""MAMMA LUCIA""",VIA FILANGIERI,40.703837076351,14.696403356941,13216,40.7363067,14.7800716,village,Baronissi,65013,16919.297,977498
65037,Cava de' Tirreni,SAAA8BZ01X,S.MARIA DEL ROVO,VIA S. MARIA DEL ROVO,40.707749526163,14.694770102748,13216,40.7363067,14.7800716,village,Baronissi,65013,17328.57,1006963
65037,Cava de' Tirreni,SAAA8B103B,S. LUCIA INFANZIA,VIA G.VITALE,40.72108357442,14.700208387356,13216,40.7363067,14.7800716,village,Baronissi,65013,17746.743,966815
65037,Cava de' Tirreni,SAAA8B102A,S. GIUSEPPE,VIA XXV LUGLIO 222,40.716609997077,14.701000030479,13216,40.7363067,14.7800716,village,Baronissi,65013,17123.693,916971
65037,Cava de' Tirreni,SAAA8B1019,EPITAFFIO,VIA G. GUARINO,40.71218,14.700133748,13216,40.7363067,14.7800716,village,Baronissi,65013,17292.592,930613
65037,Cava de' Tirreni,SAAA8B206A,S.NICOLA,VIA A.SALSANO,40.709750240199,14.711583505205,13216,40.7363067,14.7800716,village,Baronissi,65013,16666.031,947409
65037,Cava de' Tirreni,SAAA8B207B,"CAVA - ""S. LAMBERTI"" PREGIATO",VIA A.CASABURI,40.714539759033,14.71304026696,13216,40.7363067,14.7800716,village,Baronissi,65013,17245.487,989130
65037,Cava de' Tirreni,SAAA8B2048,S. PIETRO,VIA N.LONGOBARDI,40.70580525376,14.721075772735,13216,40.7363067,14.7800716,village,Baronissi,65013,13411.915,989746
65037,Cava de' Tirreni,SAAA8A302B,CORSO UMBERTO,CORSO ITALIA,40.71218,14.700133748,13216,40.7363067,14.7800716,village,Baronissi,65013,17292.592,930613
65037,Cava de' Tirreni,SAAA8A303C,VIA CARILLO,VIA CARILLO,40.70187294448,14.711280875943,13216,40.7363067,14.7800716,village,Baronissi,65013,15851.287,889575
65037,Cava de' Tirreni,SAAA8A301A,S.LORENZO -CASA APICELLA-,VIA CARLO SANTORO,40.701320173486,14.712490521525,13216,40.7363067,14.7800716,village,Baronissi,65013,16021.733,903418
65037,Cava de' Tirreni,SAAA8B2015,S. ANNA A SCARICO,VIA P. DI DOMENICO,40.737362276057,14.70877397716,13216,40.7363067,14.7800716,village,Baronissi,65013,9230.658,1548439
65037,Cava de' Tirreni,SAAA8B208C,CAVA DE' TIRRENI - DUPINO,VIA G. SIANI,40.695383311691,14.72385745608,13216,40.7363067,14.7800716,village,Baronissi,65013,16425.669,972524
65037,Cava de' Tirreni,SAAA8B2059,SCUOLA SPECIALE,VIA MARGHERI 20,40.694829998861,14.720300033093,13216,40.7363067,14.7800716,village,Baronissi,65013,15930.604,936880
65037,Cava de' Tirreni,SAAA8A105V,SAN CESAREO,VIA FRANCESCO VECCHIONE,40.68689817087,14.707947400448,13216,40.7363067,14.7800716,village,Baronissi,65013,15574.863,880833
65037,Cava de' Tirreni,SA1A05000V,SCUOLA DELL'INF. NON ST.. N SIGNORA DEL S.ROSARIO (ENT REL.),VIA SALVO D'ACQUISTO N. 3,40.707910000676,14.699660015618,13216,40.7363067,14.7800716,village,Baronissi,65013,16901.486,976213
65037,Cava de' Tirreni,SA1A05200E,SCUOLA DELL'INFANZIA NON STAT. RAFFAELE BALDI( ENTE REL.),PIAZZA F. BALDI ex via Valle snc,40.730381851968,14.701198743278,13216,40.7363067,14.7800716,village,Baronissi,65013,9700.638,1606673
65037,Cava de' Tirreni,SA1A8N500C,ASILO PICCOLI PASSI,VIA MAGGIORE P. FORMOSA 9,40.698270015744,14.702480023123,13216,40.7363067,14.7800716,village,Baronissi,65013,16029.039,932186
65037,Cava de' Tirreni,SA1A05100P,SCUOLA DELL'INF. NON STAT. S. MICHELE ARCANGELO( ENTE REL.),VIA P. SIANI 5,40.696459985662,14.697869976376,13216,40.7363067,14.7800716,village,Baronissi,65013,16691.844,1010932
65067,Mercato San Severino,SAAA8BJ06E,"CAMPAGNA ""FOLCATA""",VIA CAMPO SPORTIVO20,40.786969997355,14.759760021586,13216,40.7363067,14.7800716,village,Baronissi,65013,7110.054,441248
65067,Mercato San Severino,SAAA074042,PANDOLA INFANZIA,VIA DELLE PUGLIE,40.795033486807,14.759894292708,13216,40.7363067,14.7800716,village,Baronissi,65013,8142.935,502607
65067,Mercato San Severino,SAAA074031,SPIANO,PIAZZA SANTA CROCE,40.760347771741,14.752015872247,13216,40.7363067,14.7800716,village,Baronissi,65013,4978.848,737944
65067,Mercato San Severino,SAAA074097,"MERCATO S.SEVERINO -""E.COPPOLA""",VIA RIMEMBRANZA,40.784514880789,14.75301047873,13216,40.7363067,14.7800716,village,Baronissi,65013,7638.792,514088
65067,Mercato San Severino,SAAA07402X,"""E.PESCE""",VIA PIZZONE,40.792200530813,14.762710418339,13216,40.7363067,14.7800716,village,Baronissi,65013,8221.508,516569
65067,Mercato San Severino,SAAA074086,DON SALVATORE GUADAGNO,VIA MUNICIPIO,40.785960019932,14.755536174389,13216,40.7363067,14.7800716,village,Baronissi,65013,7786.385,528384
65067,Mercato San Severino,SAAA075071,COSTA INFANZIA,PIAZZA PADRE BASILIO PERGAMO 10,40.780220008819,14.723200003953,13216,40.7363067,14.7800716,village,Baronissi,65013,10180.007,658983
65067,Mercato San Severino,SAAA07501P,CARIFI,VIA CIORANI 3/3,40.78666960073,14.733946387368,13216,40.7363067,14.7800716,village,Baronissi,65013,9182.458,638847
65067,Mercato San Severino,SAAA075082,SAN VINCENZO INFANZIA,VIA SAN VINCENZO - CURTERI,40.779111934813,14.744896026294,13216,40.7363067,14.7800716,village,Baronissi,65013,8170.127,545831
65067,Mercato San Severino,SAAA07505V,SANT'ANGELO INFANZIA,VIA ELISEO 24,40.772900222046,14.732568658125,13216,40.7363067,14.7800716,village,Baronissi,65013,9445.737,548517
65067,Mercato San Severino,SAAA07506X,"""LUIGI CACCIATORI""",VIA S. ANDREA VILLANI 8,40.773048523931,14.745061106479,13216,40.7363067,14.7800716,village,Baronissi,65013,8469.755,479168
65067,Mercato San Severino,SAAA07502Q,"""S. ALFONSO M. DE LIGUORI""",VIA NOCELLETO 2,40.804319271752,14.733324623423,13216,40.7363067,14.7800716,village,Baronissi,65013,11630.891,839543
65067,Mercato San Severino,SAAA07504T,SANT'EUSTACHIO,CORSO FRANCESCO CARACCIOLO 1,40.769500015662,14.704720002927,13216,40.7363067,14.7800716,village,Baronissi,65013,12091.981,804831
65067,Mercato San Severino,SA1AO6500Q,"SCUOLA DELL'INFANZIA PARITARIA ""CRESCERE INSIEME""",Via Trieste 49,40.783170019641,14.755750035288,13216,40.7363067,14.7800716,village,Baronissi,65013,7260.515,468695
65067,Mercato San Severino,SA1A059009,"SCUOLA DELL'INFANZIA PAR.""MARIA SS DEL ROSARIO""-ENTEGEST.""PAIDEIA""SRL IMPR.SOC.",PIAZZA E. IMPERIO NÂ° 7,40.785950003558,14.753430008308,13216,40.7363067,14.7800716,village,Baronissi,65013,7799.911,533422
65052,Fisciano,SAAA89203D,"PENTA ""RINALDI CARMELA""",VIA MATTEOTTI,40.762394348939,14.791343650888,13216,40.7363067,14.7800716,village,Baronissi,65013,3968.376,303528
65052,Fisciano,SAAA89201B,"LANCUSI"" DE CARO""",VIA DON ALFONSO DE CARO,40.760771027219,14.780574300842,13216,40.7363067,14.7800716,village,Baronissi,65013,4156.086,345226
65052,Fisciano,SAAA89003T,SCUOLA INFANZIA PIZZOLANO,VIA PARCO DONICA,40.787380171604,14.787073915188,13216,40.7363067,14.7800716,village,Baronissi,65013,7519.719,557315
65052,Fisciano,SAAA890061,GAIANO,VIA SUBIA,40.753512589497,14.814079052917,13216,40.7363067,14.7800716,village,Baronissi,65013,5915.617,431582
65052,Fisciano,SAAA89004V,SCUOLA INFANZIA FISCIANO,VIA ROMA 47,40.769299981543,14.797710010222,13216,40.7363067,14.7800716,village,Baronissi,65013,5096.195,368931
65116,Salerno,SAAA8B7018,"SALERNO IV ""MARI""",PIAZZA TRUCILLO 22,40.668660159644,14.784883930606,13216,40.7363067,14.7800716,village,Baronissi,65013,9743.175,584010
65116,Salerno,SAAA8AC03C,"""PRODUTTIVITA'"" RIONE PETROSINO",RIONE PETROSINO,40.68253072558,14.778008556466,13216,40.7363067,14.7800716,village,Baronissi,65013,7976.602,492136
65116,Salerno,SAAA8AC04D,"VIA DALMAZIA ""S.DEMETRIO""",VIA DALMAZIA,40.678319584136,14.771636079134,13216,40.7363067,14.7800716,village,Baronissi,65013,7771.34,463005
65116,Salerno,SAAA8AC02B,VIA GUGLIELMINI,VIA GUGLIELMINI23,40.67946001919,14.776170027804,13216,40.7363067,14.7800716,village,Baronissi,65013,7815.314,474764
65116,Salerno,SAAA8A801D,SALERNO - EDIFICIO VICINANZA,CORSO V.EMANUELE153,40.676820013056,14.766100009329,13216,40.7363067,14.7800716,village,Baronissi,65013,8765.95,572516
65116,Salerno,SAAA8B603E,ALFONSO GATTO,VIA F. GAETA,40.664229196779,14.794096392276,13216,40.7363067,14.7800716,village,Baronissi,65013,10583.933,623062
65116,Salerno,SAAA8B601C,DON MILANI,VIA BELISARIO CORENZIO 46,40.663229072082,14.799704166298,13216,40.7363067,14.7800716,village,Baronissi,65013,10967.396,667480
65116,Salerno,SAAA8A703Q,"SC. INFANZIA ""CLEMENTE TAFURI""",SALITA MONTEVERGINE 8,40.682159997841,14.758980001676,13216,40.7363067,14.7800716,village,Baronissi,65013,9552.118,565422
65116,Salerno,SAAA89102L,FRATTE-VIA BUONSERVIZI,VIA BUONSERVIZI,40.695031385925,14.777046550871,13216,40.7363067,14.7800716,village,Baronissi,65013,5850.212,366198
65116,Salerno,SAAA81803G,GIOVI PIEGOLELLE,VIA MONTE BELLARA,40.688954923352,14.820482574757,13216,40.7363067,14.7800716,village,Baronissi,65013,10464.591,959470
65116,Salerno,SAAA81801D,S. ANGELO DI OGLIARA,VIA S.ANGELO,40.706141688073,14.813851540353,13216,40.7363067,14.7800716,village,Baronissi,65013,7776.359,677133
65116,Salerno,SAAA8A702P,"SC. INFANZIA ""N.ABBAGNANO""",VIA C. BATTISTI 1,40.682819988897,14.761279995908,13216,40.7363067,14.7800716,village,Baronissi,65013,8804.504,641928
65116,Salerno,SAAA8B501L,EDIFICIO COSTA,VIA GIACOMO COSTA,40.687080007366,14.774865401626,13216,40.7363067,14.7800716,village,Baronissi,65013,6781.622,436237
65116,Salerno,SAAA8AB04N,ARBOSTELLA,VIA WAGNER,40.654066414192,14.81518619003,13216,40.7363067,14.7800716,village,Baronissi,65013,12968.451,787548
65116,Salerno,SAAA8B401R,"SCUOLA INFANZIA ""GIANNI RODARI""",VIA LASPRO,40.68538,14.7689,13216,40.7363067,14.7800716,village,Baronissi,65013,7788.278,523410
65116,Salerno,SAAA8A603X,CARLO COLLODI,VIA SICA,40.673709682783,14.785149737656,13216,40.7363067,14.7800716,village,Baronissi,65013,9288.424,570626
65116,Salerno,SAAA8AB01E,MARICONDA VIA PASUBIO C/O SC.EL,VIA PASUBIO,40.658408543334,14.809028191234,13216,40.7363067,14.7800716,village,Baronissi,65013,11690.848,737545
65116,Salerno,SAAA8AB03L,FUORNI,VIA MONTICELLI,40.65300631998,14.84423615717,13216,40.7363067,14.7800716,village,Baronissi,65013,15225.056,900052
65116,Salerno,SAAA8B901X,INFANZIA MAZZETTI,VIA ROCCO COCCHIA 67/69,40.663979985129,14.797900027967,13216,40.7363067,14.7800716,village,Baronissi,65013,10994.873,660528
65116,Salerno,SAAA89103N,SALERNO - MATIERNO,VIALE DELLA REPUBBLICA,40.701057855339,14.785677739972,13216,40.7363067,14.7800716,village,Baronissi,65013,5710.903,410642
65116,Salerno,SAAA81804L,OGLIARA VIA POSTIGLIONE,VIA POSTIGLIONE,40.706322509412,14.806641264292,13216,40.7363067,14.7800716,village,Baronissi,65013,6890.933,633260
65116,Salerno,SAAA8AB02G,MERCATELLO,VIA PICENZA30,40.655650007844,14.809379966375,13216,40.7363067,14.7800716,village,Baronissi,65013,12664.949,756294
65116,Salerno,SAAA18201P,SC.INFANZIA ANN. CONV.NAZIONALE,PIAZZA ABATE CONFORTI 22,40.680940011833,14.758269970658,13216,40.7363067,14.7800716,village,Baronissi,65013,8920.893,655896
65116,Salerno,SAAA8A701N,SCUOLA INFANZIA G. BARRA,VIA LUNGOMARE TRIESTE 17,40.677890004906,14.754319998787,13216,40.7363067,14.7800716,village,Baronissi,65013,9547.851,585544
65116,Salerno,SAAA89104P,VIA EX GUADALUPO,VIA S.CALENDA,40.688040435888,14.771447736809,13216,40.7363067,14.7800716,village,Baronissi,65013,7743.527,518041
65116,Salerno,SAAA893039,S. EUSTACHIO,VIA GIOBERTI,40.664083404231,14.815238014537,13216,40.7363067,14.7800716,village,Baronissi,65013,10960.638,669982
65116,Salerno,SAAA8B502N,MEDAGLIE D'ORO,VIA P. VOCCA 12,40.683659981323,14.773280031408,13216,40.7363067,14.7800716,village,Baronissi,65013,7160.151,448036
65116,Salerno,SAAA893028,"""M.MONTESSORI""",VIA DEI MILLE,40.665231729104,14.802207005696,13216,40.7363067,14.7800716,village,Baronissi,65013,11084.477,658193
65116,Salerno,SAAA893017,"""F. FROEBEL""",VIA DEI MILLE 48,40.665674596404,14.800486264192,13216,40.7363067,14.7800716,village,Baronissi,65013,10699.869,630501
65116,Salerno,SAAA8A602V,SALA ABBAGNANO,VIALE DELLE QUERCE,40.678403262608,14.787958311046,13216,40.7363067,14.7800716,village,Baronissi,65013,8859.516,529053
65116,Salerno,SAAA8A601T,S. MARGHERITA,VIA MARTIRI UNGHERESI,40.666070012686,14.795443667846,13216,40.7363067,14.7800716,village,Baronissi,65013,10670.509,638488
65116,Salerno,SA1A175004,SCUOLA DELL'INF. NON STATALE COMUNALE PIO XII( ENT.LOC.),PIAZZA PIO XII,40.666273144206,14.795621288681,13216,40.7363067,14.7800716,village,Baronissi,65013,10707.847,642969
65116,Salerno,SA1A174008,SCUOLA DELL'INF. NON STATALE COMUNALE PIANTANOVA( ENT.LOC.),VIA BOTTEGHELLE 11,40.679630004186,14.75871999504,13216,40.7363067,14.7800716,village,Baronissi,65013,9874.502,644773
65116,Salerno,SA1A17900B,SCUOLA DELL'INF. NON STAT COMUNALE TORRIONE BASSO( ENT.LOC),VIA A. DE LEO,40.670434688122,14.782628393032,13216,40.7363067,14.7800716,village,Baronissi,65013,9387.876,567848
65116,Salerno,SA1A17800G,SCUOLA DELL'INF NON STAT. COMUNALE S. GIOV. BOSCO( ENT.LOC.),VIA SAN DOMENICO SAVIO,40.68356041962,14.770706524388,13216,40.7363067,14.7800716,village,Baronissi,65013,7919.752,541637
65116,Salerno,SA1A076003,"SCUOLA DELL'INFANZIA NON STATALE""INFANZIA SERENA(s r.l. Impresa Sociale)",VIA IRNO 63,40.683029997481,14.775199990149,13216,40.7363067,14.7800716,village,Baronissi,65013,7055.896,420080
65116,Salerno,SA1A075007,S.TERESA DEL BAMBINOGESU',VIA RAFASTIA 13,40.681279981826,14.765199960566,13216,40.7363067,14.7800716,village,Baronissi,65013,8169.215,565694
65116,Salerno,SA1A08200A,"SCUOLA DELL'INFANZIA PARITARIA ""HAPPY CHILD""(SOCIETA' COOP. SOCIALE)",VIA MADONNA DI FATIMA 95,40.661180010373,14.797689977473,13216,40.7363067,14.7800716,village,Baronissi,65013,11178.753,656934
65116,Salerno,SA1A08100E,"SCUOLA DELL'INF. NON STAT ""PREZIOSISSIMO SANGUE""( ENTE REL.)",VIA ROCCO COCCHIA 37,40.66395999429,14.797289993054,13216,40.7363067,14.7800716,village,Baronissi,65013,10906.474,649922
65116,Salerno,SA1A07800P,SCUOLA DELL'INF. NON STAT IL GIARDINO DEI BIMBI(COOP MUT.PR),VIA GUARIGLIA 9,40.669969986505,14.781650032281,13216,40.7363067,14.7800716,village,Baronissi,65013,9569.015,576728
65116,Salerno,SA1A07700V,SCUOLA DELL'INFANZIA NON STATALE FILIPPO SMALDONE(ENTE REL.),VIA PIO XI 118,40.684140012918,14.765549988842,13216,40.7363067,14.7800716,village,Baronissi,65013,7895.254,536246
65116,Salerno,SA1A125003,"SCUOLA DELL'INFANZIA NON STATALE ""AGAZZI"" ( COOP. MUT.PREV)",VIA C. CARUCCI 11,40.678610010389,14.771069974998,13216,40.7363067,14.7800716,village,Baronissi,65013,7861.416,472059
65116,Salerno,SA1A084002,"SCUOLA DELL'INFANZIA NON STATALE"" LA FIORITA"" (SOCIETA' COOPERATIVA SOCIALE)",VIA SAN LEONARDO 208,40.647945535321,14.835344683785,13216,40.7363067,14.7800716,village,Baronissi,65013,13960.741,797995
65116,Salerno,SA1A083006,"SCUOLA DELL'INFANZIA NON STATALE"" BABY CLUB"" (SOC.COOP.SOC.)",VIA GUGLIELMO VACCA N. 4,40.663269996021,14.797710010222,13216,40.7363067,14.7800716,village,Baronissi,65013,10869.555,645490
65116,Salerno,SA1A08600N,SCUOLA DEL MEDITERRANEO,VIA SALVADOR ALLENDE 66,40.630064640338,14.835876502774,13216,40.7363067,14.7800716,village,Baronissi,65013,15554.018,911527
65116,Salerno,SA1A08500T,"SCUOLA DELL'INF NON ST ""POMPEO LEBANO VOLTO SANTO""(ENTE REL)",VIA PICENZA83,40.655800002001,14.809300003019,13216,40.7363067,14.7800716,village,Baronissi,65013,12677.984,757858
65116,Salerno,SA1A13500N,PICCOLE ORME,VIA LUIGI GUERCIO 464,40.672989986219,14.779739964185,13216,40.7363067,14.7800716,village,Baronissi,65013,8359.477,507375
65116,Salerno,SA1A13100A,"SCUOLA DELL'INF. NON STATALE""C.I.F.S. MARIA GORETTI""(ASSOC.)",VIA RUGGI 42,40.667851487801,14.78633645607,13216,40.7363067,14.7800716,village,Baronissi,65013,9938.737,599130
65116,Salerno,SA1A01300X,"""CRISTO RE""",VIA MOSCANI 2,40.674759992713,14.796690016425,13216,40.7363067,14.7800716,village,Baronissi,65013,9764.198,590545
65116,Salerno,SA1A01400Q,SCUOLA DELL'INF. NON ST. J.J. ROUSSEAU (IMPRESA SOCIALE),VIALE DEGLI EUCALIPTI N.41,40.679040002021,14.790539962608,13216,40.7363067,14.7800716,village,Baronissi,65013,8840.553,521656
65116,Salerno,SA1A012004,"SCUOLA DELL'INFANZIA NON STATALE""ROSA AGAZZI""(COOP.MUT. PR)",VIALE DEI PIOPPI 5,40.680059995819,14.790179959866,13216,40.7363067,14.7800716,village,Baronissi,65013,9117.513,546125
65090,Pellezzano,SAAA8BH047,SCUOLA INFANZIA DI PELLEZZANO,PIAZZA G. DI VITTORIO 1,40.725249979051,14.757079991865,13216,40.7363067,14.7800716,village,Baronissi,65013,4008.791,308046
65090,Pellezzano,SAAA8BH058,SCUOLA INFANZIA DI CAPRIGLIA,VIA SANTAMARIA AMATO 1,40.734319157582,14.760993761158,13216,40.7363067,14.7800716,village,Baronissi,65013,2552.478,181373
65090,Pellezzano,SAAA8BH036,PELLEZZANO-CAPEZZANO,VIA G.AMENDOLA,40.711615441748,14.769761394685,13216,40.7363067,14.7800716,village,Baronissi,65013,5127.738,348909
65090,Pellezzano,SAAA8BH014,COLOGNA,VIA G.MAZZINI,40.718301272967,14.777339973849,13216,40.7363067,14.7800716,village,Baronissi,65013,2953.886,186776
65090,Pellezzano,SAAA8BH025,COPERCHIA,VIA NICOLA RUSSO7,40.718280007466,14.767140035875,13216,40.7363067,14.7800716,village,Baronissi,65013,3911.548,271933
65090,Pellezzano,SA1A14400C,IL TRENINO DEI SOGNI,VIA WENNER41B,40.696810013939,14.775929970097,13216,40.7363067,14.7800716,village,Baronissi,65013,5557.227,344653
65036,Castiglione del Genovesi,SAAA87703B,SC. INFANZIA CASTIGLIONE,VIA V.EMANUELE III,40.72451891568,14.849488626726,13216,40.7363067,14.7800716,village,Baronissi,65013,14038.795,1106286
65013,Baronissi,SAAA836013,ROCCO SANTORO,VIA MENOTTI,40.74114905377,14.79500091704,13216,40.7363067,14.7800716,village,Baronissi,65013,2621.384,317507
65013,Baronissi,SAAA01406C,SARAGNANO,VIA ARIOSTO,40.741053940504,14.762188072345,13216,40.7363067,14.7800716,village,Baronissi,65013,2778.167,207290
65013,Baronissi,SAAA01404A,SCUOLA INFANZIA ANTESSANO,VIA S.ANDREA,40.734641348454,14.775051064611,13216,40.7363067,14.7800716,village,Baronissi,65013,11995.701,709739
65013,Baronissi,SAAA014039,AIELLO INFERIORE,VIA SABATINO 11,40.729930014689,14.774920034583,13216,40.7363067,14.7800716,village,Baronissi,65013,1534.211,116712
65013,Baronissi,SAAA014017,BARONISSI CAPOLUOGO,PARCO OLIMPIA,40.741175,14.770885331,13216,40.7363067,14.7800716,village,Baronissi,65013,1780.327,128260
65013,Baronissi,SAAA014028,SCUOLA INFANZIA CAPASIMO,VIA FERRERIA,40.754693262754,14.773378158946,13216,40.7363067,14.7800716,village,Baronissi,65013,2893.686,183165
65013,Baronissi,SAAA836035,FERDINANDO VOLPE,VIA BELLINI,40.752522945034,14.790585659492,13216,40.7363067,14.7800716,village,Baronissi,65013,3611.993,282697
65013,Baronissi,SA1A02200P,"SCUOLA DELL'INFANZIA NON STAT""BEATO L. PALAZZOLO""(ENTE REL.)",VIA CIRILLO N.55,40.739799999045,14.766409972108,13216,40.7363067,14.7800716,village,Baronissi,65013,2242.981,158220
65013,Baronissi,SA1A032009,"SCUOLA DELL'INFAN NON STAT""SANTA RITA BABY CLUB""(DITTA IND.)",VIA L. ARIOSTO 11,40.74126000085,14.76239998581,13216,40.7363067,14.7800716,village,Baronissi,65013,2810.12,211342
65013,Baronissi,SA1A06000D,"SCUOLA DELL'INFANZIA PARITARIA ""S.ANTONIO INFANZIA SERENA""",VIA FERRERIA,40.754693262754,14.773378158946,13216,40.7363067,14.7800716,village,Baronissi,65013,2893.686,183165
65013,Baronissi,SA1A191002,"SCUOLA DELL'INF.NON STAT "" FORTUNATO MARIA FARINA"" ENTE REL.",VIA MARCONI 3,40.744299991403,14.767670023613,13216,40.7363067,14.7800716,village,Baronissi,65013,2090.372,149972
65037,Cava de' Tirreni,SAAA8B2037,ANNUNZIATA,VIA V.GALISE,40.708063708431,14.723346387306,13217,40.738795,14.7618538,village,Baronissi,65013,11419.357,871917
65037,Cava de' Tirreni,SAAA8A104T,"CAVA DE' TIRRENI ""DELLA CORTE""",VIA DELLA CORTE,40.702789024348,14.703974088465,13217,40.738795,14.7618538,village,Baronissi,65013,13670.76,1039633
65037,Cava de' Tirreni,SAAA8A102Q,S.ARCANGELO,VIA IDO LONGO,40.699444865014,14.695355584211,13217,40.738795,14.7618538,village,Baronissi,65013,14660.883,1127704
65037,Cava de' Tirreni,SAAA8B001D,"""DON BOSCO""",C.SO MAZZINI 10,40.704250000745,14.704999958493,13217,40.738795,14.7618538,village,Baronissi,65013,13836.171,1049163
65037,Cava de' Tirreni,SAAA8A103R,"""CASTAGNETO""",VIA P. CRAVER,40.68800243635,14.713618092649,13217,40.738795,14.7618538,village,Baronissi,65013,14312.92,1082363
65037,Cava de' Tirreni,SAAA8B002E,"""PISAPIA""",VIA ADINOLFI,40.708223682687,14.724291625074,13217,40.738795,14.7618538,village,Baronissi,65013,11262.181,857339
65037,Cava de' Tirreni,SAAA8BZ021,"""MAMMA LUCIA""",VIA FILANGIERI,40.703837076351,14.696403356941,13217,40.738795,14.7618538,village,Baronissi,65013,14418.311,1091022
65037,Cava de' Tirreni,SAAA8BZ01X,S.MARIA DEL ROVO,VIA S. MARIA DEL ROVO,40.707749526163,14.694770102748,13217,40.738795,14.7618538,village,Baronissi,65013,14827.584,1120487
65037,Cava de' Tirreni,SAAA8B103B,S. LUCIA INFANZIA,VIA G.VITALE,40.72108357442,14.700208387356,13217,40.738795,14.7618538,village,Baronissi,65013,8532.433,1505358
65037,Cava de' Tirreni,SAAA8B102A,S. GIUSEPPE,VIA XXV LUGLIO 222,40.716609997077,14.701000030479,13217,40.738795,14.7618538,village,Baronissi,65013,8590.391,1507687
65037,Cava de' Tirreni,SAAA8B1019,EPITAFFIO,VIA G. GUARINO,40.71218,14.700133748,13217,40.738795,14.7618538,village,Baronissi,65013,14690.43,1119842
65037,Cava de' Tirreni,SAAA8B206A,S.NICOLA,VIA A.SALSANO,40.709750240199,14.711583505205,13217,40.738795,14.7618538,village,Baronissi,65013,13270.231,985257
65037,Cava de' Tirreni,SAAA8B207B,"CAVA - ""S. LAMBERTI"" PREGIATO",VIA A.CASABURI,40.714539759033,14.71304026696,13217,40.738795,14.7618538,village,Baronissi,65013,7629.474,1432958
65037,Cava de' Tirreni,SAAA8B2048,S. PIETRO,VIA N.LONGOBARDI,40.70580525376,14.721075772735,13217,40.738795,14.7618538,village,Baronissi,65013,11587.998,866086
65037,Cava de' Tirreni,SAAA8A302B,CORSO UMBERTO,CORSO ITALIA,40.71218,14.700133748,13217,40.738795,14.7618538,village,Baronissi,65013,14690.43,1119842
65037,Cava de' Tirreni,SAAA8A303C,VIA CARILLO,VIA CARILLO,40.70187294448,14.711280875943,13217,40.738795,14.7618538,village,Baronissi,65013,12676.333,947649
65037,Cava de' Tirreni,SAAA8A301A,S.LORENZO -CASA APICELLA-,VIA CARLO SANTORO,40.701320173486,14.712490521525,13217,40.738795,14.7618538,village,Baronissi,65013,12514.037,934665
65037,Cava de' Tirreni,SAAA8B2015,S. ANNA A SCARICO,VIA P. DI DOMENICO,40.737362276057,14.70877397716,13217,40.738795,14.7618538,village,Baronissi,65013,6923.5,1366111
65037,Cava de' Tirreni,SAAA8B208C,CAVA DE' TIRRENI - DUPINO,VIA G. SIANI,40.695383311691,14.72385745608,13217,40.738795,14.7618538,village,Baronissi,65013,13289.554,978245
65037,Cava de' Tirreni,SAAA8B2059,SCUOLA SPECIALE,VIA MARGHERI 20,40.694829998861,14.720300033093,13217,40.738795,14.7618538,village,Baronissi,65013,12794.489,942601
65037,Cava de' Tirreni,SAAA8A105V,SAN CESAREO,VIA FRANCESCO VECCHIONE,40.68689817087,14.707947400448,13217,40.738795,14.7618538,village,Baronissi,65013,14363.74,1086022
65037,Cava de' Tirreni,SA1A05000V,SCUOLA DELL'INF. NON ST.. N SIGNORA DEL S.ROSARIO (ENT REL.),VIA SALVO D'ACQUISTO N. 3,40.707910000676,14.699660015618,13217,40.738795,14.7618538,village,Baronissi,65013,14400.5,1089737
65037,Cava de' Tirreni,SA1A05200E,SCUOLA DELL'INFANZIA NON STAT. RAFFAELE BALDI( ENTE REL.),PIAZZA F. BALDI ex via Valle snc,40.730381851968,14.701198743278,13217,40.738795,14.7618538,village,Baronissi,65013,7393.48,1424345
65037,Cava de' Tirreni,SA1A8N500C,ASILO PICCOLI PASSI,VIA MAGGIORE P. FORMOSA 9,40.698270015744,14.702480023123,13217,40.738795,14.7618538,village,Baronissi,65013,14386.135,1095785
65037,Cava de' Tirreni,SA1A05100P,SCUOLA DELL'INF. NON STAT. S. MICHELE ARCANGELO( ENTE REL.),VIA P. SIANI 5,40.696459985662,14.697869976376,13217,40.738795,14.7618538,village,Baronissi,65013,15174.82,1164535
65067,Mercato San Severino,SAAA8BJ06E,"CAMPAGNA ""FOLCATA""",VIA CAMPO SPORTIVO20,40.786969997355,14.759760021586,13217,40.738795,14.7618538,village,Baronissi,65013,6423.484,426451
65067,Mercato San Severino,SAAA074042,PANDOLA INFANZIA,VIA DELLE PUGLIE,40.795033486807,14.759894292708,13217,40.738795,14.7618538,village,Baronissi,65013,7456.365,487810
65067,Mercato San Severino,SAAA074031,SPIANO,PIAZZA SANTA CROCE,40.760347771741,14.752015872247,13217,40.738795,14.7618538,village,Baronissi,65013,4115.763,707374
65067,Mercato San Severino,SAAA074097,"MERCATO S.SEVERINO -""E.COPPOLA""",VIA RIMEMBRANZA,40.784514880789,14.75301047873,13217,40.738795,14.7618538,village,Baronissi,65013,6952.222,499291
65067,Mercato San Severino,SAAA07402X,"""E.PESCE""",VIA PIZZONE,40.792200530813,14.762710418339,13217,40.738795,14.7618538,village,Baronissi,65013,7534.938,501772
65067,Mercato San Severino,SAAA074086,DON SALVATORE GUADAGNO,VIA MUNICIPIO,40.785960019932,14.755536174389,13217,40.738795,14.7618538,village,Baronissi,65013,7099.815,513587
65067,Mercato San Severino,SAAA075071,COSTA INFANZIA,PIAZZA PADRE BASILIO PERGAMO 10,40.780220008819,14.723200003953,13217,40.738795,14.7618538,village,Baronissi,65013,9493.437,644186
65067,Mercato San Severino,SAAA07501P,CARIFI,VIA CIORANI 3/3,40.78666960073,14.733946387368,13217,40.738795,14.7618538,village,Baronissi,65013,8495.888,624050
65067,Mercato San Severino,SAAA075082,SAN VINCENZO INFANZIA,VIA SAN VINCENZO - CURTERI,40.779111934813,14.744896026294,13217,40.738795,14.7618538,village,Baronissi,65013,7483.558,531034
65067,Mercato San Severino,SAAA07505V,SANT'ANGELO INFANZIA,VIA ELISEO 24,40.772900222046,14.732568658125,13217,40.738795,14.7618538,village,Baronissi,65013,8868.275,642303
65067,Mercato San Severino,SAAA07506X,"""LUIGI CACCIATORI""",VIA S. ANDREA VILLANI 8,40.773048523931,14.745061106479,13217,40.738795,14.7618538,village,Baronissi,65013,7882.243,556669
65067,Mercato San Severino,SAAA07502Q,"""S. ALFONSO M. DE LIGUORI""",VIA NOCELLETO 2,40.804319271752,14.733324623423,13217,40.738795,14.7618538,village,Baronissi,65013,10944.321,824746
65067,Mercato San Severino,SAAA07504T,SANT'EUSTACHIO,CORSO FRANCESCO CARACCIOLO 1,40.769500015662,14.704720002927,13217,40.738795,14.7618538,village,Baronissi,65013,11341.821,852632
65067,Mercato San Severino,SA1AO6500Q,"SCUOLA DELL'INFANZIA PARITARIA ""CRESCERE INSIEME""",Via Trieste 49,40.783170019641,14.755750035288,13217,40.738795,14.7618538,village,Baronissi,65013,6573.945,453898
65067,Mercato San Severino,SA1A059009,"SCUOLA DELL'INFANZIA PAR.""MARIA SS DEL ROSARIO""-ENTEGEST.""PAIDEIA""SRL IMPR.SOC.",PIAZZA E. IMPERIO NÂ° 7,40.785950003558,14.753430008308,13217,40.738795,14.7618538,village,Baronissi,65013,7113.341,518625
65052,Fisciano,SAAA89203D,"PENTA ""RINALDI CARMELA""",VIA MATTEOTTI,40.762394348939,14.791343650888,13217,40.738795,14.7618538,village,Baronissi,65013,4716.36,337625
65052,Fisciano,SAAA89201B,"LANCUSI"" DE CARO""",VIA DON ALFONSO DE CARO,40.760771027219,14.780574300842,13217,40.738795,14.7618538,village,Baronissi,65013,3469.516,330429
65052,Fisciano,SAAA89003T,SCUOLA INFANZIA PIZZOLANO,VIA PARCO DONICA,40.787380171604,14.787073915188,13217,40.738795,14.7618538,village,Baronissi,65013,8043.232,617363
65052,Fisciano,SAAA890061,GAIANO,VIA SUBIA,40.753512589497,14.814079052917,13217,40.738795,14.7618538,village,Baronissi,65013,6270.421,540872
65052,Fisciano,SAAA89004V,SCUOLA INFANZIA FISCIANO,VIA ROMA 47,40.769299981543,14.797710010222,13217,40.738795,14.7618538,village,Baronissi,65013,6009.8,460665
65116,Salerno,SAAA8B7018,"SALERNO IV ""MARI""",PIAZZA TRUCILLO 22,40.668660159644,14.784883930606,13217,40.738795,14.7618538,village,Baronissi,65013,10176.776,648158
65116,Salerno,SAAA8AC03C,"""PRODUTTIVITA'"" RIONE PETROSINO",RIONE PETROSINO,40.68253072558,14.778008556466,13217,40.738795,14.7618538,village,Baronissi,65013,8410.203,556284
65116,Salerno,SAAA8AC04D,"VIA DALMAZIA ""S.DEMETRIO""",VIA DALMAZIA,40.678319584136,14.771636079134,13217,40.738795,14.7618538,village,Baronissi,65013,8204.941,527153
65116,Salerno,SAAA8AC02B,VIA GUGLIELMINI,VIA GUGLIELMINI23,40.67946001919,14.776170027804,13217,40.738795,14.7618538,village,Baronissi,65013,8248.915,538912
65116,Salerno,SAAA8A801D,SALERNO - EDIFICIO VICINANZA,CORSO V.EMANUELE153,40.676820013056,14.766100009329,13217,40.738795,14.7618538,village,Baronissi,65013,9199.551,636664
65116,Salerno,SAAA8B603E,ALFONSO GATTO,VIA F. GAETA,40.664229196779,14.794096392276,13217,40.738795,14.7618538,village,Baronissi,65013,11017.534,687210
65116,Salerno,SAAA8B601C,DON MILANI,VIA BELISARIO CORENZIO 46,40.663229072082,14.799704166298,13217,40.738795,14.7618538,village,Baronissi,65013,11400.997,731628
65116,Salerno,SAAA8A703Q,"SC. INFANZIA ""CLEMENTE TAFURI""",SALITA MONTEVERGINE 8,40.682159997841,14.758980001676,13217,40.738795,14.7618538,village,Baronissi,65013,9381.083,723649
65116,Salerno,SAAA89102L,FRATTE-VIA BUONSERVIZI,VIA BUONSERVIZI,40.695031385925,14.777046550871,13217,40.738795,14.7618538,village,Baronissi,65013,6175.291,409341
65116,Salerno,SAAA81803G,GIOVI PIEGOLELLE,VIA MONTE BELLARA,40.688954923352,14.820482574757,13217,40.738795,14.7618538,village,Baronissi,65013,10789.67,1002613
65116,Salerno,SAAA81801D,S. ANGELO DI OGLIARA,VIA S.ANGELO,40.706141688073,14.813851540353,13217,40.738795,14.7618538,village,Baronissi,65013,8101.438,720276
65116,Salerno,SAAA8A702P,"SC. INFANZIA ""N.ABBAGNANO""",VIA C. BATTISTI 1,40.682819988897,14.761279995908,13217,40.738795,14.7618538,village,Baronissi,65013,9190.333,700758
65116,Salerno,SAAA8B501L,EDIFICIO COSTA,VIA GIACOMO COSTA,40.687080007366,14.774865401626,13217,40.738795,14.7618538,village,Baronissi,65013,7106.701,479380
65116,Salerno,SAAA8AB04N,ARBOSTELLA,VIA WAGNER,40.654066414192,14.81518619003,13217,40.738795,14.7618538,village,Baronissi,65013,13402.052,851696
65116,Salerno,SAAA8B401R,"SCUOLA INFANZIA ""GIANNI RODARI""",VIA LASPRO,40.68538,14.7689,13217,40.738795,14.7618538,village,Baronissi,65013,8025.463,589630
65116,Salerno,SAAA8A603X,CARLO COLLODI,VIA SICA,40.673709682783,14.785149737656,13217,40.738795,14.7618538,village,Baronissi,65013,9722.025,634774
65116,Salerno,SAAA8AB01E,MARICONDA VIA PASUBIO C/O SC.EL,VIA PASUBIO,40.658408543334,14.809028191234,13217,40.738795,14.7618538,village,Baronissi,65013,12124.449,801693
65116,Salerno,SAAA8AB03L,FUORNI,VIA MONTICELLI,40.65300631998,14.84423615717,13217,40.738795,14.7618538,village,Baronissi,65013,15658.657,964200
65116,Salerno,SAAA8B901X,INFANZIA MAZZETTI,VIA ROCCO COCCHIA 67/69,40.663979985129,14.797900027967,13217,40.738795,14.7618538,village,Baronissi,65013,11428.474,724676
65116,Salerno,SAAA89103N,SALERNO - MATIERNO,VIALE DELLA REPUBBLICA,40.701057855339,14.785677739972,13217,40.738795,14.7618538,village,Baronissi,65013,6035.982,453785
65116,Salerno,SAAA81804L,OGLIARA VIA POSTIGLIONE,VIA POSTIGLIONE,40.706322509412,14.806641264292,13217,40.738795,14.7618538,village,Baronissi,65013,7216.012,676403
65116,Salerno,SAAA8AB02G,MERCATELLO,VIA PICENZA30,40.655650007844,14.809379966375,13217,40.738795,14.7618538,village,Baronissi,65013,13098.55,820442
65116,Salerno,SAAA18201P,SC.INFANZIA ANN. CONV.NAZIONALE,PIAZZA ABATE CONFORTI 22,40.680940011833,14.758269970658,13217,40.738795,14.7618538,village,Baronissi,65013,9306.722,714726
65116,Salerno,SAAA8A701N,SCUOLA INFANZIA G. BARRA,VIA LUNGOMARE TRIESTE 17,40.677890004906,14.754319998787,13217,40.738795,14.7618538,village,Baronissi,65013,9981.452,649692
65116,Salerno,SAAA89104P,VIA EX GUADALUPO,VIA S.CALENDA,40.688040435888,14.771447736809,13217,40.738795,14.7618538,village,Baronissi,65013,7956.958,581412
65116,Salerno,SAAA893039,S. EUSTACHIO,VIA GIOBERTI,40.664083404231,14.815238014537,13217,40.738795,14.7618538,village,Baronissi,65013,11394.239,734130
65116,Salerno,SAAA8B502N,MEDAGLIE D'ORO,VIA P. VOCCA 12,40.683659981323,14.773280031408,13217,40.738795,14.7618538,village,Baronissi,65013,7545.98,506866
65116,Salerno,SAAA893028,"""M.MONTESSORI""",VIA DEI MILLE,40.665231729104,14.802207005696,13217,40.738795,14.7618538,village,Baronissi,65013,11518.078,722341
65116,Salerno,SAAA893017,"""F. FROEBEL""",VIA DEI MILLE 48,40.665674596404,14.800486264192,13217,40.738795,14.7618538,village,Baronissi,65013,11133.47,694649
65116,Salerno,SAAA8A602V,SALA ABBAGNANO,VIALE DELLE QUERCE,40.678403262608,14.787958311046,13217,40.738795,14.7618538,village,Baronissi,65013,9293.117,593201
65116,Salerno,SAAA8A601T,S. MARGHERITA,VIA MARTIRI UNGHERESI,40.666070012686,14.795443667846,13217,40.738795,14.7618538,village,Baronissi,65013,11104.11,702636
65116,Salerno,SA1A175004,SCUOLA DELL'INF. NON STATALE COMUNALE PIO XII( ENT.LOC.),PIAZZA PIO XII,40.666273144206,14.795621288681,13217,40.738795,14.7618538,village,Baronissi,65013,11141.448,707117
65116,Salerno,SA1A174008,SCUOLA DELL'INF. NON STATALE COMUNALE PIANTANOVA( ENT.LOC.),VIA BOTTEGHELLE 11,40.679630004186,14.75871999504,13217,40.738795,14.7618538,village,Baronissi,65013,10308.103,708921
65116,Salerno,SA1A17900B,SCUOLA DELL'INF. NON STAT COMUNALE TORRIONE BASSO( ENT.LOC),VIA A. DE LEO,40.670434688122,14.782628393032,13217,40.738795,14.7618538,village,Baronissi,65013,9821.477,631996
65116,Salerno,SA1A17800G,SCUOLA DELL'INF NON STAT. COMUNALE S. GIOV. BOSCO( ENT.LOC.),VIA SAN DOMENICO SAVIO,40.68356041962,14.770706524388,13217,40.738795,14.7618538,village,Baronissi,65013,8305.581,600467
65116,Salerno,SA1A076003,"SCUOLA DELL'INFANZIA NON STATALE""INFANZIA SERENA(s r.l. Impresa Sociale)",VIA IRNO 63,40.683029997481,14.775199990149,13217,40.738795,14.7618538,village,Baronissi,65013,7489.497,484228
65116,Salerno,SA1A075007,S.TERESA DEL BAMBINOGESU',VIA RAFASTIA 13,40.681279981826,14.765199960566,13217,40.738795,14.7618538,village,Baronissi,65013,8555.044,624524
65116,Salerno,SA1A08200A,"SCUOLA DELL'INFANZIA PARITARIA ""HAPPY CHILD""(SOCIETA' COOP. SOCIALE)",VIA MADONNA DI FATIMA 95,40.661180010373,14.797689977473,13217,40.738795,14.7618538,village,Baronissi,65013,11612.354,721082
65116,Salerno,SA1A08100E,"SCUOLA DELL'INF. NON STAT ""PREZIOSISSIMO SANGUE""( ENTE REL.)",VIA ROCCO COCCHIA 37,40.66395999429,14.797289993054,13217,40.738795,14.7618538,village,Baronissi,65013,11340.075,714070
65116,Salerno,SA1A07800P,SCUOLA DELL'INF. NON STAT IL GIARDINO DEI BIMBI(COOP MUT.PR),VIA GUARIGLIA 9,40.669969986505,14.781650032281,13217,40.738795,14.7618538,village,Baronissi,65013,10002.616,640876
65116,Salerno,SA1A07700V,SCUOLA DELL'INFANZIA NON STATALE FILIPPO SMALDONE(ENTE REL.),VIA PIO XI 118,40.684140012918,14.765549988842,13217,40.738795,14.7618538,village,Baronissi,65013,8132.439,602466
65116,Salerno,SA1A125003,"SCUOLA DELL'INFANZIA NON STATALE ""AGAZZI"" ( COOP. MUT.PREV)",VIA C. CARUCCI 11,40.678610010389,14.771069974998,13217,40.738795,14.7618538,village,Baronissi,65013,8295.017,536207
65116,Salerno,SA1A084002,"SCUOLA DELL'INFANZIA NON STATALE"" LA FIORITA"" (SOCIETA' COOPERATIVA SOCIALE)",VIA SAN LEONARDO 208,40.647945535321,14.835344683785,13217,40.738795,14.7618538,village,Baronissi,65013,14394.342,862143
65116,Salerno,SA1A083006,"SCUOLA DELL'INFANZIA NON STATALE"" BABY CLUB"" (SOC.COOP.SOC.)",VIA GUGLIELMO VACCA N. 4,40.663269996021,14.797710010222,13217,40.738795,14.7618538,village,Baronissi,65013,11303.156,709638
65116,Salerno,SA1A08600N,SCUOLA DEL MEDITERRANEO,VIA SALVADOR ALLENDE 66,40.630064640338,14.835876502774,13217,40.738795,14.7618538,village,Baronissi,65013,15987.619,975675
65116,Salerno,SA1A08500T,"SCUOLA DELL'INF NON ST ""POMPEO LEBANO VOLTO SANTO""(ENTE REL)",VIA PICENZA83,40.655800002001,14.809300003019,13217,40.738795,14.7618538,village,Baronissi,65013,13111.585,822006
65116,Salerno,SA1A13500N,PICCOLE ORME,VIA LUIGI GUERCIO 464,40.672989986219,14.779739964185,13217,40.738795,14.7618538,village,Baronissi,65013,8793.078,571523
65116,Salerno,SA1A13100A,"SCUOLA DELL'INF. NON STATALE""C.I.F.S. MARIA GORETTI""(ASSOC.)",VIA RUGGI 42,40.667851487801,14.78633645607,13217,40.738795,14.7618538,village,Baronissi,65013,10372.338,663278
65116,Salerno,SA1A01300X,"""CRISTO RE""",VIA MOSCANI 2,40.674759992713,14.796690016425,13217,40.738795,14.7618538,village,Baronissi,65013,10197.799,654693
65116,Salerno,SA1A01400Q,SCUOLA DELL'INF. NON ST. J.J. ROUSSEAU (IMPRESA SOCIALE),VIALE DEGLI EUCALIPTI N.41,40.679040002021,14.790539962608,13217,40.738795,14.7618538,village,Baronissi,65013,9274.154,585804
65116,Salerno,SA1A012004,"SCUOLA DELL'INFANZIA NON STATALE""ROSA AGAZZI""(COOP.MUT. PR)",VIALE DEI PIOPPI 5,40.680059995819,14.790179959866,13217,40.738795,14.7618538,village,Baronissi,65013,9551.115,610273
65090,Pellezzano,SAAA8BH047,SCUOLA INFANZIA DI PELLEZZANO,PIAZZA G. DI VITTORIO 1,40.725249979051,14.757079991865,13217,40.738795,14.7618538,village,Baronissi,65013,2184.874,184386
65090,Pellezzano,SAAA8BH058,SCUOLA INFANZIA DI CAPRIGLIA,VIA SANTAMARIA AMATO 1,40.734319157582,14.760993761158,13217,40.738795,14.7618538,village,Baronissi,65013,728.561,57713
65090,Pellezzano,SAAA8BH036,PELLEZZANO-CAPEZZANO,VIA G.AMENDOLA,40.711615441748,14.769761394685,13217,40.738795,14.7618538,village,Baronissi,65013,4863.363,355418
65090,Pellezzano,SAAA8BH014,COLOGNA,VIA G.MAZZINI,40.718301272967,14.777339973849,13217,40.738795,14.7618538,village,Baronissi,65013,3278.965,229919
65090,Pellezzano,SAAA8BH025,COPERCHIA,VIA NICOLA RUSSO7,40.718280007466,14.767140035875,13217,40.738795,14.7618538,village,Baronissi,65013,3704.395,279799
65090,Pellezzano,SA1A14400C,IL TRENINO DEI SOGNI,VIA WENNER41B,40.696810013939,14.775929970097,13217,40.738795,14.7618538,village,Baronissi,65013,5882.306,387796
65036,Castiglione del Genovesi,SAAA87703B,SC. INFANZIA CASTIGLIONE,VIA V.EMANUELE III,40.72451891568,14.849488626726,13217,40.738795,14.7618538,village,Baronissi,65013,14363.874,1149429
65013,Baronissi,SAAA836013,ROCCO SANTORO,VIA MENOTTI,40.74114905377,14.79500091704,13217,40.738795,14.7618538,village,Baronissi,65013,3711.488,308665
65013,Baronissi,SAAA01406C,SARAGNANO,VIA ARIOSTO,40.741053940504,14.762188072345,13217,40.738795,14.7618538,village,Baronissi,65013,286.042,29979
65013,Baronissi,SAAA01404A,SCUOLA INFANZIA ANTESSANO,VIA S.ANDREA,40.734641348454,14.775051064611,13217,40.738795,14.7618538,village,Baronissi,65013,12429.302,773887
65013,Baronissi,SAAA014039,AIELLO INFERIORE,VIA SABATINO 11,40.729930014689,14.774920034583,13217,40.738795,14.7618538,village,Baronissi,65013,1859.29,159855
65013,Baronissi,SAAA014017,BARONISSI CAPOLUOGO,PARCO OLIMPIA,40.741175,14.770885331,13217,40.738795,14.7618538,village,Baronissi,65013,1560.343,136028
65013,Baronissi,SAAA014028,SCUOLA INFANZIA CAPASIMO,VIA FERRERIA,40.754693262754,14.773378158946,13217,40.738795,14.7618538,village,Baronissi,65013,2207.116,168368
65013,Baronissi,SAAA836035,FERDINANDO VOLPE,VIA BELLINI,40.752522945034,14.790585659492,13217,40.738795,14.7618538,village,Baronissi,65013,3756.371,364055
65013,Baronissi,SA1A02200P,"SCUOLA DELL'INFANZIA NON STAT""BEATO L. PALAZZOLO""(ENTE REL.)",VIA CIRILLO N.55,40.739799999045,14.766409972108,13217,40.738795,14.7618538,village,Baronissi,65013,770.778,60753
65013,Baronissi,SA1A032009,"SCUOLA DELL'INFAN NON STAT""SANTA RITA BABY CLUB""(DITTA IND.)",VIA L. ARIOSTO 11,40.74126000085,14.76239998581,13217,40.738795,14.7618538,village,Baronissi,65013,317.996,34031
65013,Baronissi,SA1A06000D,"SCUOLA DELL'INFANZIA PARITARIA ""S.ANTONIO INFANZIA SERENA""",VIA FERRERIA,40.754693262754,14.773378158946,13217,40.738795,14.7618538,village,Baronissi,65013,2207.116,168368
65013,Baronissi,SA1A191002,"SCUOLA DELL'INF.NON STAT "" FORTUNATO MARIA FARINA"" ENTE REL.",VIA MARCONI 3,40.744299991403,14.767670023613,13217,40.738795,14.7618538,village,Baronissi,65013,853.705,66724
65037,Cava de' Tirreni,SAAA8B2037,ANNUNZIATA,VIA V.GALISE,40.708063708431,14.723346387306,13218,40.7467635,14.7804334,village,Baronissi,65013,13839.002,1067735
65037,Cava de' Tirreni,SAAA8A104T,"CAVA DE' TIRRENI ""DELLA CORTE""",VIA DELLA CORTE,40.702789024348,14.703974088465,13218,40.7467635,14.7804334,village,Baronissi,65013,16090.405,1235451
65037,Cava de' Tirreni,SAAA8A102Q,S.ARCANGELO,VIA IDO LONGO,40.699444865014,14.695355584211,13218,40.7467635,14.7804334,village,Baronissi,65013,17080.528,1323522
65037,Cava de' Tirreni,SAAA8B001D,"""DON BOSCO""",C.SO MAZZINI 10,40.704250000745,14.704999958493,13218,40.7467635,14.7804334,village,Baronissi,65013,16255.816,1244981
65037,Cava de' Tirreni,SAAA8A103R,"""CASTAGNETO""",VIA P. CRAVER,40.68800243635,14.713618092649,13218,40.7467635,14.7804334,village,Baronissi,65013,16666.152,1098621
65037,Cava de' Tirreni,SAAA8B002E,"""PISAPIA""",VIA ADINOLFI,40.708223682687,14.724291625074,13218,40.7467635,14.7804334,village,Baronissi,65013,13681.826,1053157
65037,Cava de' Tirreni,SAAA8BZ021,"""MAMMA LUCIA""",VIA FILANGIERI,40.703837076351,14.696403356941,13218,40.7467635,14.7804334,village,Baronissi,65013,16837.956,1286840
65037,Cava de' Tirreni,SAAA8BZ01X,S.MARIA DEL ROVO,VIA S. MARIA DEL ROVO,40.707749526163,14.694770102748,13218,40.7467635,14.7804334,village,Baronissi,65013,17247.229,1316305
65037,Cava de' Tirreni,SAAA8B103B,S. LUCIA INFANZIA,VIA G.VITALE,40.72108357442,14.700208387356,13218,40.7467635,14.7804334,village,Baronissi,65013,11114.417,1701032
65037,Cava de' Tirreni,SAAA8B102A,S. GIUSEPPE,VIA XXV LUGLIO 222,40.716609997077,14.701000030479,13218,40.7467635,14.7804334,village,Baronissi,65013,18440.083,1147453
65037,Cava de' Tirreni,SAAA8B1019,EPITAFFIO,VIA G. GUARINO,40.71218,14.700133748,13218,40.7467635,14.7804334,village,Baronissi,65013,18608.982,1161095
65037,Cava de' Tirreni,SAAA8B206A,S.NICOLA,VIA A.SALSANO,40.709750240199,14.711583505205,13218,40.7467635,14.7804334,village,Baronissi,65013,15689.876,1181075
65037,Cava de' Tirreni,SAAA8B207B,"CAVA - ""S. LAMBERTI"" PREGIATO",VIA A.CASABURI,40.714539759033,14.71304026696,13218,40.7467635,14.7804334,village,Baronissi,65013,10211.458,1628632
65037,Cava de' Tirreni,SAAA8B2048,S. PIETRO,VIA N.LONGOBARDI,40.70580525376,14.721075772735,13218,40.7467635,14.7804334,village,Baronissi,65013,14007.643,1061904
65037,Cava de' Tirreni,SAAA8A302B,CORSO UMBERTO,CORSO ITALIA,40.71218,14.700133748,13218,40.7467635,14.7804334,village,Baronissi,65013,18608.982,1161095
65037,Cava de' Tirreni,SAAA8A303C,VIA CARILLO,VIA CARILLO,40.70187294448,14.711280875943,13218,40.7467635,14.7804334,village,Baronissi,65013,15095.978,1143467
65037,Cava de' Tirreni,SAAA8A301A,S.LORENZO -CASA APICELLA-,VIA CARLO SANTORO,40.701320173486,14.712490521525,13218,40.7467635,14.7804334,village,Baronissi,65013,14933.681,1130483
65037,Cava de' Tirreni,SAAA8B2015,S. ANNA A SCARICO,VIA P. DI DOMENICO,40.737362276057,14.70877397716,13218,40.7467635,14.7804334,village,Baronissi,65013,9505.484,1561785
65037,Cava de' Tirreni,SAAA8B208C,CAVA DE' TIRRENI - DUPINO,VIA G. SIANI,40.695383311691,14.72385745608,13218,40.7467635,14.7804334,village,Baronissi,65013,15709.199,1174063
65037,Cava de' Tirreni,SAAA8B2059,SCUOLA SPECIALE,VIA MARGHERI 20,40.694829998861,14.720300033093,13218,40.7467635,14.7804334,village,Baronissi,65013,15214.134,1138419
65037,Cava de' Tirreni,SAAA8A105V,SAN CESAREO,VIA FRANCESCO VECCHIONE,40.68689817087,14.707947400448,13218,40.7467635,14.7804334,village,Baronissi,65013,16891.253,1111315
65037,Cava de' Tirreni,SA1A05000V,SCUOLA DELL'INF. NON ST.. N SIGNORA DEL S.ROSARIO (ENT REL.),VIA SALVO D'ACQUISTO N. 3,40.707910000676,14.699660015618,13218,40.7467635,14.7804334,village,Baronissi,65013,16820.145,1285555
65037,Cava de' Tirreni,SA1A05200E,SCUOLA DELL'INFANZIA NON STAT. RAFFAELE BALDI( ENTE REL.),PIAZZA F. BALDI ex via Valle snc,40.730381851968,14.701198743278,13218,40.7467635,14.7804334,village,Baronissi,65013,9975.464,1620019
65037,Cava de' Tirreni,SA1A8N500C,ASILO PICCOLI PASSI,VIA MAGGIORE P. FORMOSA 9,40.698270015744,14.702480023123,13218,40.7467635,14.7804334,village,Baronissi,65013,17345.429,1162668
65037,Cava de' Tirreni,SA1A05100P,SCUOLA DELL'INF. NON STAT. S. MICHELE ARCANGELO( ENTE REL.),VIA P. SIANI 5,40.696459985662,14.697869976376,13218,40.7467635,14.7804334,village,Baronissi,65013,18008.234,1241414
65067,Mercato San Severino,SAAA8BJ06E,"CAMPAGNA ""FOLCATA""",VIA CAMPO SPORTIVO20,40.786969997355,14.759760021586,13218,40.7467635,14.7804334,village,Baronissi,65013,5825.181,426121
65067,Mercato San Severino,SAAA074042,PANDOLA INFANZIA,VIA DELLE PUGLIE,40.795033486807,14.759894292708,13218,40.7467635,14.7804334,village,Baronissi,65013,6858.063,487480
65067,Mercato San Severino,SAAA074031,SPIANO,PIAZZA SANTA CROCE,40.760347771741,14.752015872247,13218,40.7467635,14.7804334,village,Baronissi,65013,5772.85,577993
65067,Mercato San Severino,SAAA074097,"MERCATO S.SEVERINO -""E.COPPOLA""",VIA RIMEMBRANZA,40.784514880789,14.75301047873,13218,40.7467635,14.7804334,village,Baronissi,65013,6353.919,498961
65067,Mercato San Severino,SAAA07402X,"""E.PESCE""",VIA PIZZONE,40.792200530813,14.762710418339,13218,40.7467635,14.7804334,village,Baronissi,65013,6936.636,501442
65067,Mercato San Severino,SAAA074086,DON SALVATORE GUADAGNO,VIA MUNICIPIO,40.785960019932,14.755536174389,13218,40.7467635,14.7804334,village,Baronissi,65013,6501.513,513257
65067,Mercato San Severino,SAAA075071,COSTA INFANZIA,PIAZZA PADRE BASILIO PERGAMO 10,40.780220008819,14.723200003953,13218,40.7467635,14.7804334,village,Baronissi,65013,8895.134,643856
65067,Mercato San Severino,SAAA07501P,CARIFI,VIA CIORANI 3/3,40.78666960073,14.733946387368,13218,40.7467635,14.7804334,village,Baronissi,65013,7897.586,623720
65067,Mercato San Severino,SAAA075082,SAN VINCENZO INFANZIA,VIA SAN VINCENZO - CURTERI,40.779111934813,14.744896026294,13218,40.7467635,14.7804334,village,Baronissi,65013,6885.255,530704
65067,Mercato San Severino,SAAA07505V,SANT'ANGELO INFANZIA,VIA ELISEO 24,40.772900222046,14.732568658125,13218,40.7467635,14.7804334,village,Baronissi,65013,7977.182,542638
65067,Mercato San Severino,SAAA07506X,"""LUIGI CACCIATORI""",VIA S. ANDREA VILLANI 8,40.773048523931,14.745061106479,13218,40.7467635,14.7804334,village,Baronissi,65013,7001.2,473289
65067,Mercato San Severino,SAAA07502Q,"""S. ALFONSO M. DE LIGUORI""",VIA NOCELLETO 2,40.804319271752,14.733324623423,13218,40.7467635,14.7804334,village,Baronissi,65013,10346.018,824416
65067,Mercato San Severino,SAAA07504T,SANT'EUSTACHIO,CORSO FRANCESCO CARACCIOLO 1,40.769500015662,14.704720002927,13218,40.7467635,14.7804334,village,Baronissi,65013,10623.426,798952
65067,Mercato San Severino,SA1AO6500Q,"SCUOLA DELL'INFANZIA PARITARIA ""CRESCERE INSIEME""",Via Trieste 49,40.783170019641,14.755750035288,13218,40.7467635,14.7804334,village,Baronissi,65013,5975.642,453568
65067,Mercato San Severino,SA1A059009,"SCUOLA DELL'INFANZIA PAR.""MARIA SS DEL ROSARIO""-ENTEGEST.""PAIDEIA""SRL IMPR.SOC.",PIAZZA E. IMPERIO NÂ° 7,40.785950003558,14.753430008308,13218,40.7467635,14.7804334,village,Baronissi,65013,6515.038,518295
65052,Fisciano,SAAA89203D,"PENTA ""RINALDI CARMELA""",VIA MATTEOTTI,40.762394348939,14.791343650888,13218,40.7467635,14.7804334,village,Baronissi,65013,2383.334,275837
65052,Fisciano,SAAA89201B,"LANCUSI"" DE CARO""",VIA DON ALFONSO DE CARO,40.760771027219,14.780574300842,13218,40.7467635,14.7804334,village,Baronissi,65013,1887.539,233130
65052,Fisciano,SAAA89003T,SCUOLA INFANZIA PIZZOLANO,VIA PARCO DONICA,40.787380171604,14.787073915188,13218,40.7467635,14.7804334,village,Baronissi,65013,6051.164,551436
65052,Fisciano,SAAA890061,GAIANO,VIA SUBIA,40.753512589497,14.814079052917,13218,40.7467635,14.7804334,village,Baronissi,65013,4330.574,403891
65052,Fisciano,SAAA89004V,SCUOLA INFANZIA FISCIANO,VIA ROMA 47,40.769299981543,14.797710010222,13218,40.7467635,14.7804334,village,Baronissi,65013,3627.64,363052
65116,Salerno,SAAA8B7018,"SALERNO IV ""MARI""",PIAZZA TRUCILLO 22,40.668660159644,14.784883930606,13218,40.7467635,14.7804334,village,Baronissi,65013,11354.651,726534
65116,Salerno,SAAA8AC03C,"""PRODUTTIVITA'"" RIONE PETROSINO",RIONE PETROSINO,40.68253072558,14.778008556466,13218,40.7467635,14.7804334,village,Baronissi,65013,9588.078,634660
65116,Salerno,SAAA8AC04D,"VIA DALMAZIA ""S.DEMETRIO""",VIA DALMAZIA,40.678319584136,14.771636079134,13218,40.7467635,14.7804334,village,Baronissi,65013,9382.816,605529
65116,Salerno,SAAA8AC02B,VIA GUGLIELMINI,VIA GUGLIELMINI23,40.67946001919,14.776170027804,13218,40.7467635,14.7804334,village,Baronissi,65013,9426.79,617288
65116,Salerno,SAAA8A801D,SALERNO - EDIFICIO VICINANZA,CORSO V.EMANUELE153,40.676820013056,14.766100009329,13218,40.7467635,14.7804334,village,Baronissi,65013,10377.426,715040
65116,Salerno,SAAA8B603E,ALFONSO GATTO,VIA F. GAETA,40.664229196779,14.794096392276,13218,40.7467635,14.7804334,village,Baronissi,65013,12195.409,765586
65116,Salerno,SAAA8B601C,DON MILANI,VIA BELISARIO CORENZIO 46,40.663229072082,14.799704166298,13218,40.7467635,14.7804334,village,Baronissi,65013,12578.872,810004
65116,Salerno,SAAA8A703Q,"SC. INFANZIA ""CLEMENTE TAFURI""",SALITA MONTEVERGINE 8,40.682159997841,14.758980001676,13218,40.7467635,14.7804334,village,Baronissi,65013,10558.958,802025
65116,Salerno,SAAA89102L,FRATTE-VIA BUONSERVIZI,VIA BUONSERVIZI,40.695031385925,14.777046550871,13218,40.7467635,14.7804334,village,Baronissi,65013,7353.166,487717
65116,Salerno,SAAA81803G,GIOVI PIEGOLELLE,VIA MONTE BELLARA,40.688954923352,14.820482574757,13218,40.7467635,14.7804334,village,Baronissi,65013,11967.545,1080989
65116,Salerno,SAAA81801D,S. ANGELO DI OGLIARA,VIA S.ANGELO,40.706141688073,14.813851540353,13218,40.7467635,14.7804334,village,Baronissi,65013,9279.313,798652
65116,Salerno,SAAA8A702P,"SC. INFANZIA ""N.ABBAGNANO""",VIA C. BATTISTI 1,40.682819988897,14.761279995908,13218,40.7467635,14.7804334,village,Baronissi,65013,10368.208,779134
65116,Salerno,SAAA8B501L,EDIFICIO COSTA,VIA GIACOMO COSTA,40.687080007366,14.774865401626,13218,40.7467635,14.7804334,village,Baronissi,65013,8284.576,557756
65116,Salerno,SAAA8AB04N,ARBOSTELLA,VIA WAGNER,40.654066414192,14.81518619003,13218,40.7467635,14.7804334,village,Baronissi,65013,14579.927,930072
65116,Salerno,SAAA8B401R,"SCUOLA INFANZIA ""GIANNI RODARI""",VIA LASPRO,40.68538,14.7689,13218,40.7467635,14.7804334,village,Baronissi,65013,9203.338,668006
65116,Salerno,SAAA8A603X,CARLO COLLODI,VIA SICA,40.673709682783,14.785149737656,13218,40.7467635,14.7804334,village,Baronissi,65013,10899.899,713150
65116,Salerno,SAAA8AB01E,MARICONDA VIA PASUBIO C/O SC.EL,VIA PASUBIO,40.658408543334,14.809028191234,13218,40.7467635,14.7804334,village,Baronissi,65013,13302.324,880069
65116,Salerno,SAAA8AB03L,FUORNI,VIA MONTICELLI,40.65300631998,14.84423615717,13218,40.7467635,14.7804334,village,Baronissi,65013,16836.532,1042576
65116,Salerno,SAAA8B901X,INFANZIA MAZZETTI,VIA ROCCO COCCHIA 67/69,40.663979985129,14.797900027967,13218,40.7467635,14.7804334,village,Baronissi,65013,12606.349,803052
65116,Salerno,SAAA89103N,SALERNO - MATIERNO,VIALE DELLA REPUBBLICA,40.701057855339,14.785677739972,13218,40.7467635,14.7804334,village,Baronissi,65013,7213.857,532161
65116,Salerno,SAAA81804L,OGLIARA VIA POSTIGLIONE,VIA POSTIGLIONE,40.706322509412,14.806641264292,13218,40.7467635,14.7804334,village,Baronissi,65013,8393.887,754779
65116,Salerno,SAAA8AB02G,MERCATELLO,VIA PICENZA30,40.655650007844,14.809379966375,13218,40.7467635,14.7804334,village,Baronissi,65013,14276.425,898818
65116,Salerno,SAAA18201P,SC.INFANZIA ANN. CONV.NAZIONALE,PIAZZA ABATE CONFORTI 22,40.680940011833,14.758269970658,13218,40.7467635,14.7804334,village,Baronissi,65013,10484.597,793102
65116,Salerno,SAAA8A701N,SCUOLA INFANZIA G. BARRA,VIA LUNGOMARE TRIESTE 17,40.677890004906,14.754319998787,13218,40.7467635,14.7804334,village,Baronissi,65013,11159.327,728068
65116,Salerno,SAAA89104P,VIA EX GUADALUPO,VIA S.CALENDA,40.688040435888,14.771447736809,13218,40.7467635,14.7804334,village,Baronissi,65013,9134.833,659788
65116,Salerno,SAAA893039,S. EUSTACHIO,VIA GIOBERTI,40.664083404231,14.815238014537,13218,40.7467635,14.7804334,village,Baronissi,65013,12572.114,812506
65116,Salerno,SAAA8B502N,MEDAGLIE D'ORO,VIA P. VOCCA 12,40.683659981323,14.773280031408,13218,40.7467635,14.7804334,village,Baronissi,65013,8723.855,585242
65116,Salerno,SAAA893028,"""M.MONTESSORI""",VIA DEI MILLE,40.665231729104,14.802207005696,13218,40.7467635,14.7804334,village,Baronissi,65013,12695.953,800717
65116,Salerno,SAAA893017,"""F. FROEBEL""",VIA DEI MILLE 48,40.665674596404,14.800486264192,13218,40.7467635,14.7804334,village,Baronissi,65013,12311.345,773025
65116,Salerno,SAAA8A602V,SALA ABBAGNANO,VIALE DELLE QUERCE,40.678403262608,14.787958311046,13218,40.7467635,14.7804334,village,Baronissi,65013,10470.992,671577
65116,Salerno,SAAA8A601T,S. MARGHERITA,VIA MARTIRI UNGHERESI,40.666070012686,14.795443667846,13218,40.7467635,14.7804334,village,Baronissi,65013,12281.985,781012
65116,Salerno,SA1A175004,SCUOLA DELL'INF. NON STATALE COMUNALE PIO XII( ENT.LOC.),PIAZZA PIO XII,40.666273144206,14.795621288681,13218,40.7467635,14.7804334,village,Baronissi,65013,12319.323,785493
65116,Salerno,SA1A174008,SCUOLA DELL'INF. NON STATALE COMUNALE PIANTANOVA( ENT.LOC.),VIA BOTTEGHELLE 11,40.679630004186,14.75871999504,13218,40.7467635,14.7804334,village,Baronissi,65013,11485.978,787297
65116,Salerno,SA1A17900B,SCUOLA DELL'INF. NON STAT COMUNALE TORRIONE BASSO( ENT.LOC),VIA A. DE LEO,40.670434688122,14.782628393032,13218,40.7467635,14.7804334,village,Baronissi,65013,10999.352,710372
65116,Salerno,SA1A17800G,SCUOLA DELL'INF NON STAT. COMUNALE S. GIOV. BOSCO( ENT.LOC.),VIA SAN DOMENICO SAVIO,40.68356041962,14.770706524388,13218,40.7467635,14.7804334,village,Baronissi,65013,9483.456,678843
